~Version Information
VERS.                      2.0: CWLS Log ASCII Standard - VERSION 2.0
WRAP.                       NO: One line per depth step
~Well Information Block
STRT.FT               745.0000: 
STOP.FT              1985.0000: 
STEP.FT                 0.1000: 
NULL.                -999.2500: 
COMP.          Pioneer Natural Resources: COMPANY
WELL.          Lorencito 15-36-33-67: WELL
FLD.           Purgatoire River: FIELD
LOC.           38' FSL & 1446' FEL: LOCATION
STAT.                 Colorado: State
CNTY.               Las Animas: COUNTY
CTRY. USA : Country
SECT. 36 : Section
TOWN. 33S : Township
RANG. 67W : Range
SRVC.                Patterson: SERVICE COMPANY
DATE.          Thu Oct 13 10:16:17 2005: LOG DATE
API.           05 071 08515 00: UNIQUE WELL ID
~Curve Information Block
DEPT.FT            0 000 00 00: Depth
DCAL.in                       : CDL Caliper
RHOB.g/cc                     : CDL Bulk Density
RHOC.g/cc                     : CDL Density Correction
DPOR.pu                       : CDL Density Porosity
GR.GAPI                       : Gamma Ray
NPOR.pu                       : Neutron Porosity
~Parameter Information Block
~A  Depth       DCAL        RHOB        RHOC        DPOR         GR         NPOR    
# ...
  1397.8000      8.1991      2.6463      0.1999      0.2263    135.9964     24.2341
  1397.9000      8.1991      2.6686      0.2134     -1.1264    136.0116     23.9747
  1398.0000      8.1992      2.6616      0.1657     -0.7002    140.0042     23.9751
  1398.1000      8.1992      2.6214      0.0417      1.7337    145.8132     23.9699
  1398.2000      8.1992      2.5863      0.0261      3.8590    150.0609     23.9044
  1398.3000      8.1995      2.5811      0.0413      4.1743    151.3377     24.2669
  1398.4000      8.1995      2.5869      0.0536      3.8219    149.0639     24.9738
  1398.5000      8.1991      2.5771      0.0434      4.4156    149.8091     25.3753
  1398.6000      8.1991      2.5583      0.0186      5.5604    157.7950     25.6346
  1398.7000      8.1991      2.5558      0.0254      5.7121    164.2441     26.1535
  1398.8000      8.1999      2.5750      0.0241      4.5434    160.3169     26.5919
  1398.9000      8.1999      2.5939      0.0974      3.4014    152.4328     26.5129
  1399.0000      8.1978      2.5878      0.0528      3.7705    151.0115     25.9531
  1399.1000      8.1978      2.5664     -0.0158      5.0682    154.3497     25.4856
  1399.2000      8.1978      2.5566     -0.0002      5.6624    154.2214     25.7158
  1399.3000      8.1988      2.5612      0.0178      5.3814    149.8765     26.4656
  1399.4000      8.1988      2.5677      0.0262      4.9862    147.6490     27.1314
  1399.5000      8.1996      2.5724      0.0198      4.7025    148.9569     27.5254
  1399.6000      8.1996      2.5742      0.0172      4.5923    146.6308     27.6692
  1399.7000      8.1996      2.5690      0.0048      4.9118    140.1118     27.5945
  1399.8000      8.2022      2.5535     -0.0044      5.8484    138.5394     27.4315
  1399.9000      8.2022      2.5276      0.0135      7.4167    143.6179     27.1664
  1400.0000      8.1991      2.5018     -0.0262      8.9839    149.6569     26.7421
  1400.1000      8.1991      2.4903      0.0046      9.6788    156.4682     26.4503
  1400.2000      8.1991      2.4933      0.0075      9.4982    165.2928     26.5005
  1400.3000      8.1960      2.4977      0.0460      9.2290    171.2820     26.7362
  1400.4000      8.1960      2.4892      0.0123      9.7431    170.7700     26.9631
  1400.5000      8.1863      2.4718     -0.0174     10.8024    166.1292     26.9106
  1400.6000      8.1863      2.4624     -0.0008     11.3671    163.6651     26.6051
  1400.7000      8.1863      2.4657      0.0289     11.1682    162.9877     26.6474
  1400.8000      8.1976      2.4781      0.0051     10.4180    158.3974     27.2073
  1400.9000      8.1976      2.4952      0.1054      9.3797    152.3299     27.4639
  1401.0000      8.1989      2.5037      0.1358      8.8660    151.9240     26.9373
  1401.1000      8.1989      2.4988      0.1333      9.1615    155.1848     26.3227
  1401.2000      8.1989      2.4963      0.0540      9.3127    155.1548     26.5190
  1401.3000      8.1945      2.5069      0.0978      8.6742    152.0120     27.2308
  1401.4000      8.1945      2.5149      0.1476      8.1864    147.7903     27.3326
  1401.5000      8.1978      2.5035      0.1312      8.8789    143.8322     26.7180
  1401.6000      8.1978      2.4876      0.0550      9.8400    142.8434     26.3489
  1401.7000      8.1978      2.4922      0.0938      9.5619    146.9210     26.5321
  1401.8000      8.1974      2.5045      0.1423      8.8156    154.8575     26.6628
  1401.9000      8.1974      2.5003      0.1073      9.0740    162.4586     26.4021
  1402.0000      8.1991      2.4896      0.0953      9.7227    165.2366     26.0865
  1402.1000      8.1991      2.4908      0.1471      9.6474    159.5070     26.0558
  1402.2000      8.1991      2.5055      0.1467      8.7575    148.5493     26.1860
  1402.3000      8.1999      2.5257      0.1822      7.5333    144.7661     26.3280
  1402.4000      8.1999      2.5413      0.1734      6.5861    154.6560     26.6307
  1402.5000      8.2007      2.5517      0.1954      5.9578    170.3951     27.0415
  1402.6000      8.2007      2.5641      0.1709      5.2091    177.9512     27.2427
  1402.7000      8.2007      2.5794      0.2124      4.2798    172.4860     27.2903
  1402.8000      8.2079      2.5829      0.1977      4.0638    162.5245     27.5933
  1402.9000      8.2079      2.5678      0.1230      4.9795    157.7714     28.2596
  1403.0000      8.2070      2.5526      0.0631      5.9036    161.1560     28.9065
  1403.1000      8.2070      2.5488      0.1014      6.1322    168.0962     29.0603
  1403.2000      8.2070      2.5486      0.0761      6.1461    168.2972     28.6604
  1403.3000      8.2027      2.5502      0.1003      6.0507    156.8512     28.2365
  1403.4000      8.2027      2.5556      0.1309      5.7242    145.3056     28.3946
  1403.5000      8.2085      2.5610      0.0710      5.3952    144.3901     29.1332
  1403.6000      8.2085      2.5679      0.0254      4.9734    149.2566     29.8289
  1403.7000      8.2085      2.5735      0.0669      4.6368    151.9662     29.8616
  1403.8000      8.2091      2.5694      0.0276      4.8877    151.6712     29.2573
  1403.9000      8.2091      2.5586      0.0338      5.5396    150.5605     28.6619
  1404.0000      8.2085      2.5503     -0.0004      6.0412    146.2324     28.8607
  1404.1000      8.2085      2.5490      0.0142      6.1228    138.8823     29.7645
  1404.2000      8.2085      2.5500      0.0320      6.0591    137.7540     30.2862
  1404.3000      8.2069      2.5471      0.0304      6.2351    145.7578     29.9134
  1404.4000      8.2069      2.5412      0.0073      6.5966    151.6306     29.2125
  1404.5000      8.2059      2.5370     -0.0096      6.8497    149.3517     28.6448
  1404.6000      8.2059      2.5336      0.0255      7.0523    147.5798     28.1010
  1404.7000      8.2059      2.5250      0.0190      7.5785    149.5518     27.5190
  1404.8000      8.2065      2.5096      0.0200      8.5105    150.5903     26.8954
  1404.9000      8.2065      2.4916     -0.0348      9.6028    150.4035     26.4642
  1405.0000      8.2032      2.4783     -0.0368     10.4054    149.8640     26.6675
  1405.1000      8.2032      2.4748     -0.0519     10.6173    152.4778     26.9690
  1405.2000      8.2032      2.4743      0.0255     10.6470    158.2973     26.3769
  1405.3000      8.2040      2.4687     -0.0272     10.9882    158.6653     25.3260
  1405.4000      8.2040      2.4620      0.0017     11.3967    151.8247     24.8161
  1405.5000      8.2069      2.4554      0.0206     11.7927    147.7467     25.0585
  1405.6000      8.2069      2.4524      0.0089     11.9757    153.5903     25.8138
  1405.7000      8.2069      2.4644      0.0390     11.2475    164.0973     26.1924
  1405.8000      8.2081      2.4922      0.0409      9.5636    173.3889     25.6434
  1405.9000      8.2081      2.5256      0.0969      7.5385    180.4962     25.0433
  1406.0000      8.2076      2.5492      0.1236      6.1082    180.6632     25.2173
  1406.1000      8.2076      2.5500      0.1348      6.0576    175.0190     26.0736
  1406.2000      8.2076      2.5375      0.1194      6.8166    174.8222     27.3015
  1406.3000      8.2097      2.5340      0.1487      7.0316    179.0756     28.3878
  1406.4000      8.2097      2.5428      0.1541      6.4957    178.1003     28.5004
  1406.5000      8.2087      2.5522      0.1014      5.9243    175.6570     27.5720
  1406.6000      8.2087      2.5480      0.0887      6.1810    178.9787     26.8575
  1406.7000      8.2087      2.5263      0.0393      7.4945    181.2583     27.1650
  1406.8000      8.2001      2.5061      0.0153      8.7211    175.7585     27.7466
  1406.9000      8.2001      2.5025      0.0105      8.9421    166.2499     27.8410
  1407.0000      8.1444      2.5138      0.0058      8.2527    161.3616     27.5689
  1407.1000      8.1444      2.5340      0.0480      7.0331    168.2425     27.4014
  1407.2000      8.1444      2.5542      0.0794      5.8061    180.9536     27.7514
  1407.3000      8.1405      2.5665      0.1117      5.0636    183.9172     28.4301
