~Version Information
VERS.                      2.0: CWLS Log ASCII Standard - VERSION 2.0
WRAP.                       NO: One line per depth step
~Well Information Block
STRT.FT               452.0000: 
STOP.FT              1726.5000: 
STEP.FT                 0.1000: 
NULL.                -999.2500: 
COMP.          Pioneer Natural Resources: COMPANY
WELL.          Parrothead 31-31 Tr: WELL
FLD.           Purgatoire River: FIELD
LOC.           496' FNL & 1546' FEL: LOCATION
PROV.                 Colorado: PROVINCE
CNTY.               Las Animas: COUNTRY
SRVC.                Patterson: SERVICE COMPANY
DATE.          Thu Nov 10 07:29:36 2005: LOG DATE
UWI.           05 071 08610 00: UNIQUE WELL ID
~Curve Information Block
DEPT.FT            0 000 00 00: Depth
DCAL.in                       : CDL Caliper
RHOB.g/cc                     : CDL Bulk Density
RHOC.g/cc                     : CDL Density Correction
DPOR.pu                       : CDL Density Porosity
GR.GAPI                       : Gamma Ray
NPOR.pu                       : Neutron Porosity
~Parameter Information Block
~A  Depth       DCAL        RHOB        RHOC        DPOR         GR         NPOR    
# ...
  1623.2000      7.8675      2.5795      0.0724      4.2743    127.8318     25.7117
  1623.3000      7.8869      2.6144      0.1697      2.1554    126.9296     25.4206
  1623.4000      7.8869      2.6244      0.1359      1.5544    123.4218     24.9846
  1623.5000      7.8782      2.6056      0.1184      2.6918    117.3270     24.6746
  1623.6000      7.8782      2.5805      0.0534      4.2150    113.8501     24.5491
  1623.7000      7.8782      2.5649      0.0788      5.1572    112.5009     24.2812
  1623.8000      7.8750      2.5577      0.0557      5.5958    109.2436     23.9063
  1623.9000      7.8750      2.5548      0.0530      5.7701    107.7162     23.6562
  1624.0000      7.8676      2.5589      0.0543      5.5212    111.2017     23.4020
  1624.1000      7.8676      2.5683      0.0697      4.9487    115.4500     23.3063
  1624.2000      7.8676      2.5659      0.0402      5.0954    117.6542     23.7904
  1624.3000      7.8791      2.5415      0.0066      6.5785    116.0416     24.4098
  1624.4000      7.8791      2.5097      0.0161      8.5051    110.1605     24.5119
  1624.5000      7.8989      2.4802      0.0516     10.2889    105.8482     24.1314
  1624.6000      7.8989      2.4473      0.0260     12.2864    107.8942     24.3988
  1624.7000      7.8989      2.4112      0.0213     14.4720    116.0887     25.9455
  1624.8000      7.8702      2.3754      0.0225     16.6418    128.6351     27.5554
  1624.9000      7.8702      2.3419     -0.0164     18.6730    141.4094     28.2403
  1625.0000      7.8712      2.3257     -0.0152     19.6574    148.5824     28.0823
  1625.1000      7.8712      2.3389      0.0621     18.8556    145.0918     27.5905
  1625.2000      7.8712      2.3675      0.1025     17.1222    135.6980     27.5708
  1625.3000      7.8828      2.3876      0.1824     15.9043    130.9978     28.0387
  1625.4000      7.8828      2.3933      0.1236     15.5585    131.5417     28.1282
  1625.5000      7.9020      2.3895      0.1614     15.7853    131.9550     28.1010
  1625.6000      7.9020      2.3691      0.1660     17.0262    131.3090     28.6699
  1625.7000      7.9020      2.3175      0.1619     20.1515    133.8178     29.3341
  1625.8000      7.8974      2.2370      0.1193     25.0281    137.6714     29.6659
  1625.9000      7.8974      2.1546      0.0775     30.0272    136.7626     30.0035
  1626.0000      7.8177      2.0893      0.0734     33.9816    131.2945     30.2497
  1626.1000      7.8177      2.0273      0.0740     37.7420    122.8897     29.7790
  1626.2000      7.8177      1.9375      0.0610     43.1848    112.0876     28.9063
  1626.3000      7.8166      1.8120      0.0326     50.7875    102.2824     28.5446
  1626.4000      7.8166      1.6904      0.0057     58.1564     97.3885     28.7550
  1626.5000      7.8797      1.6198      0.0561     62.4340     97.9756     28.8442
  1626.6000      7.8797      1.6088      0.0267     63.1001    100.4859     28.8802
  1626.7000      7.8797      1.6389      0.0696     61.2809    101.5148     29.4823
  1626.8000      7.9829      1.6832      0.1074     58.5954    103.3656     30.4071
  1626.9000      7.9829      1.7253      0.0587     56.0431    106.8799     30.9400
  1627.0000      8.0672      1.7681      0.1290     53.4467    108.6815     31.0107
  1627.1000      8.0672      1.8124      0.1660     50.7647    109.4789     31.1065
  1627.2000      8.0672      1.8601      0.1718     47.8751    113.8043     31.4078
  1627.3000      8.3051      1.9269      0.1361     43.8235    123.2866     31.4145
  1627.4000      8.3051      2.0124      0.1243     38.6421    130.1266     31.2363
  1627.5000      8.4034      2.0916      0.0595     33.8405    127.5534     31.4603
  1627.6000      8.4034      2.1566      0.0785     29.9017    122.3370     31.7027
  1627.7000      8.4034      2.2270      0.0957     25.6371    124.0122     31.5487
  1627.8000      8.1485      2.3173      0.1418     20.1619    131.6438     30.9647
  1627.9000      8.1485      2.4051      0.2182     14.8446    139.0435     29.9388
  1628.0000      8.0034      2.4507      0.2206     12.0784    147.7398     29.2440
  1628.1000      8.0034      2.4587      0.0911     11.5932    157.4855     29.2105
  1628.2000      8.0034      2.4604      0.1205     11.4907    161.9588     29.1347
  1628.3000      7.8759      2.4608      0.1050     11.4691    161.7512     28.6687
  1628.4000      7.8759      2.4601      0.0720     11.5106    159.3048     28.0176
  1628.5000      7.8295      2.4718      0.0823     10.8013    155.7298     27.4391
  1628.6000      7.8295      2.4968      0.0804      9.2839    153.5210     27.1289
  1628.7000      7.8295      2.5175      0.1314      8.0288    151.4995     27.1214
  1628.8000      7.8884      2.5298      0.0740      7.2863    148.6165     27.1118
  1628.9000      7.8884      2.5512      0.1258      5.9885    144.7090     26.6473
  1629.0000      7.9405      2.5837      0.1209      4.0181    138.9034     25.8073
  1629.1000      7.9405      2.6116      0.1594      2.3301    133.6400     25.0972
  1629.2000      7.9405      2.6281      0.1805      1.3280    130.7822     24.6089
  1629.3000      7.9734      2.6448      0.1456      0.3176    129.8900     24.6891
  1629.4000      7.9734      2.6714      0.1673     -1.3000    128.9218     25.5678
  1629.5000      8.0350      2.6964      0.1215     -2.8130    121.9708     26.1337
  1629.6000      8.0350      2.7037      0.1020     -3.2525    109.0931     25.4620
  1629.7000      8.0350      2.6911      0.0702     -2.4884     97.4350     24.2611
  1629.8000      7.9023      2.6689      0.0552     -1.1454     90.8137     23.8258
  1629.9000      7.9023      2.6491      0.0926      0.0533     89.5084     24.6147
  1630.0000      7.8526      2.6331      0.0573      1.0249     91.3854     25.5781
  1630.1000      7.8526      2.6152      0.0664      2.1090     94.0457     25.6559
  1630.2000      7.8526      2.5978      0.0052      3.1629     97.6654     25.0167
  1630.3000      7.8455      2.5957      0.0453      3.2931    102.0275     24.1510
  1630.4000      7.8455      2.6113      0.0640      2.3440    104.4419     23.5379
  1630.5000      7.8489      2.6333      0.0578      1.0124    105.5069     23.6404
  1630.6000      7.8489      2.6519      0.0993     -0.1161    109.6981     24.4176
  1630.7000      7.8489      2.6581      0.1066     -0.4881    115.8468     25.1031
  1630.8000      7.8501      2.6530      0.1001     -0.1791    120.0461     25.1975
  1630.9000      7.8501      2.6453      0.1350      0.2864    122.0457     25.0765
  1631.0000      7.8235      2.6323      0.0980      1.0754    122.3653     24.8687
  1631.1000      7.8235      2.6075      0.0872      2.5767    121.4656     23.9424
  1631.2000      7.8235      2.5771      0.0370      4.4160    122.8405     22.6673
  1631.3000      7.8213      2.5580      0.0297      5.5787    130.2581     22.7616
  1631.4000      7.8213      2.5526      0.0698      5.9013    139.3607     24.1491
  1631.5000      7.8576      2.5493      0.0777      6.1047    142.7575     24.9446
  1631.6000      7.8576      2.5523      0.0235      5.9208    139.7931     25.1568
  1631.7000      7.8576      2.5724      0.0560      4.7020    134.6613     25.8522
  1631.8000      7.8771      2.6018      0.0601      2.9206    128.1668     26.5439
  1631.9000      7.8771      2.6276      0.0370      1.3549    119.1791     26.7866
  1632.0000      7.8830      2.6420      0.0967      0.4876    110.9030     26.7179
  1632.1000      7.8830      2.6446      0.0528      0.3292    104.8799     26.1084
  1632.2000      7.8830      2.6487      0.0592      0.0771     99.8091     25.1467
  1632.3000      7.8810      2.6611      0.0761     -0.6721     95.1938     24.8118
  1632.4000      7.8810      2.6724      0.0780     -1.3599     89.6806     25.2512
  1632.5000      7.8703      2.6665      0.1176     -1.0010     83.7737     25.1309
  1632.6000      7.8703      2.6368      0.0551      0.8027     78.9685     24.0201
  1632.7000      7.8703      2.6057      0.0513      2.6827     74.0810     22.9445
