~Version Information
VERS.                      2.0: CWLS Log ASCII Standard - VERSION 2.0
WRAP.                       NO: One line per depth step
~Well Information Block
STRT.FT                 0.0000: 
STOP.FT              2086.0000: 
STEP.FT                 0.2500: 
NULL.                -999.2500: 
COMP.          Petrogulf Corporation: COMPANY
WELL.               YWAM 7-32R: WELL
FLD.           Purgatorie River: FIELD
LOC.           2355' FNL & 2376' FEL: LOCATION
STAT.                 Colorado: State
CNTY.               Las Animas: COUNTY
CTRY. USA : Country
SECT. 7 : Section
TOWN. 33S : Township
RANG. 67W : Range
SRVC.                Patterson: SERVICE COMPANY
DATE.          Wed Nov 09 16:33:59 2005: LOG DATE
API. 05-071-08518                         : UNIQUE WELL ID
~Curve Information Block
DEPT.FT            0 000 00 00: Depth
CCL.                          : Casing Collar Locator
TT3.usec                      : CBL 3' Travel Time
AMP3.mV                       : CBL 3' Amplitude
GR.GAPI                       : Gamma Ray
~Parameter Information Block
~A  Depth       CCL         TT3         AMP3         GR     
# ...
   804.0000      0.0000    642.2799      3.6691     72.5474
   804.2500      0.0000    622.1683      3.5503     77.6650
   804.5000      0.0000    608.5792      3.4671     81.4576
   804.7500      0.0000    603.0420      3.4380     84.0151
   805.0000      0.0000    602.4233      3.4593     86.4175
   805.2500      0.0000    604.4984      3.5085     89.3982
   805.5000      0.0000    604.3156      3.5662     92.5559
   805.7500      0.0000    589.6631      3.6526     94.6972
   806.0000      0.0000    551.5558      3.8075     94.9123
   806.2500      0.0000    503.6924      4.0296     93.3612
   806.5000      0.0000    479.7869      4.2686     91.0227
   806.7500      0.0000    501.2123      4.4659     88.8576
   807.0000      0.0000    554.4568      4.6084     87.3524
   807.2500      0.0000    605.9111      4.7431     86.5752
   807.5000      0.0000    633.8489      4.9188     86.2650
   807.7500      0.0000    637.9390      5.1420     86.0073
   808.0000      0.0000    622.0996      5.3900     85.6521
   808.2500      0.0000    584.6047      5.6359     85.4576
   808.5000      0.0000    529.8903      5.8820     85.5513
   808.7500      0.0000    477.9125      6.1469     85.4297
   809.0000      0.0000    452.4063      6.3869     84.3816
   809.2500      0.0000    464.5602      6.5019     82.2993
   809.5000      0.0000    506.2792      6.4449     79.7722
   809.7500      0.0000    549.8316      6.2833     77.4662
   810.0000      0.0000    565.4808      6.1501     75.6802
   810.2500      0.0000    550.5449      6.1520     74.4060
   810.5000      0.0000    526.2020      6.3200     73.5207
   810.7500      0.0000    505.2615      6.6345     72.9364
   811.0000      0.0000    485.1021      7.0629     72.6487
   811.2500      0.0000    467.1685      7.5563     72.5695
   811.5000      0.0000    461.8354      8.0342     72.3118
   811.7500      0.0000    477.9702      8.3954     71.3189
   812.0000      0.0000    514.7981      8.5794     69.3640
   812.2500      0.0000    559.0857      8.6408     67.0029
   812.5000      0.0000    593.3099      8.7207     65.4025
   812.7500      0.0000    610.5867      8.9265     65.4988
   813.0000      0.0000    616.3131      9.2434     67.3597
   813.2500      0.0000    617.9913      9.5556     70.5010
   813.5000      0.0000    620.2370      9.7651     74.5261
   813.7500      0.0000    626.1940      9.8720     79.0378
   814.0000      0.0000    637.4003      9.9203     83.0536
   814.2500      0.0000    651.1767      9.9060     84.9069
   814.5000      0.0000    662.0767      9.7879     83.0351
   814.7500      0.0000    667.5328      9.5657     77.1766
   815.0000      0.0000    669.1852      9.3093     68.8822
   815.2500      0.0000    669.4531      9.1129     60.6169
   815.5000      0.0000    669.5104      9.0104     54.2852
   815.7500      0.0000    669.6166      8.9531     50.7329
   816.0000      0.0000    669.7506      8.8825     50.3809
   816.2500      0.0000    669.6566      8.7908     53.6504
   816.5000      0.0000    668.4650      8.6970     60.4047
   816.7500      0.0000    665.0058      8.5961     69.2245
   817.0000      0.0000    660.0026      8.4646     77.7283
   817.2500      0.0000    657.2893      8.2822     83.8371
   817.5000      0.0000    659.1381      8.0325     86.7667
   817.7500      0.0000    662.2614      7.7114     87.0259
   818.0000      0.0000    663.5713      7.3305     85.7202
   818.2500      0.0000    666.1862      6.9175     83.7665
   818.5000      0.0000    673.9143      6.5153     81.6328
   818.7500      0.0000    683.0607      6.1636     79.6848
   819.0000      0.0000    685.4354      5.8831     78.4707
   819.2500      0.0000    673.8776      5.6884     78.5027
   819.5000      0.0000    643.1725      5.5817     79.9429
   819.7500      0.0000    598.1025      5.5369     82.4662
   820.0000      0.0000    561.4092      5.5283     85.2087
   820.2500      0.0000    557.8210      5.5486     87.0620
   820.5000      0.0000    584.3752      5.5739     87.3793
   820.7500      0.0000    613.5184      5.5427     86.3136
   821.0000      0.0000    627.2368      5.4012     84.4431
   821.2500      0.0000    631.5384      5.1642     82.4156
   821.5000      0.0000    642.2756      4.8992     80.9733
   821.7500      0.0000    665.8687      4.6517     80.7306
   822.0000      0.0000    689.9990      4.4467     81.6071
   822.2500      0.0000    697.5585      4.3422     82.8369
   822.5000      0.0000    690.2606      4.3835     83.7893
   822.7500      0.0000    683.0330      4.5231     84.4655
   823.0000      0.0000    681.0049      4.6668     85.0711
   823.2500      0.0000    682.5917      4.7631     85.4348
   823.5000      0.0000    691.9434      4.8034     85.1150
   823.7500      0.0000    708.6856      4.7842     84.0134
   824.0000      0.0000    721.4693      4.7222     82.6609
   824.2500      0.0000    723.4164      4.6709     81.6627
   824.5000      0.0000    720.0081      4.6845     80.8972
   824.7500      0.0000    716.5313      4.7799     79.5108
   825.0000      0.0000    710.5431      4.9343     76.6550
   825.2500      0.0000    700.2976      5.0952     72.0950
   825.5000      0.0000    687.5594      5.2091     66.4511
   825.7500      0.0000    674.1727      5.2576     61.1977
   826.0000      0.0000    663.3075      5.2583     58.0212
   826.2500      0.0000    656.2855      5.2444     57.6169
   826.5000      0.0000    649.9014      5.2355     59.1826
   826.7500      0.0000    640.7592      5.2105     61.3601
   827.0000      0.0000    628.2813      5.1394     63.5192
   827.2500      0.0000    615.9933      5.0464     65.9248
   827.5000      0.0000    610.5617      4.9993     68.9984
   827.7500      0.0000    615.4892      5.0392     72.8268
   828.0000      0.0000    626.6543      5.1572     77.1481
   828.2500      0.0000    636.3597      5.3219     81.4175
   828.5000      0.0000    640.0140      5.4989     85.0770
   828.7500      0.0000    636.9108      5.6525     88.0384
   829.0000      0.0000    628.7865      5.7695     90.6671
   829.2500      0.0000    621.2485      5.8773     93.0580
   829.5000      0.0000    620.8516      5.9944     94.4959
   829.7500      0.0000    626.7024      6.1014     93.8694
   830.0000      0.0000    630.7562      6.1783     90.6885
   830.2500      0.0000    629.2979      6.1799     85.7650
   830.5000      0.0000    630.2314      6.0250     80.8980
   830.7500      0.0000    645.9739      5.6947     77.7044
   831.0000      0.0000    678.5224      5.2610     76.4572
   831.2500      0.0000    713.8605      4.8533     75.9252
   831.5000      0.0000    735.0515      4.6097     74.4643
   831.7500      0.0000    739.5719      4.5392     71.5636
   832.0000      2.0000    736.5082      4.5302     68.6375
   832.2500     -2.0000    730.1754      4.5174     68.2575
   832.5000      0.0000    717.8080      4.5103     72.1289
   832.7500      0.0000    702.3718      4.5264     79.4302
   833.0000      0.0000    692.6266      4.6346     87.1941
   833.2500      0.0000    685.4526      4.9979     92.5047
   833.5000      0.0000    667.7438      5.6425     94.4011
   833.7500      0.0000    636.4731      6.2490     93.9380
   834.0000      0.0000    603.6795      6.5100     92.8635
   834.2500      0.0000    583.8104      6.5021     92.3483
   834.5000      0.0000    578.9861      6.4336     92.6025
   834.7500      0.0000    579.6857      6.3748     93.2507
   835.0000      0.0000    578.7733      6.3382     93.8314
   835.2500      0.0000    577.4991      6.3424     93.9720
   835.5000      0.0000    577.3447      6.3855     93.2586
   835.7500      0.0000    571.9131      6.4433     91.3766
   836.0000      0.0000    550.4068      6.4778     88.7344
   836.2500      0.0000    509.1522      6.4619     86.5323
   836.5000      0.0000    458.8271      6.4211     85.6111
   836.7500      0.0000    416.0971      6.4077     85.4538
   837.0000      0.0000    388.9086      6.4304     84.7490
   837.2500      0.0000    374.8600      6.4640     82.7203
