~Version Information
VERS.                      2.0: CWLS Log ASCII Standard - VERSION 2.0
WRAP.                       NO: One line per depth step
~Well Information Block
STRT.FT               230.0000: 
STOP.FT               707.5000: 
STEP.FT                 0.2500: 
NULL.                -999.2500: 
COMP.          Pioneer Natural Resources: COMPANY
WELL.          Razor Clam 23-27: WELL
FLD.           Purgatoire River: FIELD
LOC.           2499' FSL & 2636' FWL: LOCATION
CNTY.               Las Animas: COUNTY
SRVC.                Patterson: SERVICE COMPANY
DATE.          Sun Feb 12 15:35:16 2006: LOG DATE
UWI.           05 071 08667 00: UNIQUE WELL ID
STAT.                 Colorado: STATE
~Curve Information Block
DEPT.FT            0 000 00 00: Depth
SN.Ohm-m                      : IEL Short Normal
SP.mV                         : IEL Spontaneous Potential
DIR.Ohm-m                     : IEL Induction Resistivity
GR.GAPI                       : Gamma Ray
~Parameter Information Block
~A  Depth        SN          SP         DIR          GR     
# ...
   665.5000     19.2660     37.3295     18.9225    109.7576
   665.7500     20.2022     37.5030     19.1487     99.6054
   666.0000     21.4413     37.6506     19.3168     86.1232
   666.2500     22.9735     37.7565     19.4622     79.4657
   666.5000     24.5993     37.8162     19.6175     73.1157
   666.7500     26.0277     37.8411     19.8075     70.7072
   667.0000     27.0669     37.8513     20.0382     68.6214
   667.2500     27.6298     37.8648     20.2804     67.7105
   667.5000     27.6601     37.8892     20.4639     66.6027
   667.7500     27.1641     37.9172     20.5030     66.1536
   668.0000     26.3114     37.9288     20.3453     66.8422
   668.2500     25.3750     37.8991     20.0041     68.8536
   668.5000     24.4743     37.8116     19.5419     74.3604
   668.7500     23.5280     37.6707     19.0285     78.9603
   669.0000     22.4877     37.5069     18.5099     85.6160
   669.2500     21.4077     37.3706     18.0032     89.5784
   669.5000     20.3526     37.3140     17.5072     95.6544
   669.7500     19.3742     37.3709     17.0160    100.3622
   670.0000     18.4894     37.5466     16.5274    108.1152
   670.2500     17.6651     37.8225     16.0442    112.8015
   670.5000     16.8905     38.1677     15.5721    117.3703
   670.7500     16.2437     38.5473     15.1194    118.3545
   671.0000     15.7974     38.9258     14.6970    117.1941
   671.2500     15.5006     39.2702     14.3157    115.2636
   671.5000     15.2745     39.5558     13.9828    111.7122
   671.7500     15.1280     39.7706     13.7014    109.3883
   672.0000     15.1108     39.9160     13.4762    106.0842
   672.2500     15.2185     40.0081     13.3183    103.6668
   672.5000     15.3524     40.0770     13.2444     99.5558
   672.7500     15.3988     40.1608     13.2673     97.1823
   673.0000     15.3256     40.2905     13.3872     96.1106
   673.2500     15.1586     40.4732     13.5888     97.7189
   673.5000     14.9518     40.6852     13.8477    103.0146
   673.7500     14.8258     40.8815     14.1427    107.2410
   674.0000     14.9165     41.0197     14.4635    111.7936
   674.2500     15.2405     41.0842     14.8104    112.1564
   674.5000     15.6963     41.0939     15.1841    107.8623
   674.7500     16.2373     41.0874     15.5759    102.6800
   675.0000     16.9472     41.1003     15.9674     94.3881
   675.2500     17.9081     41.1496     16.3401     89.9872
   675.5000     19.0988     41.2342     16.6876     85.9881
   675.7500     20.3688     41.3469     17.0182     84.8308
   676.0000     21.4659     41.4856     17.3466     84.6923
   676.2500     22.2077     41.6537     17.6797     85.4721
   676.5000     22.6142     41.8501     18.0078     87.9935
   676.7500     22.7789     42.0603     18.3064     90.6428
   677.0000     22.7308     42.2547     18.5509     95.7930
   677.2500     22.5040     42.3937     18.7340     99.5834
   677.5000     22.1177     42.4362     18.8732    105.1915
   677.7500     21.4771     42.3531     18.9970    108.8785
   678.0000     20.5878     42.1437     19.1223    114.3948
   678.2500     19.7364     41.8460     19.2402    117.5432
   678.5000     19.1425     41.5278     19.3211    119.5472
   678.7500     18.7193     41.2628     19.3333    117.9733
   679.0000     18.3837     41.1049     19.2628    110.7502
   679.2500     18.2205     41.0729     19.1231    103.5668
   679.5000     18.2901     41.1472     18.9526     92.2571
   679.7500     18.6298     41.2792     18.8037     86.1493
   680.0000     19.3728     41.4109     18.7299     80.7360
   680.2500     20.5694     41.4980     18.7752     79.6379
   680.5000     21.9973     41.5240     18.9666     80.8850
   680.7500     23.3185     41.5013     19.3058     82.7556
   681.0000     24.2885     41.4604     19.7649     85.1638
   681.2500     24.7695     41.4354     20.2902     85.7125
   681.5000     24.7254     41.4497     20.8167     85.4206
   681.7500     24.3225     41.5070     21.2836     85.5801
   682.0000     23.9155     41.5897     21.6458     87.6375
   682.2500     23.7678     41.6671     21.8781     89.9207
   682.5000     23.8374     41.7100     21.9751     93.2941
   682.7500     23.8998     41.6995     21.9468     95.1021
   683.0000     23.7786     41.6278     21.8098     97.6216
   683.2500     23.4317     41.4945     21.5791     99.6360
   683.5000     22.9213     41.3061     21.2667    103.3421
   683.7500     22.3648     41.0804     20.8877    105.8984
   684.0000     21.8824     40.8425     20.4645    108.9338
   684.2500     21.5128     40.6130     20.0265    110.1797
   684.5000     21.1657     40.3990     19.6047    111.2334
   684.7500     20.7271     40.1979     19.2247    111.7244
   685.0000     20.2319     40.0070     18.8995    112.4092
   685.2500     19.8640     39.8265     18.6239    112.8873
   685.5000     19.7281     39.6554     18.3759    113.7616
   685.7500     19.7457     39.4888     18.1254    114.4240
   686.0000     19.8071     39.3216     17.8460    115.0399
   686.2500     19.8243     39.1551     17.5238    114.7574
   686.5000     19.6880     38.9988     17.1580    112.9929
   686.7500     19.3392     38.8636     16.7580    111.2612
   687.0000     18.8301     38.7543     16.3400    108.5335
   687.2500     18.2882     38.6686     15.9239    106.2789
   687.5000     17.7852     38.6040     15.5298     99.6769
   687.7500     17.2375     38.5632     15.1736     91.1564
   688.0000     16.5692     38.5563     14.8642     70.7795
   688.2500     15.8739     38.6001     14.6029     53.7328
   688.5000     15.2920     38.7129     14.3859     29.0965
   688.7500     14.8876     38.9002     14.2071     16.6179
   689.0000     14.6628     39.1417     14.0615      5.5930
   689.2500     14.5733     39.3977     13.9464      2.2714
   689.5000     14.5432     39.6315     13.8609      0.4460
   689.7500     14.5313     39.8277     13.8048      0.1242
   690.0000     14.5563     39.9905     13.7782      0.0120
   690.2500     14.6182     40.1334     13.7828      0.0000
   690.5000     14.6944     40.2689     13.8222   -999.2500
   690.7500     14.8459     40.4051     13.9003   -999.2500
   691.0000     15.1740     40.5458     14.0180   -999.2500
   691.2500     15.6220     40.6887     14.1736   -999.2500
   691.5000     16.0029     40.8239     14.3657   -999.2500
   691.7500     16.2541     40.9338     14.5998   -999.2500
   692.0000     16.4746     41.0035     14.8875   -999.2500
   692.2500     16.7473     41.0354     15.2386   -999.2500
   692.5000     17.1021     41.0528     15.6502   -999.2500
   692.7500     17.5692     41.0906     16.1020   -999.2500
   693.0000     18.1427     41.1791     16.5630   -999.2500
   693.2500     18.7476     41.3317     17.0052   -999.2500
   693.5000     19.3076     41.5380     17.4156   -999.2500
   693.7500     19.8415     41.7661     17.7983   -999.2500
   694.0000     20.4835     41.9760     18.1670   -999.2500
   694.2500     21.3824     42.1395     18.5374   -999.2500
   694.5000     22.5534     42.2519     18.8052   -999.2500
   694.7500     23.8256     42.3286     19.2241   -999.2500
   695.0000     24.9114     42.3903     19.6966   -999.2500
   695.2500     25.5083     42.4478     20.2267   -999.2500
   695.5000     25.4692     42.4934     20.7901   -999.2500
   695.7500     24.9543     42.5030     21.3362   -999.2500
   696.0000     24.3076     42.4517     21.8098   -999.2500
   696.2500     23.7887     42.3332     22.1772   -999.2500
   696.5000     23.4643     42.1675     22.4403   -999.2500
   696.7500     23.2931     41.9905     22.6363   -999.2500
   697.0000     23.2266     41.8373     22.8469   -999.2500
   697.2500     23.2377     41.7292     23.2309   -999.2500
   697.5000     23.3676     41.6690     24.0654   -999.2500
   697.7500     23.7150     41.6429     25.7825   -999.2500
   698.0000     24.2619     41.6306     29.3553   -999.2500
   698.2500     24.7866     41.6191     35.1971   -999.2500
   698.5000     25.0822     41.6092     45.0349   -999.2500
   698.7500     25.1570     41.6119     60.7487   -999.2500
