~Version Information
VERS.                      2.0: CWLS Log ASCII Standard - VERSION 2.0
WRAP.                       NO: One line per depth step
~Well Information Block
STRT.FT                -5.5000: 
STOP.FT              2262.7500: 
STEP.FT                 0.2500: 
NULL.                -999.2500: 
COMP.          Pioneer Natural Resources: COMPANY
WELL.             Baa Baa 34-1: WELL
FLD.           Purgatorie River: FIELD
LOC.           617' FSL & 2289' FEL------: LOCATION
STAT.                       CO: State
CNTY.               Las Animas: COUNTY
CTRY. USA : Country
SECT. 1 : Section
TOWN. 33S : Township
RANG. 67W : Range
SRVC.          Patterson Wireline: SERVICE COMPANY
DATE.          Mon Sep 12 14:08:52 2005: LOG DATE
API.           05 071 08502 00: UNIQUE WELL ID
~Curve Information Block
DEPT.FT            0 000 00 00: Depth
LTEN.lb                       : Surface Line Tension
CCL.                          : Casing Collar Locator
TT3.usec                      : CBL 3' Travel Time
AMP3.mV                       : CBL 3' Amplitude
GR.GAPI                       : Gamma Ray
~Parameter Information Block
~A  Depth       LTEN        CCL         TT3         AMP3         GR     
# ...
  2094.5000  -4533.1958      0.0000    637.7629      2.3489     80.6265
  2094.7500  -4534.5283      0.0000    630.1408      2.3820     87.2112
  2095.0000  -4533.1958      0.0000    626.6373      2.4088     92.2701
  2095.2500  -4534.5283      0.0000    626.6602      2.4252     95.6296
  2095.5000  -4531.8638      0.0000    628.7381      2.4301     97.6378
  2095.7500  -4537.1924      0.0000    632.2441      2.4239     98.9437
  2096.0000  -4535.8604      0.0000    637.1383      2.4068     99.9482
  2096.2500  -4537.1924      0.0000    642.5398      2.3781    100.5676
  2096.5000  -4530.5317      0.0000    646.1564      2.3377    100.5154
  2096.7500  -4533.1958      0.0000    645.8063      2.2884     99.7834
  2097.0000  -4530.5317      0.0000    641.5425      2.2358     98.7424
  2097.2500  -4534.5283      0.0000    635.7413      2.1852     97.7062
  2097.5000  -4539.8569      0.0000    631.0983      2.1402     96.6755
  2097.7500  -4530.5317      0.0000    628.9965      2.1034     95.5986
  2098.0000  -4534.5283      0.0000    629.5072      2.0781     94.4891
  2098.2500  -4530.5317      0.0000    631.9297      2.0666     93.2719
  2098.5000  -4533.1958      0.0000    635.0014      2.0674     92.0019
  2098.7500  -4534.5283      0.0000    637.4620      2.0736     91.2393
  2099.0000  -4531.8638      0.0000    639.1948      2.0768     91.7092
  2099.2500  -4534.5283      0.0000    641.3162      2.0738     93.5878
  2099.5000  -4530.5317      0.0000    644.3932      2.0681     96.4685
  2099.7500  -4530.5317      0.0000    647.0937      2.0640     99.8246
  2100.0000  -4533.1958      0.0000    647.6415      2.0624    103.1760
  2100.2500  -4537.1924      0.0000    646.3654      2.0626    106.0577
  2100.5000  -4530.5317      0.0000    645.5643      2.0657    108.1125
  2100.7500  -4537.1924      0.0000    646.5357      2.0732    109.1070
  2101.0000  -4533.1958      0.0000    647.7122      2.0861    108.8066
  2101.2500  -4531.8638      0.0000    646.4207      2.1055    107.0613
  2101.5000  -4530.5317      0.0000    641.9278      2.1325    104.1501
  2101.7500  -4533.1958      0.0000    636.0496      2.1673    100.9836
  2102.0000  -4535.8604      0.0000    631.1184      2.2089     98.7939
  2102.2500  -4538.5244      0.0000    628.1419      2.2576     98.3496
  2102.5000  -4533.1958      0.0000    626.7850      2.3141     99.2435
  2102.7500  -4537.1924      0.0000    626.3055      2.3749     99.9610
  2103.0000  -4537.1924      0.0000    626.1763      2.4298     98.9069
  2103.2500  -4534.5283      0.0000    626.1584      2.4663     95.5878
  2103.5000  -4535.8604      0.0000    626.1736      2.4768     90.8546
  2103.7500  -4530.5317      0.0000    626.2076      2.4631     86.0973
  2104.0000  -4530.5317      0.0000    626.2879      2.4342     82.4004
  2104.2500  -4535.8604      0.0000    626.5312      2.4001     80.2587
  2104.5000  -4531.8638      0.0000    627.2698      2.3654     79.5721
  2104.7500  -4538.5244      0.0000    629.2382      2.3297     79.7687
  2105.0000  -4530.5317      0.0000    633.6255      2.2943     80.3267
  2105.2500  -4531.8638      0.0000    641.5143      2.2666     81.2500
  2105.5000  -4534.5283      0.0000    652.6047      2.2537     82.5401
  2105.7500  -4535.8604      0.0000    664.3732      2.2557     83.4456
  2106.0000  -4534.5283      0.0000    673.3871      2.2665     83.1714
  2106.2500  -4537.1924      0.0000    678.2575      2.2815     82.2154
  2106.5000  -4531.8638      0.0000    680.8784      2.3009     82.0249
  2106.7500  -4534.5283      0.0000    683.7855      2.3261     83.4127
  2107.0000  -4533.1958      0.0000    686.3880      2.3538     86.0693
  2107.2500  -4535.8604      0.0000    684.9205      2.3779     89.3851
  2107.5000  -4533.1958      0.0000    676.6125      2.3965     92.9891
  2107.7500  -4533.1958      0.0000    663.1847      2.4117     96.4969
  2108.0000  -4533.1958      0.0000    649.7241      2.4238     99.2210
  2108.2500  -4530.5317      0.0000    640.8329      2.4282    100.3580
  2108.5000  -4534.5283      0.0000    638.3969      2.4201     99.4385
  2108.7500  -4535.8604      0.0000    641.9968      2.3990     96.5828
  2109.0000  -4530.5317      0.0000    649.8280      2.3659     92.6007
  2109.2500  -4534.5283      0.0000    659.0150      2.3173     88.8626
  2109.5000  -4533.1958      0.0000    666.1836      2.2445     86.4705
  2109.7500  -4530.5317      0.0000    668.7163      2.1421     85.3245
  2110.0000  -4537.1924      0.0000    665.9969      2.0194     84.4442
  2110.2500  -4530.5317      0.0000    660.0886      1.8990     83.2885
  2110.5000  -4535.8604      0.0000    655.4017      1.8016     82.3709
  2110.7500  -4533.1958      0.0000    656.5460      1.7365     82.5340
  2111.0000  -4533.1958      0.0000    664.9485      1.7066     83.7697
  2111.2500  -4534.5283      0.0000    677.3492      1.7144     84.8750
  2111.5000  -4533.1958      0.0000    688.5244      1.7539     84.5062
  2111.7500  -4530.5317      0.0000    696.0727      1.8034     82.5591
  2112.0000  -4538.5244      0.0000    702.0155      1.8442     80.1659
  2112.2500  -4534.5283      0.0000    709.0974      1.8860     78.4163
  2112.5000  -4537.1924      0.0000    716.1819      1.9648     77.5196
  2112.7500  -4527.8677      0.0000    719.0213      2.1081     77.0768
  2113.0000  -4533.1958      0.0000    715.9962      2.2988     76.6619
  2113.2500  -4533.1958     -2.0000    710.8637      2.4740     76.1850
  2113.5000  -4530.5317      2.0000    707.9456      2.5601     76.0422
  2113.7500  -4530.5317      0.0000    706.0643      2.5257     76.8229
  2114.0000  -4530.5317      0.0000    699.7601      2.4076     78.5816
  2114.2500  -4534.5283      0.0000    686.3375      2.2752     80.5216
  2114.5000  -4531.8638      0.0000    669.4290      2.1639     81.7153
  2114.7500  -4533.1958      0.0000    654.9722      2.0593     82.0896
  2115.0000  -4537.1924      0.0000    645.5370      1.9536     82.3688
  2115.2500  -4539.8569      0.0000    639.6601      1.8810     83.2227
  2115.5000  -4534.5283      0.0000    635.1334      1.8733     84.9597
  2115.7500  -4530.5317      0.0000    631.2733      1.9143     87.8993
  2116.0000  -4533.1958      0.0000    628.4394      1.9604     92.3248
  2116.2500  -4530.5317      0.0000    626.8157      1.9876     97.8917
  2116.5000  -4537.1924      0.0000    626.0975      2.0009    103.4604
  2116.7500  -4533.1958      0.0000    625.8391      2.0134    107.6319
  2117.0000  -4534.5283      0.0000    625.7460      2.0296    109.4059
  2117.2500  -4531.8638      0.0000    625.6967      2.0448    108.5626
  2117.5000  -4534.5283      0.0000    625.6670      2.0532    105.7822
  2117.7500  -4533.1958      0.0000    625.6647      2.0548    102.5008
  2118.0000  -4530.5317      0.0000    625.6898      2.0538    100.5192
  2118.2500  -4529.1997      0.0000    625.7202      2.0528    101.4739
  2118.5000  -4538.5244      0.0000    625.7211      2.0486    106.1856
  2118.7500  -4537.1924      0.0000    625.6667      2.0374    114.0508
  2119.0000  -4537.1924      0.0000    625.5604      2.0224    123.0318
  2119.2500  -4527.8677      0.0000    625.4319      2.0131    130.6764
  2119.5000  -4534.5283      0.0000    625.3163      2.0158    135.3717
  2119.7500  -4533.1958      0.0000    625.2253      2.0253    136.5392
  2120.0000  -4534.5283      0.0000    625.1401      2.0243    133.9984
  2120.2500  -4534.5283      0.0000    625.0290      1.9918    127.9514
  2120.5000  -4533.1958      0.0000    624.8768      1.9151    119.5362
  2120.7500  -4533.1958      0.0000    624.6967      1.8060    110.5957
  2121.0000  -4537.1924      0.0000    624.5154      1.7094    102.7820
  2121.2500  -4531.8638      0.0000    624.3502      1.6803     97.1903
  2121.5000  -4535.8604      0.0000    624.2034      1.7378     94.3540
  2121.7500  -4531.8638      0.0000    624.0757      1.8500     93.8977
  2122.0000  -4538.5244      0.0000    623.9760      1.9734     94.3419
  2122.2500  -4535.8604      0.0000    623.9164      2.0938     93.7846
