~Version Information
VERS.                      2.0: CWLS Log ASCII Standard - VERSION 2.0
WRAP.                       NO: One line per depth step
~Well Information Block
STRT.FT               197.7500: 
STOP.FT              1631.0000: 
STEP.FT                 0.2500: 
NULL.                -999.2500: 
COMP.          Petrogulf Corporation: COMPANY
WELL.             State 16-44R: WELL
FLD.           Purgatoire River: FIELD
LOC.           632' FSL & 223' FEL--: LOCATION
PROV.                 Colorado: PROVINCE
CNTY.               Las Animas: COUNTRY
SRVC.                Patterson: SERVICE COMPANY
DATE.          Fri Oct 21 11:31:17 2005: LOG DATE
UWI.           05 071 08457 00: UNIQUE WELL ID
~Curve Information Block
DEPT.FT            0 000 00 00: Depth
SP.mV                         : DIL Spontaneous Potential
RILD.Ohm-m                    : DIL Deep Resistivity
RILM.Ohm-m                    : DIL Medium Resistivity
RLL3.Ohm-m                    : DIL Shallow Resistivity
GR.GAPI                       : Gamma Ray
~Parameter Information Block
~A  Depth        SP         RILD        RILM        RLL3         GR     
# ...
  1037.7500     89.5813     14.3112     17.8740     22.9961    115.5067
  1038.0000     88.9403     14.6031     18.2029     22.9782    113.6976
  1038.2500     88.2581     14.9118     18.4657     22.5707    112.4346
  1038.5000     87.5618     15.2151     18.6657     21.8653    109.9483
  1038.7500     86.8916     15.4921     18.8161     21.1512    107.8790
  1039.0000     86.2862     15.7277     18.9341     20.7276    104.8791
  1039.2500     85.7668     15.9133     19.0314     20.7501    103.5127
  1039.5000     85.3319     16.0450     19.1099     21.1584    102.8712
  1039.7500     84.9621     16.1267     19.1627     21.6887    103.4086
  1040.0000     84.6263     16.1739     19.1805     21.9915    105.8111
  1040.2500     84.2889     16.2133     19.1606     21.8140    108.4745
  1040.5000     83.9207     16.2747     19.1150     21.1449    113.1600
  1040.7500     83.5082     16.3788     19.0733     20.2242    115.7760
  1041.0000     83.0539     16.5302     19.0748     19.3938    117.6054
  1041.2500     82.5738     16.7183     19.1551     18.8840    117.2521
  1041.5000     82.1001     16.9252     19.3344     18.7210    114.9040
  1041.7500     81.6834     17.1331     19.6130     18.8300    112.6563
  1042.0000     81.3811     17.3268     19.9748     19.2052    109.1963
  1042.2500     81.2361     17.4905     20.3956     19.9754    107.2450
  1042.5000     81.2598     17.6061     20.8477     21.3381    105.0296
  1042.7500     81.4293     17.6577     21.2964     23.4127    103.8105
  1043.0000     81.6987     17.6378     21.6901     26.0510    101.8864
  1043.2500     82.0287     17.5500     21.9588     28.7113    100.4675
  1043.5000     82.4317     17.4034     22.0320     30.5730     98.3977
  1043.7500     83.0025     17.2032     21.8706     30.9167     97.2271
  1044.0000     83.8752     16.9433     21.4882     29.5394     95.9526
  1044.2500     85.0896     16.6095     20.9391     26.9447     95.5304
  1044.5000     86.4756     16.1905     20.2815     24.2335     95.4627
  1044.7500     87.7066     15.6901     19.5449     22.7350     95.3025
  1045.0000     88.5132     15.1300     18.7249     23.3686     93.8420
  1045.2500     88.8618     14.5412     17.8038     25.8720     92.3200
  1045.5000     88.9394     13.9513     16.7843     28.5286     91.9868
  1045.7500     88.9882     13.3772     15.7075     29.0929     95.0246
  1046.0000     89.1508     12.8245     14.6440     26.4783    105.5185
  1046.2500     89.4280     12.2945     13.6662     21.6039    115.1613
  1046.5000     89.7364     11.7899     12.8235     16.5186    129.5201
  1046.7500     89.9952     11.3156     12.1332     12.8327    136.8247
  1047.0000     90.1815     10.8753     11.5832     10.9628    142.4288
  1047.2500     90.3294     10.4668     11.1438     10.4342    142.7847
  1047.5000     90.4921     10.0828     10.7796     10.5092    140.5199
  1047.7500     90.6995      9.7171     10.4601     10.6216    138.8840
  1048.0000     90.9408      9.3697     10.1638     10.5628    138.0711
  1048.2500     91.1797      9.0477      9.8782     10.4452    138.6071
  1048.5000     91.3801      8.7614      9.5971     10.4574    140.1044
  1048.7500     91.5226      8.5183      9.3183     10.6032    141.1747
  1049.0000     91.6080      8.3199      9.0435     10.6779    142.7226
  1049.2500     91.6538      8.1624      8.7776     10.4846    143.8092
  1049.5000     91.6864      8.0400      8.5285     10.0189    145.9141
  1049.7500     91.7295      7.9484      8.3045      9.4406    147.7927
  1050.0000     91.7965      7.8860      8.1137      8.9252    151.0070
  1050.2500     91.8915      7.8523      7.9632      8.5632    152.9454
  1050.5000     92.0141      7.8450      7.8595      8.3500    154.7341
  1050.7500     92.1616      7.8590      7.8083      8.2311    154.7659
  1051.0000     92.3246      7.8875      7.8138      8.1744    152.4024
  1051.2500     92.4879      7.9246      7.8771      8.2319    148.9582
  1051.5000     92.6492      7.9680      7.9961      8.5395    141.0105
  1051.7500     92.8465      8.0199      8.1640      9.2318    134.1705
  1052.0000     93.1668      8.0856      8.3692     10.2970    122.6214
  1052.2500     93.7153      8.1714      8.5968     11.4621    114.8928
  1052.5000     94.5540      8.2827      8.8312     12.2702    104.7976
  1052.7500     95.6503      8.4235      9.0604     12.3967     99.7631
  1053.0000     96.8748      8.5959      9.2800     11.9369     95.0501
  1053.2500     98.0536      8.8005      9.4936     11.3270     93.3030
  1053.5000     99.0414      9.0351      9.7103     10.9682     91.2828
  1053.7500     99.7672      9.2939      9.9402     10.9633     89.7351
  1054.0000    100.2349      9.5668     10.1903     11.1770     87.4670
  1054.2500    100.4951      9.8390     10.4632     11.4422     86.8358
  1054.5000    100.6113     10.0918     10.7579     11.6692     88.2080
  1054.7500    100.6346     10.3055     11.0726     11.8371     90.3125
  1055.0000    100.5946     10.4641     11.4054     11.9903     93.6250
  1055.2500    100.5064     10.5587     11.7508     12.2907     95.3679
  1055.5000    100.3853     10.5880     12.0941     13.0357     97.6009
  1055.7500    100.2544     10.5559     12.4043     14.5064     99.1674
  1056.0000    100.1425     10.4699     12.6338     16.6440    101.5260
  1056.2500    100.0727     10.3412     12.7297     18.8090    103.0114
  1056.5000    100.0471     10.1849     12.6559     19.9944    105.9546
  1056.7500    100.0393     10.0170     12.4136     19.4979    109.2277
  1057.0000    100.0091      9.8491     12.0432     17.4681    116.4770
  1057.2500     99.9312      9.6850     11.6067     14.7615    122.0348
  1057.5000     99.8087      9.5200     11.1631     12.2963    129.3882
  1057.7500     99.6574      9.3437     10.7509     10.5604    133.0692
  1058.0000     99.4812      9.1454     10.3824      9.5802    137.3334
  1058.2500     99.2601      8.9184     10.0496      9.1409    139.8612
  1058.5000     98.9618      8.6636      9.7347      8.9835    143.0592
  1058.7500     98.5647      8.3905      9.4221      8.9096    144.1702
  1059.0000     98.0795      8.1145      9.1060      8.8208    143.4230
  1059.2500     97.5537      7.8529      8.7901      8.7016    141.4533
  1059.5000     97.0569      7.6207      8.4827      8.5700    137.6356
  1059.7500     96.6511      7.4281      8.1920      8.4378    135.3703
  1060.0000     96.3596      7.2799      7.9249      8.2977    133.0229
  1060.2500     96.1533      7.1758      7.6880      8.1249    132.1783
  1060.5000     95.9674      7.1123      7.4890      7.8918    132.2440
  1060.7500     95.7408      7.0838      7.3359      7.6045    133.4012
  1061.0000     95.4533      7.0841      7.2350      7.3343    136.4586
  1061.2500     95.1278      7.1081      7.1892      7.1976    138.6255
  1061.5000     94.7967      7.1528      7.1969      7.2831    140.6800
  1061.7500     94.4611      7.2186      7.2531      7.5794    140.9017
  1062.0000     94.0863      7.3091      7.3517      7.9714    140.0724
  1062.2500     93.6339      7.4303      7.4889      8.3148    139.5595
  1062.5000     93.0901      7.5884      7.6667      8.5300    139.9923
  1062.7500     92.4668      7.7888      7.8942      8.6458    140.9341
  1063.0000     91.7930      8.0330      8.1871      8.7988    141.5849
  1063.2500     91.1148      8.3175      8.5633      9.2401    140.3659
  1063.5000     90.4917      8.6331      9.0371     10.3338    135.3017
  1063.7500     89.9694      8.9687      9.6114     12.4314    130.1915
  1064.0000     89.5455      9.3155     10.2723     15.5544    121.6795
  1064.2500     89.1620      9.6690     10.9869     19.0853    116.7766
  1064.5000     88.7451     10.0274     11.7091     21.8682    112.5920
  1064.7500     88.2804     10.3873     12.3932     22.8769    112.2873
  1065.0000     87.8774     10.7426     13.0085     21.9711    114.3551
  1065.2500     87.7555     11.0856     13.5477     20.0121    116.2156
  1065.5000     88.1088     11.4096     14.0191     18.1997    118.3633
