~Version Information
VERS.                      2.0: CWLS Log ASCII Standard - VERSION 2.0
WRAP.                       NO: One line per depth step
~Well Information Block
STRT.FT               547.0000: 
STOP.FT              1685.5000: 
STEP.FT                 0.2500: 
NULL.                -999.2500: 
COMP.          Pioneer Natural Resources: COMPANY
WELL.           Pedri 42-33 Tr: WELL
FLD.           Purgatorie River: FIELD
LOC.           1933' FNL & 662' FEL: LOCATION
PROV.                 Colorado: PROVINCE
CNTY.               Las Animas: COUNTRY
SRVC.                Patterson: SERVICE COMPANY
DATE.          Mon Dec 19 10:09:44 2005: LOG DATE
UWI.                          : UNIQUE WELL ID
~Curve Information Block
DEPT.FT            0 000 00 00: Depth
DIR.Ohm-m                     : IEL Induction Resistivity
GR.GAPI                       : Gamma Ray
~Parameter Information Block
~A  Depth       DIR          GR     
# ...
  1550.5000     22.1543     95.1165
  1550.7500     21.4629     97.0998
  1551.0000     20.4877     98.0496
  1551.2500     19.3054     97.0233
  1551.5000     18.0105     95.1941
  1551.7500     16.6926     95.6493
  1552.0000     15.4230    100.2707
  1552.2500     14.2506    105.2293
  1552.5000     13.2054    112.9086
  1552.7500     12.3023    117.0356
  1553.0000     11.5442    121.0810
  1553.2500     10.9240    122.5394
  1553.5000     10.4273    123.7846
  1553.7500     10.0345    124.7303
  1554.0000      9.7225    127.5566
  1554.2500      9.4672    130.7689
  1554.5000      9.2458    137.1521
  1554.7500      9.0400    141.4357
  1555.0000      8.8380    145.3770
  1555.2500      8.6361    145.2930
  1555.5000      8.4383    141.5269
  1555.7500      8.2546    137.9755
  1556.0000      8.0985    133.2773
  1556.2500      7.9835    130.7861
  1556.5000      7.9206    126.7836
  1556.7500      7.9165    123.0459
  1557.0000      7.9722    115.5249
  1557.2500      8.0839    110.3210
  1557.5000      8.2426    105.8177
  1557.7500      8.4368    106.8209
  1558.0000      8.6543    114.2922
  1558.2500      8.8869    121.3024
  1558.5000      9.1322    130.7941
  1558.7500      9.3938    135.1655
  1559.0000      9.6802    139.0523
  1559.2500     10.0028    140.7438
  1559.5000     10.3759    143.1133
  1559.7500     10.8172    144.5080
  1560.0000     11.3467    144.7794
  1560.2500     11.9844    142.6449
  1560.5000     12.7488    135.2339
  1560.7500     13.6575    127.9574
  1561.0000     14.7287    115.1802
  1561.2500     15.9786    106.4634
  1561.5000     17.4098     94.6481
  1561.7500     18.9913     88.3363
  1562.0000     20.6381     81.9974
  1562.2500     22.2031     79.8456
  1562.5000     23.4988     78.8151
  1562.7500     24.3492     78.9194
  1563.0000     24.6488     79.7694
  1563.2500     24.3927     80.8202
  1563.5000     23.6641     82.7383
  1563.7500     22.5989     83.6751
  1564.0000     21.3517     83.8203
  1564.2500     20.0670     83.0292
  1564.5000     18.8581     80.7396
  1564.7500     17.7936     78.7926
  1565.0000     16.8956     76.6694
  1565.2500     16.1487     77.0658
  1565.5000     15.5152     82.1495
  1565.7500     14.9520     88.6712
  1566.0000     14.4249    101.5455
  1566.2500     13.9170    110.5497
  1566.5000     13.4289    122.0056
  1566.7500     12.9744    127.4268
  1567.0000     12.5729    132.2466
  1567.2500     12.2426    133.7317
  1567.5000     11.9949    134.0681
  1567.7500     11.8329    133.2061
  1568.0000     11.7523    130.6145
  1568.2500     11.7445    128.3908
  1568.5000     11.7988    125.0879
  1568.7500     11.9039    123.3669
  1569.0000     12.0465    122.2730
  1569.2500     12.2116    122.6696
  1569.5000     12.3813    123.8812
  1569.7500     12.5353    123.8805
  1570.0000     12.6519    121.0830
  1570.2500     12.7115    117.4805
  1570.5000     12.7004    111.5337
  1570.7500     12.6153    108.8053
  1571.0000     12.4642    108.3089
  1571.2500     12.2647    110.2774
  1571.5000     12.0388    115.0696
  1571.7500     11.8076    118.4213
  1572.0000     11.5890    122.3683
  1572.2500     11.3964    123.8163
  1572.5000     11.2404    124.3481
  1572.7500     11.1283    124.5819
  1573.0000     11.0638    127.1267
  1573.2500     11.0456    130.9030
  1573.5000     11.0675    138.4708
  1573.7500     11.1211    143.4818
  1574.0000     11.1988    149.2940
  1574.2500     11.2959    151.4711
  1574.5000     11.4118    151.3708
  1574.7500     11.5477    148.7240
  1575.0000     11.7055    141.0254
  1575.2500     11.8868    134.0083
  1575.5000     12.0926    122.4282
  1575.7500     12.3215    115.1836
  1576.0000     12.5652    106.2990
  1576.2500     12.8057    101.6867
  1576.5000     13.0168     96.2780
  1576.7500     13.1704     93.8925
  1577.0000     13.2432     93.1248
  1577.2500     13.2190     94.5844
  1577.5000     13.0892     98.4068
  1577.7500     12.8535    100.9701
  1578.0000     12.5230    103.7786
  1578.2500     12.1215    104.9180
  1578.5000     11.6810    105.8892
  1578.7500     11.2346    106.3644
  1579.0000     10.8082    107.7629
  1579.2500     10.4172    109.8247
  1579.5000     10.0680    115.1702
  1579.7500      9.7618    119.9182
  1580.0000      9.4984    127.4174
  1580.2500      9.2781    131.8355
  1580.5000      9.1012    137.1086
  1580.7500      8.9670    140.0393
  1581.0000      8.8737    143.9831
  1581.2500      8.8196    145.9949
  1581.5000      8.8040    147.4502
  1581.7500      8.8266    147.6785
  1582.0000      8.8856    148.2152
  1582.2500      8.9752    148.9835
  1582.5000      9.0850    149.8084
  1582.7500      9.2025    149.4697
  1583.0000      9.3171    147.6737
  1583.2500      9.4231    146.2840
  1583.5000      9.5208    144.6570
  1583.7500      9.6136    143.3217
  1584.0000      9.7050    138.7637
  1584.2500      9.7960    133.3603
  1584.5000      9.8844    123.4197
  1584.7500      9.9646    117.5955
  1585.0000     10.0275    112.5367
  1585.2500     10.0620    111.8122
  1585.5000     10.0571    113.6504
  1585.7500     10.0070    115.9239
  1586.0000      9.9134    119.2105
  1586.2500      9.7848    120.5951
  1586.5000      9.6339    121.6713
  1586.7500      9.4747    122.7492
  1587.0000      9.3217    126.9038
  1587.2500      9.1884    131.7997
  1587.5000      9.0876    141.1431
  1587.7500      9.0300    146.9905
  1588.0000      9.0240    151.6729
  1588.2500      9.0762    150.8513
  1588.5000      9.1926    144.8081
  1588.7500      9.3791    139.7217
  1589.0000      9.6397    134.1119
  1589.2500      9.9724    132.5829
  1589.5000     10.3638    132.7383
  1589.7500     10.7860    133.2254
  1590.0000     11.2015    132.6330
  1590.2500     11.5742    130.9630
  1590.5000     11.8842    126.9100
  1590.7500     12.1355    123.3607
  1591.0000     12.3532    116.3273
  1591.2500     12.5731    110.1867
  1591.5000     12.8330     99.2946
  1591.7500     13.1684     91.9855
  1592.0000     13.6091     83.5503
  1592.2500     14.1735     81.1179
  1592.5000     14.8577     83.8840
  1592.7500     15.6223     89.8581
  1593.0000     16.3855    102.5949
  1593.2500     17.0374    111.5026
  1593.5000     17.4803    122.4855
  1593.7500     17.6731    127.3603
  1594.0000     17.6459    130.6409
  1594.2500     17.4744    130.0376
  1594.5000     17.2415    124.6299
  1594.7500     17.0132    118.1460
  1595.0000     16.8330    105.7124
  1595.2500     16.7224     97.2709
  1595.5000     16.6803     87.1469
  1595.7500     16.6799     83.0107
  1596.0000     16.6733     81.0221
  1596.2500     16.6043     82.1976
  1596.5000     16.4283     86.6804
  1596.7500     16.1254     90.8579
  1597.0000     15.7002     98.5046
  1597.2500     15.1739    104.5366
  1597.5000     14.5776    114.0771
  1597.7500     13.9483    119.4467
  1598.0000     13.3237    123.9930
  1598.2500     12.7351    124.5671
  1598.5000     12.2033    123.1046
  1598.7500     11.7394    121.4771
  1599.0000     11.3480    119.2428
  1599.2500     11.0304    118.7265
  1599.5000     10.7839    121.1042
  1599.7500     10.6015    125.1556
  1600.0000     10.4716    133.3234
  1600.2500     10.3795    138.4249
  1600.5000     10.3108    143.4365
  1600.7500     10.2529    144.9080
  1601.0000     10.1968    145.2280
  1601.2500     10.1365    144.5405
  1601.5000     10.0675    142.0155
  1601.7500      9.9872    139.2299
  1602.0000      9.8952    134.0358
  1602.2500      9.7954    130.6736
  1602.5000      9.6951    126.8753
  1602.7500      9.6027    125.3452
  1603.0000      9.5238    124.4193
  1603.2500      9.4601    124.7140
  1603.5000      9.4104    126.4519
  1603.7500      9.3730    128.0543
  1604.0000      9.3463    129.9011
  1604.2500      9.3282    130.4126
  1604.5000      9.3150    130.9945
  1604.7500      9.3013    132.2309
  1605.0000      9.2821    135.9894
  1605.2500      9.2530    139.0447
  1605.5000      9.2113    142.3074
  1605.7500      9.1549    142.7907
  1606.0000      9.0832    141.3810
