~Version Information
VERS.                      2.0: CWLS Log ASCII Standard - VERSION 2.0
WRAP.                       NO: One line per depth step
~Well Information Block
STRT.FT               -15.7500: 
STOP.FT              1862.5000: 
STEP.FT                 0.2500: 
NULL.                -999.2500: 
COMP.          XTO Energy Inc.: COMPANY
WELL.          Golden Eagle 19-11: WELL
FLD.           Purgatorie River: FIELD
LOC.           2351' FSL &1926' WL--: LOCATION
CNTY.               Las Animas: COUNTY
SRVC.          Patterson Wireline: SERVICE COMPANY
DATE.          Fri Mar 24 16:29:29 2006: LOG DATE
UWI.           05 071 08696 00: UNIQUE WELL ID
STAT.                       CO: STATE
~Curve Information Block
DEPT.FT            0 000 00 00: Depth
CCL.                          : Casing Collar Locator
TT3.usec                      : CBL 3' Travel Time
AMP3.mV                       : CBL 3' Amplitude
GR.GAPI                       : Gamma Ray
~Parameter Information Block
~A  Depth       CCL         TT3         AMP3         GR     
# ...
   486.7500      0.0000    720.0388      7.1406    156.0928
   487.0000      0.0000    719.7310      7.2833    153.2923
   487.2500      0.0000    719.5269      7.3979    152.1338
   487.5000      0.0000    719.4525      7.4916    151.1214
   487.7500      0.0000    719.4824      7.5774    147.4688
   488.0000      0.0000    719.5831      7.6580    139.6012
   488.2500      0.0000    719.7435      7.7248    128.9267
   488.5000      0.0000    719.9680      7.7680    118.8939
   488.7500      0.0000    720.2440      7.7846    112.6678
   489.0000      0.0000    720.5096      7.7745    111.5793
   489.2500      0.0000    720.6620      7.7298    114.8389
   489.5000      0.0000    720.6107      7.6351    120.1751
   489.7500      0.0000    720.3361      7.4869    125.2527
   490.0000      0.0000    719.9104      7.3122    129.1556
   490.2500      0.0000    719.4637      7.1570    132.7633
   490.5000      0.0000    719.1192      7.0515    137.7012
   490.7500      0.0000    718.9414      6.9884    144.6174
   491.0000      0.0000    718.9576      6.9351    152.0859
   491.2500      0.0000    719.2373      6.8647    157.3467
   491.5000      0.0000    719.9139      6.7766    158.5288
   491.7500      0.0000    720.9146      6.6914    156.1035
   492.0000      0.0000    721.2948      6.6302    152.0154
   492.2500      0.0000    718.8032      6.5989    147.8321
   492.5000      0.0000    711.0128      6.5918    144.2913
   492.7500      0.0000    697.8655      6.6021    142.2567
   493.0000      0.0000    682.8377      6.6309    142.8651
   493.2500      0.0000    670.5617      6.6913    146.2459
   493.5000      0.0000    663.4283      6.8121    150.9419
   493.7500      0.0000    661.3917      7.0250    155.0932
   494.0000      0.0000    664.5928      7.3197    157.4892
   494.2500      0.0000    674.5509      7.6022    157.1755
   494.5000      0.0000    691.5697      7.7357    153.2357
   494.7500      0.0000    711.4042      7.6625    145.9111
   495.0000      0.0000    726.6613      7.4649    137.2886
   495.2500      0.0000    733.4943      7.2819    130.0078
   495.5000      0.0000    735.8674      7.1945    125.3666
   495.7500      0.0000    740.7579      7.2091    122.9056
   496.0000      2.0000    749.9476      7.3167    121.4384
   496.2500      0.0000    759.0504      7.5330    120.0774
   496.5000      0.0000    763.3840      7.8762    118.6229
   496.7500      0.0000    761.8583      8.2995    117.7534
   497.0000      0.0000    755.7404      8.6518    119.0477
   497.2500      0.0000    746.6016      8.7489    124.0168
   497.5000      0.0000    736.4377      8.5271    132.2498
   497.7500      0.0000    727.8813      8.1076    140.6282
   498.0000      0.0000    722.7225      7.6869    145.2296
   498.2500      0.0000    720.7509      7.3886    144.4484
   498.5000      0.0000    720.5465      7.2223    140.1390
   498.7500      0.0000    720.9842      7.1374    135.6498
   499.0000      0.0000    721.8790      7.0808    133.0089
   499.2500      0.0000    723.9557      7.0231    132.1207
   499.5000      0.0000    728.6188      6.9606    132.1920
   499.7500      0.0000    737.1964      6.9061    133.3412
   500.0000      0.0000    749.5831      6.8707    136.5794
   500.2500      0.0000    763.5223      6.8504    142.1401
   500.5000      0.0000    775.7156      6.8252    148.1463
   500.7500      0.0000    783.9172      6.7730    151.7062
   501.0000      0.0000    787.8232      6.6861    151.5392
   501.2500      0.0000    788.0821      6.5766    148.8070
   501.5000      0.0000    784.9720      6.4622    145.3463
   501.7500      0.0000    778.2968      6.3456    142.1395
   502.0000      0.0000    768.3481      6.2087    139.5941
   502.2500      0.0000    756.5267      6.0276    137.8511
   502.5000      0.0000    744.8086      5.7927    136.2561
   502.7500      0.0000    734.8052      5.5105    133.5834
   503.0000      0.0000    727.3543      5.1928    129.3870
   503.2500      0.0000    722.5936      4.8497    124.3916
   503.5000      0.0000    720.1655      4.4938    119.1122
   503.7500      0.0000    719.5641      4.1475    112.9067
   504.0000      0.0000    720.4055      3.8396    105.0371
   504.2500      0.0000    722.2236      3.5918     96.1155
   504.5000      0.0000    724.0436      3.4089     87.7993
   504.7500      0.0000    724.5912      3.2804     81.1753
   505.0000      0.0000    723.2933      3.1894     75.8232
   505.2500      0.0000    720.8943      3.1226     70.3882
   505.5000      0.0000    718.8799      3.0756     63.8833
   505.7500      0.0000    718.5320      3.0537     56.5139
   506.0000      0.0000    720.6660      3.0686     49.5716
   506.2500      0.0000    725.7079      3.1336     44.8222
   506.5000      0.0000    733.3516      3.2575     43.9283
   506.7500      0.0000    742.1691      3.4386     48.0198
   507.0000      0.0000    750.1215      3.6635     57.2600
   507.2500      0.0000    755.7776      3.9156     70.5728
   507.5000      0.0000    758.9865      4.1831     85.9560
   507.7500      0.0000    760.4821      4.4584    101.3361
   508.0000      0.0000    761.1132      4.7318    115.2839
   508.2500      0.0000    761.4711      4.9914    127.0626
   508.5000      0.0000    761.9561      5.2306    136.0413
   508.7500      0.0000    762.9898      5.4547    141.1051
   509.0000      0.0000    765.0583      5.6755    141.1060
   509.2500      0.0000    768.3860      5.8945    136.3567
   509.5000      0.0000    772.2928      6.0899    129.3299
   509.7500      0.0000    775.0206      6.2258    123.2879
   510.0000      0.0000    774.8124      6.2826    120.1339
   510.2500      0.0000    771.6432      6.2740    119.3990
   510.5000      0.0000    767.7106      6.2323    119.0496
   510.7500      0.0000    765.8568      6.1846    117.4532
   511.0000      0.0000    767.4080      6.1480    114.8276
   511.2500      0.0000    771.4261      6.1368    112.7705
   511.5000      0.0000    775.7429      6.1612    112.5452
   511.7500      0.0000    778.5163      6.2167    114.2025
   512.0000      0.0000    778.9935      6.2799    117.0719
   512.2500      0.0000    777.5132      6.3189    120.3283
   512.5000      0.0000    775.3062      6.3147    122.7851
   512.7500      0.0000    773.7530      6.2760    122.8395
   513.0000      0.0000    772.9327      6.2344    119.5806
   513.2500      0.0000    770.9446      6.2222    114.0248
   513.5000      0.0000    765.3618      6.2521    108.5706
   513.7500      0.0000    755.7052      6.3172    105.1469
   514.0000      0.0000    744.2148      6.4016    104.4290
   514.2500      0.0000    734.0755      6.4915    106.4406
   514.5000      0.0000    727.1171      6.5787    110.7362
   514.7500      0.0000    723.2008      6.6579    115.7765
   515.0000      0.0000    721.2239      6.7214    119.1464
   515.2500      0.0000    720.2166      6.7572    119.0847
   515.5000      0.0000    719.6729      6.7571    115.7670
   515.7500      0.0000    719.3856      6.7258    111.0856
   516.0000      0.0000    719.2587      6.6797    107.1667
   516.2500      0.0000    719.2400      6.6332    104.7590
   516.5000      0.0000    719.2996      6.5886    102.8730
   516.7500      0.0000    719.4172      6.5371    100.1659
   517.0000      0.0000    719.5650      6.4722     96.5049
   517.2500      0.0000    719.6765      6.3979     92.7716
   517.5000      0.0000    719.4255      6.3220     89.4379
   517.7500      0.0000    717.6521      6.2446     86.1592
   518.0000      0.0000    711.5169      6.1590     82.7845
   518.2500      0.0000    696.3432      6.0671     79.9612
   518.5000      0.0000    667.7640      5.9864     78.4460
   518.7500      0.0000    626.0820      5.9358     78.1787
   519.0000      0.0000    578.8320      5.9159     78.1752
   519.2500      0.0000    537.4642      5.9074     77.1425
   519.5000      0.0000    510.6918      5.8891     74.2839
   519.7500      0.0000    501.5042      5.8534     69.8719
   520.0000      0.0000    509.4962      5.8064     65.1120
