~Version Information
VERS.                      2.0: CWLS Log ASCII Standard - VERSION 2.0
WRAP.                       NO: One line per depth step
~Well Information Block
STRT.FT               235.0000: 
STOP.FT              1271.0000: 
STEP.FT                 0.1000: 
NULL.                -999.2500: 
COMP.          Pioneer Natural Resources: COMPANY
WELL.              Julie 11-30: WELL
FLD.           Purgatoire River: FIELD
LOC.           672' FNL & 1052' FWL: LOCATION
CNTY.               Las Animas: COUNTY
SRVC.                Patterson: SERVICE COMPANY
DATE.          Fri Apr 14 07:21:24 2006: LOG DATE
UWI.           05 071 08724 00: UNIQUE WELL ID
STAT.                 Colorado: STATE
~Curve Information Block
DEPT.FT            0 000 00 00: Depth
DCAL.in                       : CDL Caliper
RHOB.g/cc                     : CDL Bulk Density
RHOC.g/cc                     : CDL Density Correction
DPOR.pu                       : CDL Density Porosity
GR.GAPI                       : Gamma Ray
NPOR.pu                       : Neutron Porosity
~Parameter Information Block
~A  Depth       DCAL        RHOB        RHOC        DPOR         GR         NPOR    
# ...
   503.8000      8.2821      2.4141      0.0295     14.2982     72.0787     21.3356
   503.9000      8.2821      2.4320      0.0456     13.2143     66.9998     21.2400
   504.0000      8.2884      2.4149      0.0516     14.2504     61.0805     21.1705
   504.1000      8.2884      2.3786      0.0112     16.4481     58.6235     20.7233
   504.2000      8.2884      2.3541     -0.0113     17.9311     60.6392     19.8013
   504.3000      8.2861      2.3506      0.0262     18.1457     62.3940     18.8791
   504.4000      8.2861      2.3568      0.0003     17.7701     60.4819     18.2370
   504.5000      8.2853      2.3585      0.0907     17.6674     57.2032     17.8783
   504.6000      8.2853      2.3404      0.0825     18.7655     55.5230     17.7631
   504.7000      8.2853      2.3121      0.0054     20.4783     55.2234     17.9202
   504.8000      8.2766      2.3054      0.0573     20.8874     57.4421     18.1621
   504.9000      8.2766      2.3189      0.0825     20.0687     62.2364     18.0188
   505.0000      8.2787      2.3224      0.1142     19.8572     64.9103     17.2885
   505.1000      8.2787      2.3054      0.0692     20.8855     63.0257     16.5101
   505.2000      8.2787      2.2881      0.0819     21.9312     59.3282     16.2843
   505.3000      8.2773      2.2991      0.0202     21.2686     57.3974     16.6148
   505.4000      8.2773      2.3421      0.1044     18.6619     60.2900     17.2413
   505.5000      8.2864      2.3883      0.1288     15.8615     65.8409     18.0827
   505.6000      8.2864      2.4211      0.1206     13.8737     68.6432     19.0219
   505.7000      8.2864      2.4442      0.1542     12.4735     70.4696     19.5890
   505.8000      8.2869      2.4567      0.1235     11.7167     74.5353     19.4973
   505.9000      8.2869      2.4632      0.1368     11.3231     76.9742     19.0835
   506.0000      8.2858      2.4671      0.1733     11.0856     76.0141     18.6470
   506.1000      8.2858      2.4612      0.1272     11.4421     75.1668     18.2928
   506.2000      8.2858      2.4513      0.1092     12.0418     74.1607     18.1694
   506.3000      8.2884      2.4490      0.0980     12.1809     71.9864     18.2206
   506.4000      8.2884      2.4501      0.1259     12.1143     71.6405     18.1219
   506.5000      8.2877      2.4492      0.0707     12.1713     75.3604     17.9333
   506.6000      8.2877      2.4462      0.0861     12.3517     82.7846     18.1287
   506.7000      8.2877      2.4430      0.0723     12.5446     89.5229     18.9549
   506.8000      8.2867      2.4532      0.0288     11.9253     90.6548     19.9576
   506.9000      8.2867      2.4781      0.0914     10.4201     88.5080     20.3989
   507.0000      8.2882      2.4968      0.0633      9.2834     88.2858     20.4230
   507.1000      8.2882      2.5024      0.0812      8.9468     90.9085     20.8565
   507.2000      8.2882      2.5005      0.0682      9.0593     96.4661     21.7797
   507.3000      8.2856      2.5056      0.0321      8.7519    102.7484     22.1941
   507.4000      8.2856      2.5327      0.0535      7.1072    102.3853     21.4113
   507.5000      8.2835      2.5668      0.1268      5.0454     96.6908     20.4732
   507.6000      8.2835      2.5780      0.1296      4.3622     96.5602     20.5320
   507.7000      8.2835      2.5631      0.1158      5.2678    102.7733     21.1048
   507.8000      8.2856      2.5286      0.1189      7.3562    105.9651     21.4704
   507.9000      8.2856      2.4741      0.0826     10.6621    101.6535     21.7040
   508.0000      8.2875      2.4153      0.0237     14.2259     94.6337     21.7716
   508.1000      8.2875      2.3785     -0.0309     16.4545     90.3376     21.4624
   508.2000      8.2875      2.3634      0.0421     17.3679     90.2589     21.0495
   508.3000      8.2851      2.3535      0.0050     17.9712     91.9293     20.6794
   508.4000      8.2851      2.3576     -0.0008     17.7201     90.1477     20.3311
   508.5000      8.2824      2.3878      0.0681     15.8937     86.4243     20.4493
   508.6000      8.2824      2.4249      0.0819     13.6404     86.3425     21.0610
   508.7000      8.2824      2.4562      0.1127     11.7449     87.5362     21.5697
   508.8000      8.2855      2.4890      0.1335      9.7551     86.3636     21.8618
   508.9000      8.2855      2.5202      0.1691      7.8692     85.7019     22.0338
   509.0000      8.2816      2.5374      0.1618      6.8232     85.7991     22.0091
   509.1000      8.2816      2.5398      0.1568      6.6812     85.7664     21.8102
   509.2000      8.2816      2.5368      0.1432      6.8583     86.4751     21.6185
   509.3000      8.2809      2.5369      0.1479      6.8568     85.6219     21.5156
   509.4000      8.2809      2.5436      0.0992      6.4495     81.7165     21.7237
   509.5000      8.2840      2.5592      0.0901      5.5046     78.3793     22.5156
   509.6000      8.2840      2.5721      0.1113      4.7240     76.3065     23.4479
   509.7000      8.2840      2.5611      0.1098      5.3908     72.4635     23.5684
   509.8000      8.2858      2.5298      0.0423      7.2845     68.9460     22.5628
   509.9000      8.2858      2.5037      0.0566      8.8658     68.4356     21.1573
   510.0000      8.2821      2.4893      0.0642      9.7418     70.1604     20.1865
   510.1000      8.2821      2.4765      0.0074     10.5167     73.0737     19.8167
   510.2000      8.2821      2.4679      0.0827     11.0350     77.2609     19.7338
   510.3000      8.2820      2.4645      0.1109     11.2449     82.2230     19.8100
   510.4000      8.2820      2.4621      0.0627     11.3860     85.2601     19.9537
   510.5000      8.2829      2.4596      0.0947     11.5367     84.2711     19.7714
   510.6000      8.2829      2.4433      0.0917     12.5263     82.4269     19.2547
   510.7000      8.2829      2.3950      0.0556     15.4570     85.3488     18.7985
   510.8000      8.2814      2.3169      0.0034     20.1865     92.0694     18.4378
   510.9000      8.2814      2.2305     -0.0089     25.4261     95.9666     17.8892
   511.0000      8.2833      2.1606     -0.0387     29.6614     95.6399     17.0063
   511.1000      8.2833      2.1206      0.0137     32.0850     93.0962     16.2827
   511.2000      8.2833      2.1107     -0.0432     32.6877     91.1873     16.2241
   511.3000      8.2824      2.1336     -0.0205     31.2985     92.3838     16.8379
   511.4000      8.2824      2.1751      0.1090     28.7797     96.6619     17.9312
   511.5000      8.2806      2.2185      0.1003     26.1496    102.2931     19.0437
   511.6000      8.2806      2.2855      0.1564     22.0879    108.6419     20.0543
   511.7000      8.2806      2.3947      0.2534     15.4752    115.8631     21.0983
   511.8000      8.2845      2.5153      0.3980      8.1654    120.5277     21.7884
   511.9000      8.2845      2.5985      0.2666      3.1192    119.7667     21.8494
   512.0000      8.2794      2.6275      0.2023      1.3633    115.3148     21.5812
   512.1000      8.2794      2.6210      0.0976      1.7557    112.3603     21.2302
   512.2000      8.2794      2.6045      0.1019      2.7588    114.6267     21.0869
   512.3000      8.2770      2.5820      0.1679      4.1189    117.2549     21.4508
   512.4000      8.2770      2.5564      0.0836      5.6706    113.1212     22.1741
   512.5000      8.2779      2.5493      0.0752      6.1011    104.7282     23.0016
   512.6000      8.2779      2.5604      0.0705      5.4276     98.1287     23.6469
   512.7000      8.2779      2.5694      0.0681      4.8855     93.0468     23.8688
   512.8000      8.2813      2.5702      0.0755      4.8381     85.5227     23.8325
   512.9000      8.2813      2.5646      0.0825      5.1730     76.2079     23.7916
   513.0000      8.2781      2.5534      0.0957      5.8536     70.1646     23.9609
   513.1000      8.2781      2.5349      0.0519      6.9786     69.8056     24.6648
   513.2000      8.2781      2.5136      0.0299      8.2666     73.3788     25.6626
   513.3000      8.2691      2.5026      0.0502      8.9326     76.0117     26.3439
