~Version Information
VERS.                      2.0: CWLS Log ASCII Standard - VERSION 2.0
WRAP.                       NO: One line per depth step
~Well Information Block
STRT.FT                -2.0000: 
STOP.FT              2017.5000: 
STEP.FT                 0.2500: 
NULL.                -999.2500: 
COMP.          Pioneer Natural Resources: COMPANY
WELL.            Zink 44-10 Tr: WELL
FLD.           Purgatoire River: FIELD
LOC.           486' FSL & 554' FEL--: LOCATION
PROV.                 Colorado: PROVINCE
CNTY.               Las Animas: COUNTRY
SRVC.                Patterson: SERVICE COMPANY
DATE.          Mon Aug 01 14:01:23 2005: LOG DATE
UWI.           05 071 08446 00: UNIQUE WELL ID
~Curve Information Block
DEPT.FT            0 000 00 00: Depth
CCL.                          : Casing Collar Locator
TT3.usec                      : CBL 3' Travel Time
AMP3.mV                       : CBL 3' Amplitude
GR.GAPI                       : Gamma Ray
~Parameter Information Block
~A  Depth       CCL         TT3         AMP3         GR     
# ...
   668.0000      0.0000    901.9809     10.3140     63.1191
   668.2500      0.0000    891.3720     10.3198     65.8039
   668.5000      0.0000    881.2019     10.3197     69.2248
   668.7500      0.0000    873.2571     10.3257     73.1273
   669.0000      0.0000    869.7624     10.3539     76.6681
   669.2500      0.0000    873.3432     10.4090     78.5264
   669.5000      0.0000    886.8181     10.4794     77.5062
   669.7500      0.0000    910.7219     10.5454     73.3423
   670.0000      0.0000    939.5358     10.5888     67.0860
   670.2500      0.0000    962.3417     10.6005     60.7729
   670.5000      0.0000    970.2831     10.5839     56.6088
   670.7500      0.0000    963.4312     10.5537     56.1726
   671.0000      0.0000    949.1664     10.5256     60.0847
   671.2500      0.0000    934.9699     10.5068     68.1503
   671.5000      0.0000    923.7969     10.4974     79.5937
   671.7500      0.0000    914.8694     10.4998     92.9716
   672.0000      0.0000    906.9352     10.5219    105.9992
   672.2500      0.0000    900.1760     10.5700    116.1329
   672.5000      0.0000    895.5549     10.6396    122.0244
   672.7500      0.0000    893.5612     10.7154    124.4102
   673.0000      0.0000    894.0197     10.7828    125.0641
   673.2500      0.0000    896.3970     10.8384    124.8496
   673.5000      0.0000    899.8835     10.8911    123.3610
   673.7500      0.0000    903.8635     10.9485    120.4227
   674.0000      0.0000    908.5871     11.0062    117.1494
   674.2500      0.0000    914.9349     11.0530    115.2130
   674.5000      0.0000    923.2084     11.0896    115.3748
   674.7500      0.0000    932.2872     11.1371    116.9031
   675.0000      0.0000    940.1430     11.2249    118.2347
   675.2500      0.0000    944.9592     11.3698    118.1862
   675.5000      0.0000    945.4168     11.5661    116.9510
   675.7500      0.0000    940.4890     11.7791    116.2445
   676.0000      0.0000    930.9668     11.9302    118.0885
   676.2500      0.0000    923.2612     11.9018    122.6601
   676.5000      0.0000    930.4684     11.5999    127.3159
   676.7500      0.0000    964.1462     11.0378    128.6459
   677.0000      0.0000   1021.4778     10.3557    125.8827
   677.2500      0.0000   1084.1628      9.7425    121.6263
   677.5000      0.0000   1133.6906      9.3274    119.0474
   677.7500      0.0000   1165.2157      9.1284    118.9917
   678.0000      2.0000   1185.8857      9.0901    119.8966
   678.2500     -2.0000   1205.3162      9.1605    119.8121
   678.5000     -2.0000   1227.2686      9.3468    118.0404
   678.7500      0.0000   1242.9338      9.7237    115.2871
   679.0000      0.0000   1232.9698     10.3741    113.0190
   679.2500      0.0000   1184.4442     11.2670    112.5515
   679.5000      0.0000   1107.6522     12.1798    113.8428
   679.7500      0.0000   1032.4857     12.8151    115.0625
   680.0000      0.0000    988.7448     13.0365    114.1782
   680.2500      0.0000    991.3143     12.9470    111.2990
   680.5000      0.0000   1037.8444     12.7317    109.0412
   680.7500      0.0000   1110.1299     12.4956    110.3558
   681.0000      0.0000   1176.6016     12.2583    116.0187
   681.2500      0.0000   1204.2821     12.0222    124.0229
   681.5000      0.0000   1178.7764     11.8009    131.2218
   681.7500      0.0000   1114.0013     11.6067    135.7351
   682.0000      0.0000   1039.7915     11.4448    137.9340
   682.2500      0.0000    980.1586     11.3222    139.1729
   682.5000      0.0000    942.8859     11.2542    139.9622
   682.7500      0.0000    924.2406     11.2571    139.7915
   683.0000      0.0000    917.4874     11.3305    138.4074
   683.2500      0.0000    917.0894     11.4486    136.4464
   683.5000      0.0000    919.5174     11.5698    134.4378
   683.7500      0.0000    923.2069     11.6625    131.6153
   684.0000      0.0000    927.7165     11.7239    126.4779
   684.2500      0.0000    932.1456     11.7722    118.8419
   684.5000      0.0000    934.7023     11.8212    110.8763
   684.7500      0.0000    934.0174     11.8629    105.5249
   685.0000      0.0000    930.3607     11.8758    104.0347
   685.2500      0.0000    925.3463     11.8493    105.3441
   685.5000      0.0000    920.9047     11.7979    107.5954
   685.7500      0.0000    918.4054     11.7462    109.9843
   686.0000      0.0000    918.0251     11.7032    113.4286
   686.2500      0.0000    918.7970     11.6584    119.4959
   686.5000      0.0000    919.5126     11.6023    128.3368
   686.7500      0.0000    919.3844     11.5341    137.8556
   687.0000      0.0000    917.9139     11.4545    145.2874
   687.2500      0.0000    914.8713     11.3619    149.1948
   687.5000      0.0000    910.5798     11.2577    149.6607
   687.7500      0.0000    905.7126     11.1450    147.4203
   688.0000      0.0000    900.7894     11.0270    143.7305
   688.2500      0.0000    896.1161     10.9158    140.4444
   688.5000      0.0000    891.7741     10.8436    138.9167
   688.7500      0.0000    887.3345     10.8512    138.8122
   689.0000      0.0000    882.2123     10.9599    138.7988
   689.2500      0.0000    876.9224     11.1540    138.3438
   689.5000      0.0000    873.5435     11.3884    138.1251
   689.7500      0.0000    874.2903     11.6098    138.8589
   690.0000      0.0000    879.5972     11.7804    140.4543
   690.2500      0.0000    887.7064     11.8933    142.2075
   690.5000      0.0000    896.0524     11.9671    143.0744
   690.7500      0.0000    902.8910     12.0217    141.9272
   691.0000      0.0000    907.5246     12.0574    138.3421
   691.2500      0.0000    909.4319     12.0566    133.2972
   691.5000      0.0000    908.1368     12.0006    128.7822
   691.7500      0.0000    904.2829     11.8823    126.6343
   692.0000      0.0000    899.8828     11.7106    127.7160
   692.2500      0.0000    896.6523     11.5117    131.7938
   692.5000      0.0000    894.6049     11.3217    137.6987
   692.7500      0.0000    892.7524     11.1672    143.5845
   693.0000      0.0000    890.3860     11.0542    147.5005
   693.2500      0.0000    887.2047     10.9758    148.1491
   693.5000      0.0000    883.2501     10.9265    145.4114
   693.7500      0.0000    879.5379     10.9059    140.4157
   694.0000      0.0000    877.8768     10.9160    135.0085
   694.2500      0.0000    879.1306     10.9571    130.7945
   694.5000      0.0000    882.1196     11.0251    128.4265
   694.7500      0.0000    884.9629     11.1111    127.6667
   695.0000      0.0000    887.2629     11.2048    127.8437
   695.2500      0.0000    890.3761     11.2987    128.2392
   695.5000      0.0000    895.5080     11.3897    128.5037
   695.7500      0.0000    901.8980     11.4830    129.0568
   696.0000      0.0000    907.1597     11.5931    130.7550
   696.2500      0.0000    909.4548     11.7350    133.8399
   696.5000      0.0000    909.0218     11.9070    137.5358
   696.7500      0.0000    907.4755     12.0859    140.8449
   697.0000      0.0000    906.1520     12.2417    143.1834
   697.2500      0.0000    905.3799     12.3549    143.9778
   697.5000      0.0000    904.7715     12.4218    142.2512
   697.7500      0.0000    903.6110     12.4535    137.4183
   698.0000      0.0000    901.0734     12.4707    130.6998
   698.2500      0.0000    896.7275     12.4932    125.1359
   698.5000      0.0000    891.3140     12.5283    123.5351
   698.7500      0.0000    886.7925     12.5673    126.2676
   699.0000      0.0000    885.0112     12.5895    130.9993
   699.2500      0.0000    886.3218     12.5735    134.4295
   699.5000      0.0000    889.7936     12.5098    134.5982
   699.7500      0.0000    894.0770     12.4050    132.0894
   700.0000      0.0000    897.2139     12.2736    129.0992
   700.2500      0.0000    896.5798     12.1281    127.3118
   700.5000      0.0000    890.7272     11.9783    126.8518
   700.7500      0.0000    881.2386     11.8329    127.0139
   701.0000      0.0000    871.7151     11.6945    127.3337
   701.2500      0.0000    864.9340     11.5590    127.8357
