~Version Information
VERS.                      2.0: CWLS Log ASCII Standard - VERSION 2.0
WRAP.                       NO: One line per depth step
~Well Information Block
STRT.FT               615.0000: 
STOP.FT              2807.0000: 
STEP.FT                 0.1000: 
NULL.                -999.2500: 
COMP.          Pioneer Natural Resources: COMPANY
WELL.              Loews 41-32: WELL
FLD.           Purgatoire River: FIELD
LOC.           751' FNL & 128' FEL: LOCATION
CNTY.               Las Animas: COUNTY
SRVC.                Patterson: SERVICE COMPANY
DATE.          Mon Feb 13 07:19:27 2006: LOG DATE
UWI.           05 071 08693 00: UNIQUE WELL ID
STAT.                 Colorado: STATE
~Curve Information Block
DEPT.FT            0 000 00 00: Depth
DCAL.in                       : CDL Caliper
RHOB.g/cc                     : CDL Bulk Density
RHOC.g/cc                     : CDL Density Correction
DPOR.pu                       : CDL Density Porosity
GR.GAPI                       : Gamma Ray
NPOR.pu                       : Neutron Porosity
~Parameter Information Block
~A  Depth       DCAL        RHOB        RHOC        DPOR         GR         NPOR    
# ...
   903.0000      8.0404      2.5060      0.0438      8.7252     62.4559     19.9220
   903.1000      8.0404      2.5402      0.0702      6.6562     62.9821     20.5803
   903.2000      8.0404      2.5657      0.0801      5.1105     63.1685     21.2582
   903.3000      8.0396      2.5785      0.0870      4.3303     64.0077     21.1754
   903.4000      8.0396      2.5826      0.0870      4.0847     65.7960     20.2459
   903.5000      8.0402      2.5864      0.0801      3.8538     66.8614     19.5525
   903.6000      8.0402      2.5955      0.1022      3.3058     67.1842     19.0762
   903.7000      8.0402      2.6041      0.1287      2.7798     67.5031     18.4814
   903.8000      8.0397      2.6042      0.0761      2.7776     66.9405     18.2832
   903.9000      8.0397      2.5945      0.0579      3.3666     64.9604     18.7544
   904.0000      8.0396      2.5707      0.0493      4.8070     63.8050     19.2866
   904.1000      8.0396      2.5282     -0.0019      7.3820     65.4023     19.2122
   904.2000      8.0396      2.4837     -0.0444     10.0773     65.8414     18.4325
   904.3000      8.0418      2.4655     -0.0676     11.1813     62.1309     17.3130
   904.4000      8.0418      2.4771     -0.0009     10.4804     56.2743     16.4662
   904.5000      8.0397      2.5020     -0.0327      8.9675     50.1057     15.8266
   904.6000      8.0397      2.5325     -0.0158      7.1212     47.4019     15.1209
   904.7000      8.0397      2.5557      0.0487      5.7178     50.2475     14.5869
   904.8000      8.0346      2.5516      0.0374      5.9650     53.1293     14.1950
   904.9000      8.0346      2.5220      0.0178      7.7569     52.1738     13.8122
   905.0000      8.0283      2.4895      0.0064      9.7246     50.8944     13.4548
   905.1000      8.0283      2.4735     -0.0296     10.6981     53.6173     13.1385
   905.2000      8.0283      2.4682      0.0375     11.0164     59.9675     12.9334
   905.3000      8.0192      2.4447      0.0642     12.4436     64.2334     12.8521
   905.4000      8.0192      2.4030     -0.0253     14.9713     63.4441     12.6510
   905.5000      8.0011      2.3871     -0.0285     15.9328     62.7552     12.2776
   905.6000      8.0011      2.4186      0.0187     14.0224     64.3875     12.0157
   905.7000      8.0011      2.4677      0.0906     11.0504     64.8477     11.8426
   905.8000      7.9716      2.4994      0.1487      9.1286     63.0738     11.5594
   905.9000      7.9716      2.5107      0.1061      8.4395     60.6531     11.4710
   906.0000      7.9913      2.5136      0.1835      8.2641     58.5268     11.9962
   906.1000      7.9913      2.5125      0.1703      8.3325     56.9892     12.9381
   906.2000      7.9913      2.5127      0.1600      8.3231     55.7272     13.4535
   906.3000      8.0221      2.5153      0.1575      8.1617     54.4662     13.0172
   906.4000      8.0221      2.5132      0.1303      8.2936     52.7635     12.4187
   906.5000      8.0529      2.5035      0.1149      8.8777     51.1551     12.4615
   906.6000      8.0529      2.4874      0.1171      9.8515     50.8111     12.8392
   906.7000      8.0529      2.4642      0.0819     11.2621     51.1242     12.9989
   906.8000      8.0550      2.4379      0.0479     12.8535     49.6866     12.7238
   906.9000      8.0550      2.4199      0.0393     13.9444     45.3736     12.2588
   907.0000      8.0553      2.4144      0.0384     14.2759     41.8786     12.0412
   907.1000      8.0553      2.4120      0.0418     14.4232     41.7646     12.1479
   907.2000      8.0553      2.4044      0.0293     14.8859     42.7310     12.4060
   907.3000      8.0545      2.3939      0.0071     15.5212     42.0506     12.6742
   907.4000      8.0545      2.3918      0.0120     15.6497     39.6131     12.7551
   907.5000      8.0521      2.4049      0.0400     14.8519     38.2662     12.5097
   907.6000      8.0521      2.4213      0.0650     13.8603     39.2254     12.2426
   907.7000      8.0521      2.4275      0.0697     13.4870     40.3780     12.0383
   907.8000      8.0510      2.4315      0.0392     13.2427     39.7908     11.6530
   907.9000      8.0510      2.4415      0.0952     12.6339     37.3496     11.2523
   908.0000      8.0507      2.4444      0.1221     12.4632     35.1641     10.9059
   908.1000      8.0507      2.4349      0.0709     13.0384     34.6541     10.6346
   908.2000      8.0507      2.4294      0.0696     13.3717     35.0368     10.8307
   908.3000      8.0284      2.4341      0.0993     13.0853     35.7372     11.7285
   908.4000      8.0284      2.4396      0.1068     12.7490     36.8663     12.9085
   908.5000      8.0346      2.4470      0.0716     12.3055     38.7910     13.4273
   908.6000      8.0346      2.4630      0.1117     11.3349     41.5616     13.1462
   908.7000      8.0346      2.4742      0.1291     10.6545     44.1082     12.9083
   908.8000      8.0537      2.4640      0.0771     11.2711     44.9531     13.0176
   908.9000      8.0537      2.4402      0.0842     12.7155     44.1347     13.1356
   909.0000      8.0581      2.4254      0.0452     13.6117     42.9306     13.1239
   909.1000      8.0581      2.4331      0.0500     13.1455     42.9877     13.0546
   909.2000      8.0581      2.4537      0.0483     11.8986     44.4232     12.9098
   909.3000      8.0578      2.4688      0.1265     10.9811     44.8452     12.7581
   909.4000      8.0578      2.4703      0.0645     10.8894     42.7711     12.7956
   909.5000      8.0571      2.4635      0.0590     11.3025     41.0477     13.0305
   909.6000      8.0571      2.4503      0.0637     12.1016     42.8002     13.1627
   909.7000      8.0571      2.4226      0.0498     13.7836     44.9375     12.8658
   909.8000      8.0551      2.3848      0.0180     16.0744     43.4979     12.5742
   909.9000      8.0551      2.3568      0.0300     17.7699     39.4337     12.8327
   910.0000      8.0556      2.3487      0.0097     18.2631     35.7695     13.2274
   910.1000      8.0556      2.3576     -0.0027     17.7226     34.4602     13.1355
   910.2000      8.0556      2.3707      0.0415     16.9299     35.0200     12.6623
   910.3000      8.0526      2.3722      0.0087     16.8362     35.3835     12.1408
   910.4000      8.0526      2.3649      0.0058     17.2773     34.6432     11.6362
   910.5000      8.0532      2.3610      0.0151     17.5161     33.5063     11.2521
   910.6000      8.0532      2.3694     -0.0163     17.0078     32.1939     11.3170
   910.7000      8.0532      2.3895      0.0290     15.7853     30.6025     11.8450
   910.8000      8.0525      2.4040      0.0502     14.9091     29.4890     12.1116
   910.9000      8.0525      2.3978      0.0763     15.2874     29.7705     11.8265
   911.0000      8.0545      2.3756      0.0276     16.6332     31.8142     11.6471
   911.1000      8.0545      2.3555     -0.0117     17.8473     35.4253     11.7591
   911.2000      8.0545      2.3517      0.0210     18.0761     41.0225     11.8579
   911.3000      8.0530      2.3585      0.0332     17.6691     46.9328     11.9549
   911.4000      8.0530      2.3579      0.0331     17.7045     48.6704     12.4137
   911.5000      8.0509      2.3513      0.0132     18.1033     46.0690     13.0908
   911.6000      8.0509      2.3594      0.0127     17.6151     44.2155     13.2325
   911.7000      8.0509      2.3852      0.0447     16.0459     45.6937     12.8809
   911.8000      8.0516      2.4127      0.0545     14.3831     46.7346     12.8911
   911.9000      8.0516      2.4327      0.0744     13.1708     44.0028     13.3595
   912.0000      8.0499      2.4450      0.0683     12.4234     40.7483     13.4175
   912.1000      8.0499      2.4407      0.0977     12.6823     40.7663     12.8071
   912.2000      8.0499      2.4106      0.0498     14.5080     43.8822     12.2510
   912.3000      8.0474      2.3738     -0.0139     16.7404     46.9126     12.3537
   912.4000      8.0474      2.3564      0.0181     17.7911     47.6508     13.1134
   912.5000      8.0477      2.3559      0.0137     17.8234     47.1745     14.1250
