~Version Information
VERS.                      2.0: CWLS Log ASCII Standard - VERSION 2.0
WRAP.                       NO: One line per depth step
~Well Information Block
STRT.FT               795.0000: 
STOP.FT              2279.7500: 
STEP.FT                 0.2500: 
NULL.                -999.2500: 
COMP.          Pioneer Natural Resources: COMPANY
WELL.            Wildcard 31-5: WELL
FLD.           Purgatoire River: FIELD
LOC.           624' FNL & 1852' FEL--: LOCATION
CNTY.               Las Animas: COUNTY
SRVC.                Patterson: SERVICE COMPANY
DATE.          Tue Mar 07 07:02:36 2006: LOG DATE
UWI.           05 071 08707 00: UNIQUE WELL ID
STAT.                 Colorado: STATE
~Curve Information Block
DEPT.FT            0 000 00 00: Depth
DIR.Ohm-m                     : IEL Induction Resistivity
SN.Ohm-m                      : IEL Short Normal
SP.mV                         : IEL Spontaneous Potential
GR.GAPI                       : Gamma Ray
~Parameter Information Block
~A  Depth       DIR          SN          SP          GR     
# ...
  1096.5000     34.8944   2000.0000   1968.0000     51.8804
  1096.7500     35.0721   2000.0000   1968.0000     52.2029
  1097.0000     35.1132   2000.0000   1968.0000     53.6926
  1097.2500     35.0212   2000.0000   1968.0000     55.5375
  1097.5000     34.7768   2000.0000   1968.0000     58.9604
  1097.7500     34.3737   2000.0000   1968.0000     60.8775
  1098.0000     33.8667   2000.0000   1968.0000     62.0289
  1098.2500     33.3678   2000.0000   1968.0000     61.5500
  1098.5000     32.9796   2000.0000   1968.0000     59.6538
  1098.7500     32.7219   2000.0000   1968.0000     58.0346
  1099.0000     32.5090   2000.0000   1968.0000     55.3749
  1099.2500     32.2010   2000.0000   1968.0000     53.5314
  1099.5000     31.7106   2000.0000   1968.0000     51.0277
  1099.7500     31.1108   2000.0000   1968.0000     49.8363
  1100.0000     30.6876   2000.0000   1968.0000     49.0682
  1100.2500     30.9563   2000.0000   1968.0000     49.1393
  1100.5000     32.7597   2000.0000   1968.0000     49.5089
  1100.7500     37.7544   2000.0000   1968.0000     49.5078
  1101.0000     50.4327   2000.0000   1968.0000     48.8078
  1101.2500     90.3009   2000.0000   1968.0000     48.0219
  1101.5000    516.6624   2000.0000   1968.0000     46.8647
  1101.7500 100000.0000   2000.0000   1968.0000     46.2971
  1102.0000 100000.0000   2000.0000   1968.0000     45.8091
  1102.2500 100000.0000   2000.0000   1968.0000     45.6913
  1102.5000     88.0905   2000.0000   1968.0000     45.7497
  1102.7500     33.5246   2000.0000   1968.0000     45.9220
  1103.0000     20.1099   2000.0000   1968.0000     46.4220
  1103.2500     15.2349   2000.0000   1968.0000     46.9194
  1103.5000     13.8077   2000.0000   1968.0000     47.7003
  1103.7500     15.0218   2000.0000   1968.0000     48.0598
  1104.0000     21.0445   2000.0000   1968.0000     48.2526
  1104.2500     53.6719   2000.0000   1968.0000     48.2363
  1104.5000 100000.0000   2000.0000   1968.0000     48.1258
  1104.7500 100000.0000   2000.0000   1968.0000     47.9790
  1105.0000 100000.0000   2000.0000   1968.0000     47.6074
  1105.2500 100000.0000   2000.0000   1968.0000     47.3147
  1105.5000 100000.0000   2000.0000   1968.0000     47.0470
  1105.7500 100000.0000   2000.0000   1968.0000     47.1506
  1106.0000 100000.0000   2000.0000   1968.0000     47.8830
  1106.2500 100000.0000   2000.0000   1968.0000     48.6884
  1106.5000 100000.0000   2000.0000   1968.0000     50.0931
  1106.7500 100000.0000   2000.0000   1968.0000     51.0185
  1107.0000     29.4180   2000.0000   1968.0000     52.1437
  1107.2500      4.7687   2000.0000   1968.0000     52.5181
  1107.5000      1.9894   2000.0000   1968.0000     52.3354
  1107.7500      1.0795   2000.0000   1968.0000     51.8987
  1108.0000      0.6871   2000.0000   1968.0000     51.3546
  1108.2500      0.5024   2000.0000   1968.0000     51.2096
  1108.5000      0.4288   2000.0000   1968.0000     50.9462
  1108.7500      0.4382   2000.0000   1968.0000     50.3801
  1109.0000      0.5405   2000.0000   1968.0000     48.6770
  1109.2500      0.7971   2000.0000   1968.0000     47.1479
  1109.5000      1.3985   2000.0000   1968.0000     44.9199
  1109.7500      2.7647   2000.0000   1968.0000     43.8366
  1110.0000      3.8052   2000.0000   1968.0000     43.0768
  1110.2500      2.0470   2000.0000   1968.0000     43.1066
  1110.5000      0.8307   2000.0000   1968.0000     43.7660
  1110.7500      0.3530   2000.0000   1968.0000     44.4834
  1111.0000      0.1484   2000.0000   1968.0000     45.6669
  1111.2500      0.0642   2000.0000   1968.0000     46.3120
  1111.5000      0.0326   2000.0000   1968.0000     46.7609
  1111.7500      0.0205   2000.0000   1968.0000     46.6371
  1112.0000      0.0158   2000.0000   1968.0000     45.8686
  1112.2500      0.0145   2000.0000   1968.0000     45.0790
  1112.5000      0.0155   2000.0000   1968.0000     43.7633
  1112.7500      0.0193   2000.0000   1968.0000     43.0047
  1113.0000      0.0275   2000.0000   1968.0000     42.4229
  1113.2500      0.0445   2000.0000   1968.0000     42.5529
  1113.5000      0.0794   2000.0000   1968.0000     43.4204
  1113.7500      0.1494   2000.0000   1968.0000     44.1750
  1114.0000      0.2810   2000.0000   1968.0000     45.1820
  1114.2500      0.5205   2000.0000   1968.0000     45.9057
  1114.5000      0.9985   2000.0000   1968.0000     47.9177
  1114.7500      2.2109   2000.0000   1968.0000     50.3594
  1115.0000      7.3871   2000.0000   1968.0000     55.9089
  1115.2500 100000.0000   2000.0000   1968.0000     60.7376
  1115.5000 100000.0000   2000.0000   1968.0000     69.4585
  1115.7500 100000.0000   2000.0000   1968.0000     76.1600
  1116.0000      7.2358   2000.0000   1968.0000     87.0900
  1116.2500      2.7016   2000.0000   1968.0000     94.4661
  1116.5000      1.5582   2000.0000   1968.0000    104.7377
  1116.7500      1.1420   2000.0000   1968.0000    110.6428
  1117.0000      1.0100   2000.0000   1968.0000    117.6631
  1117.2500      1.0582   2000.0000   1968.0000    121.0759
  1117.5000      1.2987   2000.0000   1968.0000    124.6957
  1117.7500      1.8531   2000.0000   1968.0000    126.5125
  1118.0000      3.0818   2000.0000   1968.0000    128.8463
  1118.2500      6.0930   2000.0000   1968.0000    130.1663
  1118.5000     14.9423   2000.0000   1968.0000    131.5688
  1118.7500     43.0377   2000.0000   1968.0000    131.9678
  1119.0000     53.2789   2000.0000   1968.0000    131.4152
  1119.2500     23.7994   2000.0000   1968.0000    129.8935
  1119.5000     11.8969   2000.0000   1968.0000    124.9129
  1119.7500      7.3430   2000.0000   1968.0000    119.3260
  1120.0000      5.2610   2000.0000   1968.0000    107.7293
  1120.2500      4.1858   2000.0000   1968.0000     98.7545
  1120.5000      3.5955   2000.0000   1968.0000     85.9271
  1120.7500      3.2706   2000.0000   1968.0000     79.4136
  1121.0000      3.1061   2000.0000   1968.0000     75.0956
  1121.2500      3.0456   2000.0000   1968.0000     76.5730
  1121.5000      3.0578   2000.0000   1968.0000     84.4899
  1121.7500      3.1274   2000.0000   1968.0000     91.9856
  1122.0000      3.2518   2000.0000   1968.0000    103.5787
  1122.2500      3.4372   2000.0000   1968.0000    110.4945
  1122.5000      3.6920   2000.0000   1968.0000    119.1780
  1122.7500      4.0180   2000.0000   1968.0000    123.9165
  1123.0000      4.3994   2000.0000   1968.0000    129.7387
  1123.2500      4.7951   2000.0000   1968.0000    133.0608
  1123.5000      5.1446   2000.0000   1968.0000    137.8217
  1123.7500      5.3964   2000.0000   1968.0000    141.0095
  1124.0000      5.5423   2000.0000   1968.0000    145.4571
  1124.2500      5.6229   2000.0000   1968.0000    147.7740
  1124.5000      5.6978   2000.0000   1968.0000    149.7084
  1124.7500      5.8149   2000.0000   1968.0000    149.9570
  1125.0000      5.9977   2000.0000   1968.0000    149.4168
  1125.2500      6.2486   2000.0000   1968.0000    148.9876
  1125.5000      6.5585   2000.0000   1968.0000    148.5855
  1125.7500      6.9151   2000.0000   1968.0000    148.1267
  1126.0000      7.3093   2000.0000   1968.0000    146.2354
  1126.2500      7.7376   2000.0000   1968.0000    143.9808
  1126.5000      8.2016   2000.0000   1968.0000    139.6508
  1126.7500      8.7049   2000.0000   1968.0000    136.7555
  1127.0000      9.2487   2000.0000   1968.0000    133.5269
  1127.2500      9.8289   2000.0000   1968.0000    132.6075
  1127.5000     10.4347   2000.0000   1968.0000    133.3088
  1127.7500     11.0493   2000.0000   1968.0000    134.8689
  1128.0000     11.6496   2000.0000   1968.0000    137.8070
  1128.2500     12.2070   2000.0000   1968.0000    139.4927
  1128.5000     12.6916   2000.0000   1968.0000    140.8899
  1128.7500     13.0810   2000.0000   1968.0000    141.0717
  1129.0000     13.3669   2000.0000   1968.0000    140.8586
  1129.2500     13.5544   2000.0000   1968.0000    140.8376
  1129.5000     13.6543   2000.0000   1968.0000    141.2484
  1129.7500     13.6768   2000.0000   1968.0000    141.5606
