~Version Information
VERS.                      2.0: CWLS Log ASCII Standard - VERSION 2.0
WRAP.                       NO: One line per depth step
~Well Information Block
STRT.FT              1186.0000: 
STOP.FT              1577.0000: 
STEP.FT                 0.2500: 
NULL.                -999.2500: 
COMP.          XTO Energy Inc.: COMPANY
WELL.          Golden Eagle 19-10: WELL
FLD.           Purgatorie River: FIELD
LOC.           2684' FSL & 1825' FEL--: LOCATION
CNTY.               Las Animas: COUNTY
SRVC.          Superior Well Services: SERVICE COMPANY
DATE.          Mon Dec 11 16:19:11 2006: LOG DATE
UWI.           05 071 08697 00: UNIQUE WELL ID
STAT.                       CO: STATE
~Curve Information Block
DEPT.FT            0 000 00 00: Depth
CCL.                          : Casing Collar Locator
TT3.usec                      : CBL 3' Travel Time
AMP3.mV                       : CBL 3' Amplitude
GR.GAPI                       : Gamma Ray
~Parameter Information Block
~A  Depth       CCL         TT3         AMP3         GR     
# ...
  1487.5000      0.0000    711.0981      8.2372     94.5670
  1487.7500      0.0000    711.1036      8.1367     87.4689
  1488.0000      0.0000    711.4154      8.0196     81.3496
  1488.2500      0.0000    711.9110      7.8735     76.5093
  1488.5000      0.0000    711.8721      7.6768     73.2104
  1488.7500      0.0000    709.9472      7.4090     70.9689
  1489.0000      0.0000    705.2341      7.0639     68.5148
  1489.2500      0.0000    698.8101      6.6586     64.7417
  1489.5000      0.0000    693.6075      6.2293     59.5955
  1489.7500      0.0000    692.1531      5.8190     53.9706
  1490.0000      0.0000    694.7177      5.4644     48.9745
  1490.2500      0.0000    700.0914      5.1931     45.4680
  1490.5000      0.0000    707.6498      5.0242     43.8535
  1490.7500      0.0000    717.7371      4.9600     43.7006
  1491.0000      0.0000    729.8613      4.9721     43.8485
  1491.2500      0.0000    741.3637      5.0053     43.4888
  1491.5000      0.0000    748.8614      5.0107     42.9890
  1491.7500      0.0000    751.0341      4.9822     43.2372
  1492.0000      0.0000    749.4597      4.9608     44.5265
  1492.2500      0.0000    746.8317      4.9996     46.5786
  1492.5000      0.0000    744.8964      5.1273     49.5950
  1492.7500      0.0000    743.7524      5.3396     54.7856
  1493.0000      0.0000    742.2693      5.6194     63.3390
  1493.2500      0.0000    739.0844      5.9578     74.7843
  1493.5000      0.0000    733.8768      6.3532     86.7502
  1493.7500      0.0000    727.9639      6.7889     96.5475
  1494.0000      0.0000    723.2705      7.2164    102.8427
  1494.2500      0.0000    720.5220      7.5700    105.9619
  1494.5000      0.0000    718.7712      7.8022    107.0991
  1494.7500      0.0000    716.7877      7.9064    107.3753
  1495.0000      0.0000    714.4198      7.9098    107.3575
  1495.2500      0.0000    712.3784      7.8507    107.2591
  1495.5000      0.0000    711.1908      7.7599    107.4515
  1495.7500      0.0000    710.7555      7.6554    108.4849
  1496.0000      0.0000    710.6652      7.5466    110.5231
  1496.2500      0.0000    710.6202      7.4390    113.0312
  1496.5000      0.0000    710.5738      7.3370    115.3409
  1496.7500      0.0000    710.6854      7.2455    117.3653
  1497.0000      0.0000    711.2678      7.1682    119.3941
  1497.2500      0.0000    712.6970      7.1021    121.3226
  1497.5000      0.0000    715.1230      7.0358    122.4326
  1497.7500      0.0000    718.1279      6.9575    122.0420
  1498.0000      0.0000    720.8746      6.8655    120.2739
  1498.2500      0.0000    722.7980      6.7680    118.0209
  1498.5000      0.0000    724.0748      6.6761    116.0469
  1498.7500      0.0000    725.5119      6.5985    114.2917
  1499.0000      0.0000    728.2548      6.5395    112.1843
  1499.2500      0.0000    733.3422      6.4979    109.3753
  1499.5000      0.0000    740.9355      6.4660    105.9203
  1499.7500      0.0000    749.7466      6.4351    102.1317
  1500.0000      0.0000    757.1444      6.4037     98.8155
  1500.2500      0.0000    759.9457      6.3786     97.4499
  1500.5000      0.0000    756.1412      6.3667     99.2708
  1500.7500      0.0000    746.9303      6.3653    103.6637
  1501.0000      0.0000    737.0966      6.3635    107.9422
  1501.2500      0.0000    732.4294      6.3523    109.3371
  1501.5000      0.0000    735.7477      6.3321    107.0886
  1501.7500      0.0000    744.7378      6.3099    102.4087
  1502.0000      0.0000    753.9240      6.2918     96.8474
  1502.2500      0.0000    759.5146      6.2787     91.2939
  1502.5000      0.0000    762.3201      6.2654     86.5261
  1502.7500      0.0000    765.7141      6.2431     83.8550
  1503.0000      0.0000    771.5056      6.2056     84.2706
  1503.2500      0.0000    778.4716      6.1553     86.9335
  1503.5000      0.0000    784.2243      6.1039     89.2518
  1503.7500      0.0000    787.3495      6.0643     88.8025
  1504.0000      0.0000    787.8010      6.0423     85.0627
  1504.2500      0.0000    786.1880      6.0342     79.3872
  1504.5000      0.0000    783.1773      6.0333     73.6014
  1504.7500      0.0000    779.2693      6.0348     68.7332
  1505.0000      0.0000    775.0464      6.0357     64.9541
  1505.2500      0.0000    771.6191      6.0315     62.1078
  1505.5000      0.0000    770.3540      6.0171     59.7324
  1505.7500      0.0000    771.6406      5.9940     56.9934
  1506.0000      0.0000    774.1088      5.9703     53.3517
  1506.2500      0.0000    775.4611      5.9523     49.1811
  1506.5000      0.0000    774.3971      5.9353     45.3818
  1506.7500      0.0000    771.9781      5.9150     42.6901
  1507.0000      0.0000    771.1037      5.9072     41.5890
  1507.2500      0.0000    774.5380      5.9402     42.3953
  1507.5000      0.0000    783.3462      6.0099     44.9597
  1507.7500      0.0000    796.3589      6.0607     48.4615
  1508.0000      0.0000    810.2129      6.0410     51.8368
  1508.2500      0.0000    820.6580      5.9640     54.3953
  1508.5000      0.0000    825.5734      5.8869     56.0643
  1508.7500      0.0000    826.7849      5.8435     57.2791
  1509.0000      0.0000    828.0629      5.8209     58.6171
  1509.2500     -2.0000    831.4777      5.7962     60.2859
  1509.5000      0.0000    836.0620      5.7737     62.0032
  1509.7500      0.0000    839.2438      5.7808     63.4440
  1510.0000      0.0000    838.5300      5.8249     64.5919
  1510.2500      0.0000    832.2274      5.8607     65.6800
  1510.5000      0.0000    819.9990      5.8238     67.1115
  1510.7500      0.0000    803.3088      5.7078     69.3585
  1511.0000      0.0000    784.8480      5.5803     72.6590
  1511.2500      0.0000    767.3605      5.5105     77.0320
  1511.5000      0.0000    752.9861      5.5070     82.7386
  1511.7500      0.0000    742.9963      5.5340     90.1768
  1512.0000      0.0000    737.6049      5.5571     98.8418
  1512.2500      0.0000    736.0929      5.5622    106.6884
  1512.5000      0.0000    737.1620      5.5474    111.1644
  1512.7500      0.0000    739.2986      5.5148    111.0905
  1513.0000      0.0000    741.3434      5.4673    107.2874
  1513.2500      0.0000    743.0580      5.4059    101.4928
  1513.5000      0.0000    745.0272      5.3308     95.2594
  1513.7500      0.0000    747.8647      5.2436     89.8838
  1514.0000      0.0000    751.5317      5.1513     86.4901
  1514.2500      0.0000    755.5103      5.0665     85.6296
  1514.5000      0.0000    759.4257      5.0022     86.9440
  1514.7500      0.0000    762.9908      4.9620     89.3310
  1515.0000      0.0000    765.4220      4.9309     91.3939
  1515.2500      0.0000    765.6954      4.8820     92.1056
  1515.5000      0.0000    763.4635      4.7970     91.3862
  1515.7500      0.0000    758.9835      4.6826     89.7776
  1516.0000      0.0000    752.4288      4.5693     87.4010
  1516.2500      0.0000    744.3161      4.4961     83.7951
  1516.5000      0.0000    736.3376      4.4922     79.0032
  1516.7500      0.0000    730.5002      4.5652     74.2219
  1517.0000      0.0000    727.2726      4.7028     71.0933
  1517.2500      0.0000    725.3201      4.8825     70.8525
  1517.5000      0.0000    723.1390      5.0812     74.1293
  1517.7500      0.0000    720.6277      5.2765     80.7808
  1518.0000      0.0000    719.1678      5.4519     89.5055
  1518.2500      0.0000    720.3835      5.6047     98.1947
  1518.5000      0.0000    724.7382      5.7488    105.0977
  1518.7500      0.0000    731.1901      5.9021    109.7044
  1519.0000      0.0000    738.2438      6.0689    112.6810
  1519.2500      0.0000    745.3036      6.2337    115.1633
  1519.5000      0.0000    752.8010      6.3733    117.8464
  1519.7500      0.0000    760.8880      6.4756    120.4810
  1520.0000      0.0000    768.3395      6.5465    122.3297
  1520.2500      0.0000    773.1767      6.6003    123.1355
  1520.5000      0.0000    774.3794      6.6464    123.3252
  1520.7500      0.0000    772.6874      6.6870    123.2419
