~Version Information
VERS.                      2.0: CWLS Log ASCII Standard - VERSION 2.0
WRAP.                       NO: One line per depth step
~Well Information Block
STRT.FT               370.0000: 
STOP.FT              2831.7500: 
STEP.FT                 0.2500: 
NULL.                -999.2500: 
COMP.          Pioneer Natural Resources: COMPANY
WELL.          Black Cat 13-32: WELL
FLD.           Purgatoire River: FIELD
LOC.           1865' FSL & 1120' FWL--: LOCATION
PROV.                 Colorado: PROVINCE
CNTY.               Las Animas: COUNTRY
SRVC.                Patterson: SERVICE COMPANY
DATE.          Sun Jul 31 08:49:16 2005: LOG DATE
UWI.           05 071 08450 00: UNIQUE WELL ID
~Curve Information Block
DEPT.FT            0 000 00 00: Depth
DIR.Ohm-m                     : IEL Induction Resistivity
SN.Ohm-m                      : IEL Short Normal
SP.mV                         : IEL Spontaneous Potential
GR.GAPI                       : Gamma Ray
~Parameter Information Block
~A  Depth       DIR          SN          SP          GR     
# ...
  1576.0000     19.7958     20.5538    168.8155    116.2538
  1576.2500     18.9110     20.0600    169.4029    119.0744
  1576.5000     17.9290     19.4951    170.0855    124.1046
  1576.7500     16.9452     18.8561    170.8028    127.6369
  1577.0000     16.0306     18.1730    171.5025    132.5548
  1577.2500     15.2259     17.4992    172.1428    134.8417
  1577.5000     14.5481     16.8886    172.6943    135.7399
  1577.7500     13.9988     16.3766    173.1402    134.8141
  1578.0000     13.5713     15.9769    173.4753    132.6202
  1578.2500     13.2553     15.6893    173.7038    131.4914
  1578.5000     13.0385     15.5064    173.8368    130.7754
  1578.7500     12.9070     15.4160    173.8895    130.7639
  1579.0000     12.8423     15.3995    173.8790    131.4725
  1579.2500     12.8186     15.4282    173.8223    132.8170
  1579.5000     12.8046     15.4641    173.7340    136.2146
  1579.7500     12.7718     15.4723    173.6237    138.5215
  1580.0000     12.7092     15.4373    173.4943    139.9772
  1580.2500     12.6319     15.3718    173.3396    139.3042
  1580.5000     12.5742     15.3081    173.1446    137.7313
  1580.7500     12.5694     15.2841    172.8873    137.8947
  1581.0000     12.6299     15.3306    172.5431    140.7416
  1581.2500     12.7444     15.4666    172.0916    143.1987
  1581.5000     12.8964     15.6991    171.5249    144.7171
  1581.7500     13.0872     16.0276    170.8553    143.3089
  1582.0000     13.3436     16.4442    170.1211    138.0130
  1582.2500     13.7044     16.9315    169.3853    133.2979
  1582.5000     14.1998     17.4644    168.7292    125.7746
  1582.7500     14.8397     18.0296    168.2389    120.5513
  1583.0000     15.6130     18.6613    167.9900    111.1452
  1583.2500     16.4941     19.4809    168.0326    102.7390
  1583.5000     17.4502     20.7076    168.3832     86.3871
  1583.7500     18.4486     22.6035    169.0237     74.2782
  1584.0000     19.4581     25.3290    169.9088     58.5152
  1584.2500     20.4447     28.7568    170.9774     51.7416
  1584.5000     21.3553     32.3807    172.1663     47.9565
  1584.7500     22.1009     35.4419    173.4206     48.4584
  1585.0000     22.5579     37.2497    174.7018     50.6894
  1585.2500     22.6102     37.5044    175.9897     51.9002
  1585.5000     22.2163     36.4089    177.2816     52.9440
  1585.7500     21.4469     34.5176    178.5875     53.8572
  1586.0000     20.4501     32.4406    179.9234     57.4881
  1586.2500     19.3765     30.5809    181.3031     62.2676
  1586.5000     18.3251     29.0276    182.7312     72.9282
  1586.7500     17.3342     27.6308    184.1966     81.3544
  1587.0000     16.4012     26.1808    185.6716     93.6533
  1587.2500     15.5096     24.5594    187.1138    100.7930
  1587.5000     14.6455     22.7852    188.4718    109.8903
  1587.7500     13.8031     20.9709    189.6937    115.1350
  1588.0000     12.9858     19.2547    190.7342    121.7176
  1588.2500     12.2062     17.7494    191.5614    125.0781
  1588.5000     11.4864     16.5184    192.1602    128.7105
  1588.7500     10.8534     15.5779    192.5325    130.4358
  1589.0000     10.3313     14.9145    192.6954    132.1759
  1589.2500      9.9339     14.5009    192.6765    132.7983
  1589.5000      9.6642     14.3037    192.5089    133.0682
  1589.7500      9.5202     14.2865    192.2265    132.7899
  1590.0000      9.5021     14.4131    191.8605    131.2137
  1590.2500      9.6144     14.6500    191.4395    129.0739
  1590.5000      9.8629     14.9723    190.9921    124.1357
  1590.7500     10.2486     15.3749    190.5516    119.8832
  1591.0000     10.7654     15.8850    190.1607    112.4269
  1591.2500     11.4033     16.5661    189.8753    106.8817
  1591.5000     12.1527     17.5027    189.7640     97.9556
  1591.7500     13.0043     18.7613    189.9028     91.8269
  1592.0000     13.9387     20.3342    190.3659     82.8216
  1592.2500     14.9097     22.0995    191.2135     77.2266
  1592.5000     15.8279     23.8333    192.4783     70.1339
  1592.7500     16.5654     25.2688    194.1558     66.9192
  1593.0000     16.9904     26.1627    196.1974     65.7399
  1593.2500     17.0237     26.3446    198.5123     68.0072
  1593.5000     16.6789     25.7620    200.9747     75.9781
  1593.7500     16.0568     24.5186    203.4370     83.4319
  1594.0000     15.2989     22.8739    205.7449     95.0755
  1594.2500     14.5377     21.1689    207.7541    101.5392
  1594.5000     13.8675     19.7105    209.3436    107.7646
  1594.7500     13.3392     18.6790    210.4262    109.4589
  1595.0000     12.9673     18.0998    210.9613    108.5832
  1595.2500     12.7421     17.8751    210.9627    106.0851
  1595.5000     12.6396     17.8580    210.5095    101.0326
  1595.7500     12.6300     17.9308    209.7507     98.2382
  1596.0000     12.6809     18.0426    208.9017     96.9648
  1596.2500     12.7579     18.1774    208.2262     98.2633
  1596.5000     12.8231     18.2840    207.9988    102.1685
  1596.7500     12.8362     18.2391    208.4548    105.1092
  1597.0000     12.7615     17.8853    209.7334    108.8885
  1597.2500     12.5767     17.1250    211.8324    110.5851
  1597.5000     12.2763     15.9869    214.5901    111.4033
  1597.7500     11.8664     14.6123    217.7046    110.7628
  1598.0000     11.3596     13.1818    220.7911    108.5673
  1598.2500     10.7799     11.8569    223.4631    106.7060
  1598.5000     10.1694     10.7653    225.4156    103.6407
  1598.7500      9.5824     10.0005    226.4856    101.3892
  1599.0000      9.0672      9.6021    226.6734     97.7715
  1599.2500      8.6502      9.5311    226.1221     95.5030
  1599.5000      8.3335      9.6724    225.0640     93.4084
  1599.7500      8.1035      9.8810    223.7558     93.6235
  1600.0000      7.9418     10.0461    222.4206     96.7308
  1600.2500      7.8326     10.1315    221.2114    107.7204
  1600.5000      7.7650     10.1627    220.1993    113.3524
  1600.7500      7.7327     10.1771    219.3828    115.3594
  1601.0000      7.7311     10.1862    218.7083    115.8237
  1601.2500      7.7569     10.1809    218.0929    114.9161
  1601.5000      7.8081     10.1643    217.4440    113.1471
  1601.7500      7.8858     10.1724    216.6732    112.5883
  1602.0000      7.9945     10.2643    215.7050    113.1268
  1602.2500      8.1419     10.4976    214.4818    113.6906
  1602.5000      8.3369     10.9099    212.9685    112.4661
  1602.7500      8.5877     11.5108    211.1561    108.9478
  1603.0000      8.9017     12.2811    209.0668     99.2278
  1603.2500      9.2846     13.1820    206.7543     91.0214
  1603.5000      9.7396     14.1863    204.3076     79.0945
  1603.7500     10.2648     15.3150    201.8462     72.3533
  1604.0000     10.8504     16.6273    199.5123     64.0543
  1604.2500     11.4791     18.1326    197.4571     59.6578
  1604.5000     12.1256     19.6941    195.8243     55.7327
  1604.7500     12.7550     21.0310    194.7334     55.9088
  1605.0000     13.3190     21.8426    194.2645     61.6512
  1605.2500     13.7562     21.9525    194.4470     69.0200
  1605.5000     14.0085     21.3716    195.2506     83.2744
  1605.7500     14.0513     20.2655    196.5801     92.8857
  1606.0000     13.9163     18.8709    198.2757    104.0532
  1606.2500     13.6775     17.4118    200.1207    108.3162
  1606.5000     13.4072     16.0493    201.8630    110.7007
  1606.7500     13.1375     14.8733    203.2483    111.1296
  1607.0000     12.8587     13.9176    204.0620    112.7253
  1607.2500     12.5515     13.1767    204.1681    115.4534
  1607.5000     12.2226     12.6200    203.5343    122.7605
  1607.7500     11.9094     12.2051    202.2321    129.4702
  1608.0000     11.6558     11.8906    200.4144    139.5910
  1608.2500     11.4867     11.6448    198.2747    143.5314
  1608.5000     11.4009     11.4493    196.0050    141.2527
  1608.7500     11.3789     11.2981    193.7600    134.6679
  1609.0000     11.3954     11.1919    191.6383    122.5301
  1609.2500     11.4292     11.1303    189.6794    116.3985
