~Version Information
VERS.                      2.0: CWLS Log ASCII Standard - VERSION 2.0
WRAP.                       NO: One line per depth step
~Well Information Block
STRT.FT               550.0000: 
STOP.FT              1664.0000: 
STEP.FT                 0.2500: 
NULL.                -999.2500: 
COMP.          Pioneer Natural Resources: COMPANY
WELL.          Stock Canyon 34-33: WELL
FLD.           Purgatorie River: FIELD
LOC.           980' FSL & 2191' FEL: LOCATION
PROV.                 Colorado: PROVINCE
CNTY.               Las Animas: COUNTRY
SRVC.                Patterson: SERVICE COMPANY
DATE.          Mon Dec 05 09:58:03 2005: LOG DATE
UWI.                          : UNIQUE WELL ID
~Curve Information Block
DEPT.FT            0 000 00 00: Depth
SN.Ohm-m                      : IEL Short Normal
SP.mV                         : IEL Spontaneous Potential
DIR.Ohm-m                     : IEL Induction Resistivity
GR.GAPI                       : Gamma Ray
~Parameter Information Block
~A  Depth        SN          SP         DIR          GR     
# ...
   617.0000   2000.0000   2000.0000     15.3889    134.4044
   617.2500   2000.0000   2000.0000     15.2016    135.5740
   617.5000   2000.0000   2000.0000     15.0819    136.2594
   617.7500   2000.0000   2000.0000     15.0568    135.8047
   618.0000   2000.0000   2000.0000     15.1347    133.3915
   618.2500   2000.0000   2000.0000     15.3006    130.5303
   618.5000   2000.0000   2000.0000     15.5211    125.2927
   618.7500   2000.0000   2000.0000     15.7605    122.3417
   619.0000   2000.0000   2000.0000     15.9964    120.5083
   619.2500   2000.0000   2000.0000     16.2250    121.2447
   619.5000   2000.0000   2000.0000     16.4541    124.1725
   619.7500   2000.0000   2000.0000     16.6962    126.2499
   620.0000   2000.0000   2000.0000     16.9676    128.0220
   620.2500   2000.0000   2000.0000     17.2857    128.0459
   620.5000   2000.0000   2000.0000     17.6596    126.8668
   620.7500   2000.0000   2000.0000     18.0771    125.6910
   621.0000   2000.0000   2000.0000     18.5026    123.7962
   621.2500   2000.0000   2000.0000     18.8894    122.6997
   621.5000   2000.0000   2000.0000     19.1976    121.6714
   621.7500   2000.0000   2000.0000     19.4027    121.2152
   622.0000   2000.0000   2000.0000     19.4923    119.9756
   622.2500   2000.0000   2000.0000     19.4587    118.5581
   622.5000   2000.0000   2000.0000     19.2966    116.1915
   622.7500   2000.0000   2000.0000     19.0063    114.9010
   623.0000   2000.0000   2000.0000     18.5972    113.3791
   623.2500   2000.0000   2000.0000     18.0869    112.4052
   623.5000   2000.0000   2000.0000     17.4969    111.2159
   623.7500   2000.0000   2000.0000     16.8466    111.1704
   624.0000   2000.0000   2000.0000     16.1516    113.0560
   624.2500   2000.0000   2000.0000     15.4271    115.4517
   624.5000   2000.0000   2000.0000     14.6953    119.2710
   624.7500   2000.0000   2000.0000     13.9902    121.0586
   625.0000   2000.0000   2000.0000     13.3520    122.5487
   625.2500   2000.0000   2000.0000     12.8156    123.7337
   625.5000   2000.0000   2000.0000     12.4001    127.4862
   625.7500   2000.0000   2000.0000     12.1061    131.2136
   626.0000   2000.0000   2000.0000     11.9211    136.7940
   626.2500   2000.0000   2000.0000     11.8275    139.4145
   626.5000   2000.0000   2000.0000     11.8105    140.9063
   626.7500   2000.0000   2000.0000     11.8637    140.3069
   627.0000   2000.0000   2000.0000     11.9884    137.6089
   627.2500   2000.0000   2000.0000     12.1890    135.2758
   627.5000   2000.0000   2000.0000     12.4647    132.2211
   627.7500   2000.0000   2000.0000     12.8051    130.9289
   628.0000   2000.0000   2000.0000     13.1930    130.3956
   628.2500   2000.0000   2000.0000     13.6158    131.0469
   628.5000   2000.0000   2000.0000     14.0785    132.9991
   628.7500   2000.0000   2000.0000     14.6119    133.7271
   629.0000   2000.0000   2000.0000     15.2697    130.5681
   629.2500   2000.0000   2000.0000     16.1108    124.0335
   629.5000   2000.0000   2000.0000     17.1681    107.9897
   629.7500   2000.0000   2000.0000     18.4074     95.5182
   630.0000   2000.0000   2000.0000     19.6961     79.7841
   630.2500   2000.0000   2000.0000     20.8230     73.6277
   630.5000   2000.0000   2000.0000     21.6002     71.2229
   630.7500   2000.0000   2000.0000     21.9768     72.5513
   631.0000   2000.0000   2000.0000     22.0401     75.4639
   631.2500   2000.0000   2000.0000     21.9038     76.6195
   631.5000   2000.0000   2000.0000     21.6221     76.0735
   631.7500   2000.0000   2000.0000     21.2054     74.0383
   632.0000   2000.0000   2000.0000     20.6878     69.0694
   632.2500   2000.0000   2000.0000     20.1544     65.4274
   632.5000   2000.0000   2000.0000     19.7044     61.7367
   632.7500   2000.0000   2000.0000     19.4010     61.6902
   633.0000   2000.0000   2000.0000     19.2507     66.3608
   633.2500   2000.0000   2000.0000     19.2178     72.3696
   633.5000   2000.0000   2000.0000     19.2497     83.7005
   633.7500   2000.0000   2000.0000     19.2974     91.2899
   634.0000   2000.0000   2000.0000     19.3243    101.1878
   634.2500   2000.0000   2000.0000     19.3098    106.8315
   634.5000   2000.0000   2000.0000     19.2572    114.4261
   634.7500   2000.0000   2000.0000     19.2050    118.7116
   635.0000   2000.0000   2000.0000     19.2299    122.7556
   635.2500   2000.0000   2000.0000     19.4325    123.4193
   635.5000   2000.0000   2000.0000     19.9059    121.9613
   635.7500   2000.0000   2000.0000     20.7007    120.1218
   636.0000   2000.0000   2000.0000     21.8027    117.1202
   636.2500   2000.0000   2000.0000     23.1314    115.3138
   636.5000   2000.0000   2000.0000     24.5626    112.9156
   636.7500   2000.0000   2000.0000     25.9631    111.0094
   637.0000   2000.0000   2000.0000     27.2123    106.4123
   637.2500   2000.0000   2000.0000     28.2009    101.9031
   637.5000   2000.0000   2000.0000     28.8222     93.6708
   637.7500   2000.0000   2000.0000     28.9827     87.8479
   638.0000   2000.0000   2000.0000     28.6407     79.3628
   638.2500   2000.0000   2000.0000     27.8486     74.1570
   638.5000   2000.0000   2000.0000     26.7494     67.4500
   638.7500   2000.0000   2000.0000     25.5140     63.8434
   639.0000   2000.0000   2000.0000     24.2646     59.6655
   639.2500   2000.0000   2000.0000     23.0399     57.6796
   639.5000   2000.0000   2000.0000     21.8160     56.1110
   639.7500   2000.0000   2000.0000     20.5560     56.1652
   640.0000   2000.0000   2000.0000     19.2554     58.2623
   640.2500   2000.0000   2000.0000     17.9598     61.5627
   640.5000   2000.0000   2000.0000     16.7466     70.7229
   640.7500   2000.0000   2000.0000     15.6900     79.7457
   641.0000   2000.0000   2000.0000     14.8325     95.3748
   641.2500   2000.0000   2000.0000     14.1749    105.0298
   641.5000   2000.0000   2000.0000     13.6860    115.7448
   641.7500   2000.0000   2000.0000     13.3209    120.1507
   642.0000   2000.0000   2000.0000     13.0404    123.6772
   642.2500   2000.0000   2000.0000     12.8208    124.6333
   642.5000   2000.0000   2000.0000     12.6498    124.9633
   642.7500   2000.0000   2000.0000     12.5165    125.3174
   643.0000   2000.0000   2000.0000     12.4043    127.7579
   643.2500   2000.0000   2000.0000     12.2946    130.7808
   643.5000   2000.0000   2000.0000     12.1754    135.0976
   643.7500   2000.0000   2000.0000     12.0476    135.8811
   644.0000   2000.0000   2000.0000     11.9237    132.0842
   644.2500   2000.0000   2000.0000     11.8194    126.4344
   644.5000   2000.0000   2000.0000     11.7465    114.5228
   644.7500   2000.0000   2000.0000     11.7088    104.9427
   645.0000   2000.0000   2000.0000     11.7040     89.5554
   645.2500   2000.0000   2000.0000     11.7263     80.1108
   645.5000   2000.0000   2000.0000     11.7670     70.2438
   645.7500   2000.0000   2000.0000     11.8146     67.6639
   646.0000   2000.0000   2000.0000     11.8565     69.7761
   646.2500   2000.0000   2000.0000     11.8832     74.5311
   646.5000   2000.0000   2000.0000     11.8923     85.6692
   646.7500   2000.0000   2000.0000     11.8871     95.2619
   647.0000   2000.0000   2000.0000     11.8729    111.6225
   647.2500   2000.0000   2000.0000     11.8529    122.7221
   647.5000   2000.0000   2000.0000     11.8294    137.3875
   647.7500   2000.0000   2000.0000     11.8061    144.5405
   648.0000   2000.0000   2000.0000     11.7876    149.6530
   648.2500   2000.0000   2000.0000     11.7777    149.0985
   648.5000   2000.0000   2000.0000     11.7759    143.7771
   648.7500   2000.0000   2000.0000     11.7782    138.7861
   649.0000   2000.0000   2000.0000     11.7788    131.3181
   649.2500   2000.0000   2000.0000     11.7753    126.6917
   649.5000   2000.0000   2000.0000     11.7723    119.7174
   649.7500   2000.0000   2000.0000     11.7833    114.9389
   650.0000   2000.0000   2000.0000     11.8250    108.8379
   650.2500   2000.0000   2000.0000     11.9069    106.6116
