~Version Information
VERS.                      2.0: CWLS Log ASCII Standard - VERSION 2.0
WRAP.                       NO: One line per depth step
~Well Information Block
STRT.FT              1585.0000: 
STOP.FT              2353.0000: 
STEP.FT                 0.2500: 
NULL.                -999.2500: 
COMP.          XTO Energy Inc.: COMPANY
WELL.          Hill Ranch 15-11: WELL
FLD.           Purgatrorie River: FIELD
LOC.           1862' FSL & 1801' FWL: LOCATION
STAT.                       CO: State
CNTY.               Las Animas: COUNTY
CTRY. USA : Country
SECT. 15 : Section
TOWN. 35S : Township
RANG. 67W : Range
SRVC.          Patterson Wireline: SERVICE COMPANY
DATE.          Thu Dec 08 10:20:02 2005: LOG DATE
API.              05 071 08472: UNIQUE WELL ID
~Curve Information Block
DEPT.FT            0 000 00 00: Depth
CCL.                          : Casing Collar Locator
TT3.usec                      : CBL 3' Travel Time
AMP3.mV                       : CBL 3' Amplitude
BONDIX.                       : CBL Bond Index
GR.GAPI                       : Gamma Ray
~Parameter Information Block
~A  Depth       CCL         TT3         AMP3       BONDIX        GR     
# ...
  1921.0000      0.0000    281.1688     78.5175      0.0414    141.9635
  1921.2500      0.0000    281.1598     78.1607      0.0424    141.6427
  1921.5000      0.0000    281.1480     77.8793      0.0432    143.8568
  1921.7500      0.0000    281.1327     77.6630      0.0438    148.3689
  1922.0000      0.0000    281.1133     77.4352      0.0445    151.9994
  1922.2500      0.0000    281.0970     77.0246      0.0456    150.1429
  1922.5000      0.0000    281.1150     76.0866      0.0483    140.7908
  1922.7500      0.0000    281.2503     74.0878      0.0542    127.0674
  1923.0000      0.0000    281.6530     70.5987      0.0648    115.2610
  1923.2500      0.0000    282.4929     65.8446      0.0801    110.2139
  1923.5000      0.0000    283.8349     60.9075      0.0972    112.3166
  1923.7500      0.0000    285.5271     57.1047      0.1114    118.1163
  1924.0000      0.0000    287.2234     55.0638      0.1194    123.2282
  1924.2500      0.0000    288.5605     54.4696      0.1218    124.9829
  1924.5000      0.0000    289.3607     54.5932      0.1213    123.1369
  1924.7500      0.0000    289.6939     54.8846      0.1201    118.9421
  1925.0000      0.0000    289.7923     55.1357      0.1191    114.0655
  1925.2500     -2.0000    289.9334     55.3255      0.1183    110.1002
  1925.5000      2.0000    290.3850     55.4128      0.1180    108.1529
  1925.7500      0.0000    291.2665     55.2956      0.1185    108.5981
  1926.0000      0.0000    292.2191     55.0184      0.1196    111.6166
  1926.2500      0.0000    292.2882     55.0158      0.1196    117.6985
  1926.5000      0.0000    290.6104     55.9792      0.1158    127.0069
  1926.7500      0.0000    287.4495     58.3588      0.1066    138.4783
  1927.0000      0.0000    284.1733     62.0338      0.0932    149.8866
  1927.2500      0.0000    282.0057     66.4072      0.0782    158.4530
  1927.5000      0.0000    281.1196     70.6697      0.0646    161.8142
  1927.7500      0.0000    280.9656     74.0890      0.0542    159.8612
  1928.0000      0.0000    281.0186     76.3089      0.0477    155.8181
  1928.2500      0.0000    281.0625     77.4430      0.0445    154.0282
  1928.5000      0.0000    281.0731     77.8731      0.0432    155.9082
  1928.7500      0.0000    281.0701     77.9771      0.0429    158.7531
  1929.0000      0.0000    281.0667     77.9898      0.0429    158.7068
  1929.2500      0.0000    281.0638     78.0012      0.0429    154.2385
  1929.5000      0.0000    281.0627     78.0042      0.0429    146.7730
  1929.7500      0.0000    281.0648     77.9603      0.0430    139.0699
  1930.0000      0.0000    281.0719     77.8535      0.0433    133.6743
  1930.2500      0.0000    281.0836     77.7211      0.0437    132.1900
  1930.5000      0.0000    281.0970     77.6417      0.0439    134.7498
  1930.7500      0.0000    281.1070     77.6757      0.0438    139.7129
  1931.0000      0.0000    281.1094     77.8076      0.0434    144.1709
  1931.2500      0.0000    281.1034     77.9562      0.0430    145.2191
  1931.5000      0.0000    281.0927     78.0433      0.0428    141.6303
  1931.7500      0.0000    281.0823     78.0435      0.0428    135.1348
  1932.0000      0.0000    281.0750     77.9761      0.0429    129.7545
  1932.2500      0.0000    281.0705     77.8754      0.0432    128.9144
  1932.5000      0.0000    281.0679     77.7736      0.0435    132.8535
  1932.7500      0.0000    281.0681     77.6914      0.0437    138.7472
  1933.0000      0.0000    281.0724     77.6375      0.0439    142.9723
  1933.2500      0.0000    281.0807     77.6282      0.0439    143.2436
  1933.5000      0.0000    281.0909     77.7016      0.0437    139.4413
  1933.7500      0.0000    281.0997     77.8861      0.0432    133.5047
  1934.0000      0.0000    281.1049     78.1491      0.0425    128.6813
  1934.2500      0.0000    281.1062     78.3944      0.0418    127.6366
  1934.5000      0.0000    281.1058     78.5242      0.0414    130.1559
  1934.7500      0.0000    281.1060     78.5045      0.0415    132.8633
  1935.0000      0.0000    281.1081     78.3778      0.0418    131.9231
  1935.2500      0.0000    281.1120     78.2250      0.0422    126.3510
  1935.5000      0.0000    281.1161     78.1129      0.0426    118.7582
  1935.7500      0.0000    281.1188     78.0620      0.0427    112.9408
  1936.0000      0.0000    281.1181     78.0466      0.0427    110.8651
  1936.2500      0.0000    281.1123     78.0227      0.0428    112.0182
  1936.5000      0.0000    281.1015     77.9629      0.0430    115.1733
  1936.7500      0.0000    281.0884     77.8793      0.0432    119.9576
  1937.0000      0.0000    281.0773     77.8095      0.0434    126.5998
  1937.2500      0.0000    281.0707     77.7744      0.0435    134.7567
  1937.5000      0.0000    281.0680     77.7503      0.0436    143.0954
  1937.7500      0.0000    281.0676     77.6933      0.0437    150.1696
  1938.0000      0.0000    281.0689     77.5849      0.0440    155.5572
  1938.2500      0.0000    281.0719     77.4474      0.0444    159.8130
  1938.5000      0.0000    281.0766     77.3208      0.0448    163.3100
  1938.7500      0.0000    281.0819     77.2337      0.0450    165.6584
  1939.0000      0.0000    281.0860     77.1871      0.0452    166.4867
  1939.2500      0.0000    281.0866     77.1552      0.0453    166.2667
  1939.5000      0.0000    281.0828     77.1060      0.0454    166.0568
  1939.7500      0.0000    281.0763     77.0300      0.0456    166.6851
  1940.0000      0.0000    281.0705     76.9415      0.0459    168.1393
  1940.2500      0.0000    281.0666     76.8515      0.0461    169.4522
  1940.5000      0.0000    281.0636     76.7553      0.0464    169.2668
  1940.7500      0.0000    281.0604     76.6481      0.0467    166.7992
  1941.0000      0.0000    281.0588     76.5385      0.0470    162.3432
  1941.2500      0.0000    281.0616     76.4449      0.0473    156.8438
  1941.5000      0.0000    281.0699     76.3868      0.0475    151.0499
  1941.7500      0.0000    281.0826     76.3773      0.0475    145.1392
  1942.0000      0.0000    281.0971     76.4135      0.0474    138.9764
  1942.2500      0.0000    281.1110     76.4766      0.0472    132.2451
  1942.5000      0.0000    281.1231     76.5478      0.0470    124.3007
  1942.7500      0.0000    281.1332     76.6196      0.0468    114.3667
  1943.0000      0.0000    281.1411     76.6925      0.0466    102.0435
  1943.2500      0.0000    281.1459     76.7659      0.0464     87.6900
  1943.5000      0.0000    281.1471     76.8347      0.0462     72.6999
  1943.7500      0.0000    281.1454     76.8897      0.0460     59.3933
  1944.0000      0.0000    281.1428     76.9206      0.0459     49.9485
  1944.2500      0.0000    281.1412     76.9241      0.0459     44.9791
  1944.5000      0.0000    281.1411     76.9100      0.0460     43.2333
  1944.7500      0.0000    281.1416     76.8988      0.0460     42.7647
  1945.0000      0.0000    281.1415     76.9114      0.0460     42.3416
  1945.2500      0.0000    281.1411     76.9604      0.0458     41.9922
  1945.5000      0.0000    281.1413     77.0467      0.0456     42.7011
  1945.7500      0.0000    281.1431     77.1597      0.0453     45.6611
  1946.0000      0.0000    281.1464     77.2801      0.0449     51.5812
  1946.2500      0.0000    281.1505     77.3864      0.0446     60.5943
  1946.5000      0.0000    281.1549     77.4645      0.0444     72.7573
  1946.7500      0.0000    281.1587     77.5100      0.0443     88.0989
  1947.0000      0.0000    281.1608     77.5212      0.0442    105.7469
  1947.2500      0.0000    281.1613     77.5004      0.0443    123.3202
  1947.5000      0.0000    281.1617     77.4685      0.0444    137.8470
  1947.7500      0.0000    281.1635     77.4666      0.0444    147.4280
  1948.0000      0.0000    281.1658     77.5265      0.0442    151.8328
  1948.2500      0.0000    281.1671     77.6384      0.0439    151.8526
  1948.5000      0.0000    281.1662     77.7533      0.0436    148.6233
  1948.7500      0.0000    281.1628     77.8129      0.0434    143.4238
