~Version Information
VERS.                      2.0: CWLS Log ASCII Standard - VERSION 2.0
WRAP.                       NO: One line per depth step
~Well Information Block
STRT.FT                -6.7500: 
STOP.FT              2027.0000: 
STEP.FT                 0.2500: 
NULL.                -999.2500: 
COMP.          Pioneer Natural Resources: COMPANY
WELL.             Fleming 11-2: WELL
FLD.           Purgatorie River: FIELD
LOC.           534' FNL & 160' FWL--: LOCATION
CNTY.               Las Animas: COUNTY
SRVC.          Patterson Wireline: SERVICE COMPANY
DATE.          Thu Jul 13 10:28:00 2006: LOG DATE
UWI.           05 071 08491 00: UNIQUE WELL ID
STAT.                       CO: STATE
~Curve Information Block
DEPT.FT            0 000 00 00: Depth
CCL.                          : Casing Collar Locator
TT3.usec                      : CBL 3' Travel Time
AMP3.mV                       : CBL 3' Amplitude
GR.GAPI                       : Gamma Ray
~Parameter Information Block
~A  Depth       CCL         TT3         AMP3         GR     
# ...
   127.2500      0.0000    790.2422      5.5095     88.6765
   127.5000      0.0000    786.2823      5.7239     87.5940
   127.7500      0.0000    786.4872      5.7411     85.5058
   128.0000      0.0000    792.8779      5.5806     83.7162
   128.2500      0.0000    803.8408      5.3416     83.1952
   128.5000      0.0000    816.1512      5.1168     83.8795
   128.7500      0.0000    827.5383      4.9473     85.1295
   129.0000      0.0000    836.4686      4.8364     87.0559
   129.2500      0.0000    840.0510      4.7743     90.8958
   129.5000      0.0000    834.9948      4.7483     97.5733
   129.7500      0.0000    821.8232      4.7433    106.0461
   130.0000      0.0000    805.9097      4.7436    113.5536
   130.2500      0.0000    792.9498      4.7361    117.7425
   130.5000      0.0000    784.6883      4.7144    118.4172
   130.7500      0.0000    779.8417      4.6817    117.0609
   131.0000      0.0000    777.6599      4.6511    115.0073
   131.2500      0.0000    778.7157      4.6385    112.6424
   131.5000      0.0000    782.5927      4.6548    110.2545
   131.7500      0.0000    786.8090      4.6986    108.7744
   132.0000      0.0000    788.9979      4.7540    109.1343
   132.2500      0.0000    789.2765      4.7974    111.2665
   132.5000      0.0000    790.4253      4.8123    114.3465
   132.7500      0.0000    796.7233      4.7983    117.8764
   133.0000      0.0000    811.8903      4.7679    121.7790
   133.2500      0.0000    835.2233      4.7352    125.3684
   133.5000      0.0000    858.5195      4.7082    127.0266
   133.7500      0.0000    869.2961      4.6911    125.3642
   134.0000      0.0000    860.0457      4.6884    120.4785
   134.2500      0.0000    834.7697      4.7033    114.0240
   134.5000      0.0000    805.8530      4.7339    108.3182
   134.7500      0.0000    785.2213      4.7713    105.2209
   135.0000      0.0000    779.2397      4.8058    105.0787
   135.2500      0.0000    789.3776      4.8339    106.2118
   135.5000      0.0000    812.7559      4.8589    105.8202
   135.7500      0.0000    840.7156      4.8864    102.0267
   136.0000      0.0000    860.9237      4.9177     95.2863
   136.2500      0.0000    864.4045      4.9503     87.9869
   136.5000      0.0000    850.9432      4.9819     82.8994
   136.7500      0.0000    827.8958      5.0137     81.7605
   137.0000      0.0000    804.3501      5.0481     84.6556
   137.2500      0.0000    785.4145      5.0848     90.2175
   137.5000      0.0000    770.9086      5.1177     96.2571
   137.7500      0.0000    759.0273      5.1356    100.5398
   138.0000      0.0000    750.7978      5.1291    101.6930
   138.2500      0.0000    750.1023      5.0968    100.0320
   138.5000      0.0000    758.7021      5.0476     97.5362
   138.7500      0.0000    771.5357      4.9956     96.4792
   139.0000      0.0000    778.7750      4.9531     97.5053
   139.2500      0.0000    774.1835      4.9253     98.9725
   139.5000      0.0000    760.7921      4.9102     98.4168
   139.7500      0.0000    747.1555      4.9024     94.7129
   140.0000      0.0000    739.2908      4.8972     88.8344
   140.2500      0.0000    737.3454      4.8912     82.8927
   140.5000      0.0000    738.2515      4.8812     78.7299
   140.7500      0.0000    739.2737      4.8625     77.1661
   141.0000      0.0000    739.0923      4.8316     78.0647
   141.2500      0.0000    737.2339      4.7916     80.7756
   141.5000      0.0000    733.6949      4.7559     84.5021
   141.7500      0.0000    729.1777      4.7430     88.5308
   142.0000      0.0000    725.2148      4.7640     92.2278
   142.2500      0.0000    723.4985      4.8123     94.7037
   142.5000      0.0000    724.8773      4.8659     94.8532
   142.7500      0.0000    728.8477      4.9026     92.5050
   143.0000      0.0000    734.0817      4.9127     89.4443
   143.2500      0.0000    739.7215      4.9021     88.2531
   143.5000      0.0000    746.5178      4.8838     89.7374
   143.7500      0.0000    756.5104      4.8696     92.2347
   144.0000      0.0000    770.6577      4.8696     93.8025
   144.2500      0.0000    786.0174      4.8961     94.4798
   144.5000      0.0000    795.9819      4.9617     95.9116
   144.7500      0.0000    794.7983      5.0666     99.0790
   145.0000      0.0000    782.3301      5.1874    103.1127
   145.2500      0.0000    764.9802      5.2816    106.4635
   145.5000      0.0000    753.0869      5.3113    108.4475
   145.7500      0.0000    756.2242      5.2662    109.1430
   146.0000      0.0000    776.8242      5.1702    108.4571
   146.2500      0.0000    806.1447      5.0679    106.1950
   146.5000      0.0000    828.5460      5.0024    102.8552
   146.7500      0.0000    832.6422      4.9963     99.5257
   147.0000      0.0000    819.1209      5.0466     96.7730
   147.2500      0.0000    797.7885      5.1315     94.0193
   147.5000      0.0000    778.2522      5.2235     90.2702
   147.7500      0.0000    764.2103      5.3002     85.4990
   148.0000      0.0000    754.8398      5.3491     81.2599
   148.2500      0.0000    748.6451      5.3682     79.5946
   148.5000      0.0000    745.1395      5.3661     80.8613
   148.7500      0.0000    744.4754      5.3609     82.7798
   149.0000      0.0000    746.8575      5.3730     82.3211
   149.2500      0.0000    752.2390      5.4152     78.7171
   149.5000      0.0000    759.9067      5.4829     74.1410
   149.7500      0.0000    768.3123      5.5563     71.3930
   150.0000      0.0000    775.4123      5.6116     71.4237
   150.2500      0.0000    779.4263      5.6351     73.1513
   150.5000      0.0000    779.8401      5.6269     74.9846
   150.7500      0.0000    777.9324      5.5955     76.1121
   151.0000      0.0000    775.5707      5.5499     76.5924
   151.2500      0.0000    773.2015      5.4962     76.5368
   151.5000      0.0000    769.7587      5.4368     75.4581
   151.7500      0.0000    764.4249      5.3727     72.7026
   152.0000      0.0000    757.5603      5.3069     68.5112
   152.2500      0.0000    750.2996      5.2469     64.2728
   152.5000      0.0000    744.2646      5.2017     61.5275
   152.7500      0.0000    741.4022      5.1760     60.8495
   153.0000      0.0000    742.9587      5.1678     61.7385
   153.2500      0.0000    748.1702      5.1703     63.2234
   153.5000      0.0000    754.3565      5.1768     64.4182
   153.7500      0.0000    758.7796      5.1848     64.9765
   154.0000      0.0000    760.4738      5.1958     65.3663
   154.2500      0.0000    760.3912      5.2143     66.4490
   154.5000      0.0000    760.0093      5.2443     68.6408
   154.7500      0.0000    759.7121      5.2848     71.7717
   155.0000      0.0000    758.2885      5.3292     75.6947
   155.2500      0.0000    754.0793      5.3714     80.5941
   155.5000      0.0000    746.9403      5.4102     86.5391
   155.7500      0.0000    739.2299      5.4462     92.8035
   156.0000      0.0000    734.4632      5.4757     97.7936
   156.2500      0.0000    734.4405      5.4911    100.0413
   156.5000      0.0000    737.7098      5.4859     99.5940
   156.7500      0.0000    741.1592      5.4598     98.1828
   157.0000      0.0000    742.7215      5.4218     97.7124
   157.2500      0.0000    742.0595      5.3860     98.7692
   157.5000      0.0000    739.6481      5.3611    100.7659
   157.7500      0.0000    736.3298      5.3418    103.0152
   158.0000      0.0000    732.9105      5.3163    105.1599
   158.2500      0.0000    729.0363      5.2839    106.8110
   158.5000      0.0000    723.2836      5.2621    107.2877
   158.7500      0.0000    715.4078      5.2743    106.0365
   159.0000      0.0000    707.9692      5.3290    103.4303
   159.2500      0.0000    704.8265      5.4103    100.9974
   159.5000      0.0000    707.9413      5.4887    100.3742
   159.7500      0.0000    715.4447      5.5448    101.6963
   160.0000      0.0000    722.5445      5.5814    103.1675
   160.2500      0.0000    724.9860      5.6141    102.5090
   160.5000      0.0000    722.5964      5.6532     99.0225
