~Version Information
 VERS.                                  2.0 : CWLS LAS VERSION
 WRAP.                                   NO : WRAPING MODE
 SWARE .                 MController 2.5.0N : SOFTWARE VERSION
~Well Information
 WELL.                    Hanginstone 21-27 : WELL
 COMP.   Pioneer Natural Resources USA, Inc : COMPANY
 FLD.                      Purgatoire River : FIELD
 LOC.                NE/NW Sec 27 T32S R67W : LOCATION
 DATE.                         1/05-07/2006 : DATE(S) LOGGED
 SRVC.       BLANCO Geological Services LLC : SERVICE COMPANY
 STAT.                                   CO : STATE
 CNTY.                           Las Animas : COUNTY
 CTRY.                                  USA : COUNTRY
 API.                       05-071-08632-00 : API NUMBER
 STRT.FT                             907.00 : START DEPTH
 STOP.FT                            2970.00 : STOP DEPTH
 STEP.FT                               1.00 : DEPTH INCREMENT
 NULL.                                -9999 : NULL VALUE
~Curve information
 DEPTH.FT                                   :
 ROP.MIN/FT                                 :
 GAS.UNITS                                  :
~ASCII Log data
# ...
      1707.0         0.27         22.2 
      1708.0         0.10         23.5 
      1709.0         0.17         25.2 
      1710.0         0.33         26.2 
      1711.0         0.35         28.0 
      1712.0         0.27         29.1 
      1713.0         0.17         29.4 
      1714.0         0.17         29.7 
      1715.0         0.30         29.7 
      1716.0         0.30         30.4 
      1717.0         0.30         30.6 
      1718.0         0.33         35.9 
      1719.0         0.27         37.0 
      1720.0         0.10         40.2 
      1721.0         8.05         48.9 
      1722.0         0.23          5.7 
      1723.0         0.30          5.7 
      1724.0         0.33          6.1 
      1725.0         0.33         10.1 
      1726.0         0.50         18.7 
      1727.0         0.23         29.7 
      1728.0         0.23         45.0 
      1729.0         0.57         80.5 
      1730.0         0.75        364.1 
      1731.0         0.83        165.5 
      1732.0         0.30         21.4 
      1733.0         0.20         12.8 
      1734.0         0.17          8.6 
      1735.0         0.23          8.2 
      1736.0         0.27          8.0 
      1737.0         0.23          5.3 
      1738.0         0.43          5.2 
      1739.0         0.32          4.4 
      1740.0         0.27          3.9 
      1741.0         0.33          3.7 
      1742.0         0.30          3.3 
      1743.0         0.17          3.1 
      1744.0         0.23          3.1 
      1745.0         0.13          3.2 
      1746.0         0.23          3.2 
      1747.0         0.20          3.1 
      1748.0         0.27          3.3 
      1749.0         0.07          2.9 
      1750.0         0.13          3.4 
      1751.0        10.82         80.2 
      1752.0         1.35         46.5 
      1753.0         0.17          4.0 
      1754.0         0.17          3.8 
      1755.0         0.10          4.1 
      1756.0         0.17          4.3 
      1757.0         0.17          5.2 
      1758.0         0.13          5.8 
      1759.0         0.20          6.9 
      1760.0         0.20          7.7 
      1761.0         0.20          8.4 
      1762.0         0.17          8.2 
      1763.0         0.13          8.5 
      1764.0         0.23          8.9 
      1765.0         0.15          8.8 
      1766.0         0.30          9.1 
      1767.0         0.30          8.7 
      1768.0         0.30          8.2 
      1769.0         0.27          8.8 
      1770.0         0.20         10.0 
      1771.0         0.30         14.6 
      1772.0         0.23         14.6 
      1773.0         0.27         15.1 
      1774.0         0.30         15.0 
      1775.0         0.33         14.4 
      1776.0         0.30         15.3 
      1777.0         0.35         16.4 
      1778.0         0.37         17.6 
      1779.0         0.17         16.2 
      1780.0         0.10         14.3 
      1781.0         5.72         38.3 
      1782.0         0.58         78.6 
      1783.0         0.23         93.0 
      1784.0         0.10        102.3 
      1785.0         0.13        110.6 
      1786.0         0.10        114.5 
      1787.0         0.13        122.0 
      1788.0         1.03        153.1 
      1789.0         0.10        153.8 
      1790.0         0.63        442.7 
      1791.0         0.68        382.3 
      1792.0         0.77         48.1 
      1793.0         0.60         13.4 
      1794.0         1.07          3.7 
      1795.0         0.13          3.0 
      1796.0         0.17          3.3 
      1797.0         0.10          3.6 
      1798.0         0.22          4.1 
      1799.0         0.20          4.5 
      1800.0         0.20          5.4 
      1801.0         0.30          7.0 
      1802.0         0.30          7.7 
      1803.0         0.33          9.5 
      1804.0         0.30         10.3 
      1805.0         0.30         11.2 
      1806.0         0.27         12.2 
      1807.0         0.57         21.5 
      1808.0         0.58         40.5 
      1809.0         0.60         49.2 
      1810.0         0.60         68.6 
      1811.0         9.52       6244.9 
      1812.0         1.43       3299.2 
      1813.0         0.13       2875.4 
      1814.0         0.07       2843.7 
      1815.0         0.47       2822.2 
      1816.0         0.20       2666.5 
      1817.0         0.23       2589.3 
      1818.0         0.28       2499.1 
      1819.0         0.37       2271.0 
      1820.0         0.37       2272.0 
      1821.0         0.30       2279.4 
      1822.0         0.13       2282.4 
      1823.0         0.20       2291.9 
      1824.0         0.17       2075.9 
      1825.0         0.13       2168.2 
      1826.0         0.13       2259.2 
      1827.0         0.13       2314.1 
      1828.0         0.13       2362.6 
      1829.0         0.13       2390.9 
      1830.0         0.13       2427.3 
      1831.0         0.10       2447.5 
      1832.0         7.75       2959.6 
      1833.0         0.43         38.7 
      1834.0         1.83         23.9 
      1835.0         0.17          7.2 
      1836.0         0.20          6.7 
      1837.0         0.27          6.5 
      1838.0         0.18          6.8 
      1839.0         0.13          6.6 
      1840.0         0.13          6.8 
      1841.0        11.48         50.8 
      1842.0         0.10         48.7 
      1843.0         0.13         49.8 
      1844.0         0.10         52.0 
      1845.0         0.13         54.3 
      1846.0         0.43         57.0 
      1847.0         0.75        151.0 
      1848.0         3.20        153.4 
      1849.0         0.42          4.9 
      1850.0         0.33          4.7 
      1851.0         0.33          5.9 
      1852.0         0.40          8.5 
      1853.0         0.40         11.3 
      1854.0         0.40         13.9 
      1855.0         0.60         25.3 
      1856.0         0.75         35.7 
      1857.0         1.10         38.2 
      1858.0         0.20         34.3 
      1859.0         0.20         35.1 
      1860.0         0.27         36.6 
      1861.0         0.27         39.8 
      1862.0         0.37         42.2 
      1863.0         0.40         45.0 
      1864.0         0.65         49.5 
      1865.0         0.67         50.4 
      1866.0         0.57         58.9 
      1867.0         0.43         70.1 
      1868.0         0.30         81.4 
      1869.0         0.10         86.0 
      1870.0         0.13         91.1 
      1871.0        10.97       3276.0 
      1872.0         0.07       2689.7 
      1873.0         2.93       2641.6 
      1874.0         0.12       1781.8 
      1875.0         0.07       1779.4 
      1876.0         0.57       1807.0 
      1877.0         0.43       1902.7 
      1878.0         0.33       2017.3 
      1879.0         0.33       2155.4 
      1880.0         0.37       2318.5 
      1881.0         0.37       2517.2 
      1882.0         0.33       2653.7 
      1883.0         0.43       3156.0 
      1884.0         0.38       3338.0 
      1885.0         0.43       3962.9 
      1886.0         0.27       4273.6 
      1887.0         0.17       3963.6 
      1888.0         0.47       3549.6 
      1889.0         0.27       2755.8 
      1890.0         0.07       1655.8 
      1891.0         9.92       1527.4 
      1892.0        10.05       2589.0 
      1893.0         2.62         32.8 
      1894.0         0.60         11.8 
      1895.0         0.63         13.5 
      1896.0         0.47         14.7 
      1897.0         0.58         23.7 
      1898.0         0.53         40.8 
      1899.0         0.33         48.2 
      1900.0         0.30         50.5 
      1901.0         0.20         53.2 
      1902.0         0.40         54.9 
      1903.0         0.60         64.0 
      1904.0         0.53         74.5 
      1905.0         0.52        164.2 
      1906.0         0.53        197.6 
