~Version Information
VERS.                      2.0: CWLS Log ASCII Standard - VERSION 2.0
WRAP.                       NO: One line per depth step
~Well Information Block
STRT.FT                 0.0000: 
STOP.FT              2473.5000: 
STEP.FT                 0.2500: 
NULL.                -999.2500: 
COMP.          Petrogulf Corporation: COMPANY
WELL.          Montoya 18-11V-B: WELL
FLD.           Purgatorie River: FIELD
LOC.           848' FNL & 619' FWL: LOCATION
PROV.                 Colorado: PROVINCE
CNTY.               Las Animas: COUNTRY
SRVC.                Patterson: SERVICE COMPANY
DATE.          Wed Nov 09 10:15:13 2005: LOG DATE
UWI.                          : UNIQUE WELL ID
~Curve Information Block
DEPT.FT            0 000 00 00: Depth
CCL.                          : Casing Collar Locator
TT3.usec                      : CBL 3' Travel Time
AMP3.mV                       : CBL 3' Amplitude
GR.GAPI                       : Gamma Ray
~Parameter Information Block
~A  Depth       CCL         TT3         AMP3         GR     
# ...
  1306.5000      0.0000    678.7455      3.2094    140.3809
  1306.7500      0.0000    668.3160      3.0790    134.9439
  1307.0000      0.0000    658.7819      3.0197    130.9841
  1307.2500      0.0000    656.5286      3.0266    128.3427
  1307.5000      0.0000    660.4222      3.0569    126.6609
  1307.7500      0.0000    664.1252      3.0904    125.6430
  1308.0000      0.0000    667.1735      3.1141    124.7828
  1308.2500      0.0000    672.8472      3.0928    123.3409
  1308.5000      0.0000    677.5026      3.0219    121.1105
  1308.7500      0.0000    673.4148      3.0069    118.8485
  1309.0000      0.0000    661.9838      3.1493    117.3716
  1309.2500      0.0000    655.3718      3.3470    116.5098
  1309.5000      0.0000    662.1673      3.4435    115.3834
  1309.7500      0.0000    679.8762      3.4859    113.2778
  1310.0000      0.0000    705.9713      3.5974    109.8421
  1310.2500      0.0000    744.8279      3.7883    105.0461
  1310.5000      2.0000    791.1898      4.0257     99.6325
  1310.7500     -2.0000    819.2044      4.3501     95.2003
  1311.0000      0.0000    812.0962      4.8586     93.0339
  1311.2500      0.0000    787.7205      5.6128     92.9452
  1311.5000      0.0000    770.4411      6.5834     93.6737
  1311.7500      0.0000    761.0330      7.5410     94.1550
  1312.0000      0.0000    748.7982      8.0630     94.0735
  1312.2500      0.0000    734.6768      8.0712     93.6835
  1312.5000      0.0000    728.2438      8.0267     93.6213
  1312.7500      0.0000    730.1237      8.2094     94.6727
  1313.0000      0.0000    732.5950      8.4606     97.2517
  1313.2500      0.0000    731.8948      8.6144    101.0219
  1313.5000      0.0000    732.2538      8.6301    105.0768
  1313.7500      0.0000    740.7174      8.4647    108.5060
  1314.0000      0.0000    757.4664      8.0887    111.0352
  1314.2500      0.0000    773.9370      7.5788    113.2222
  1314.5000      0.0000    782.4872      7.1080    115.7298
  1314.7500      0.0000    780.7602      6.8769    118.4234
  1315.0000      0.0000    770.8170      7.0479    120.6889
  1315.2500      0.0000    762.1603      7.6462    122.6008
  1315.5000      0.0000    764.2672      8.5225    125.0386
  1315.7500      0.0000    773.7706      9.5060    128.3184
  1316.0000      0.0000    781.4497     10.5593    131.0447
  1316.2500      0.0000    784.6077     11.7043    130.6812
  1316.5000      0.0000    785.4896     12.8890    125.4276
  1316.7500      0.0000    785.9918     13.9980    115.7427
  1317.0000      0.0000    786.7015     14.9362    104.1782
  1317.2500      0.0000    787.6057     15.7023     93.6903
  1317.5000      0.0000    788.5076     16.4167     85.9327
  1317.7500      0.0000    789.1805     17.2463     80.8637
  1318.0000      0.0000    789.5724     18.2545     77.5773
  1318.2500      0.0000    789.9775     19.3318     75.4624
  1318.5000      0.0000    790.8749     20.2984     74.8866
  1318.7500      0.0000    792.8520     21.0436     76.7755
  1319.0000      0.0000    796.9401     21.5375     81.3025
  1319.2500      0.0000    802.8089     21.7966     87.1775
  1319.5000      0.0000    803.9868     21.9015     92.5154
  1319.7500      0.0000    787.8298     21.9788     96.2212
  1320.0000      0.0000    744.2228     22.0879     98.4740
  1320.2500      0.0000    672.0497     22.1825    100.3081
  1320.5000      0.0000    579.6866     22.1901    102.8364
  1320.7500      0.0000    487.8049     22.0177    106.4181
  1321.0000      0.0000    421.9125     21.5760    110.3569
  1321.2500      0.0000    391.3981     20.9424    113.5559
  1321.5000      0.0000    388.9089     20.3470    115.5858
  1321.7500      0.0000    407.4904     19.8771    117.1656
  1322.0000      0.0000    438.6963     19.3273    119.4279
  1322.2500      0.0000    465.2584     18.4291    122.4815
  1322.5000      0.0000    484.2601     17.1494    124.9536
  1322.7500      0.0000    514.3006     15.7087    125.3973
  1323.0000      0.0000    551.7943     14.3598    123.9420
  1323.2500      0.0000    571.5687     13.1883    122.0821
  1323.5000      0.0000    581.0466     12.1148    120.9914
  1323.7500      0.0000    608.3375     11.0444    120.4572
  1324.0000      0.0000    651.1623      9.9657    119.4436
  1324.2500      0.0000    686.2099      8.9431    117.4812
  1324.5000      0.0000    703.2502      8.0873    115.4580
  1324.7500      0.0000    707.1336      7.4753    114.9613
  1325.0000      0.0000    702.8302      7.0806    116.7512
  1325.2500      0.0000    695.3400      6.8146    119.8761
  1325.5000      0.0000    698.4780      6.5958    122.2009
  1325.7500      0.0000    721.9590      6.3767    121.7699
  1326.0000      0.0000    752.4109      6.1563    118.0272
  1326.2500      0.0000    766.2613      5.9949    112.1709
  1326.5000      0.0000    758.8596      6.0069    106.3507
  1326.7500      0.0000    747.9436      6.2799    102.3656
  1327.0000      0.0000    750.0356      6.8058    100.8981
  1327.2500      0.0000    762.0505      7.5306    101.5840
  1327.5000      0.0000    775.3755      8.3943    103.4976
  1327.7500      0.0000    799.4203      9.2953    105.7120
  1328.0000      0.0000    844.4486     10.1178    107.7291
  1328.2500      0.0000    886.8065     10.8307    109.4880
  1328.5000      0.0000    887.5237     11.5209    111.0020
  1328.7500      0.0000    846.3116     12.2986    112.2484
  1329.0000      0.0000    802.3184     13.1813    113.5109
  1329.2500      0.0000    782.1645     14.0851    115.3999
  1329.5000      0.0000    779.8326     14.8831    118.1490
  1329.7500      0.0000    782.4025     15.4389    120.9753
  1330.0000      0.0000    785.9307     15.6565    122.4492
  1330.2500      0.0000    789.0325     15.5463    121.8551
  1330.5000      0.0000    789.2659     15.2149    120.4802
  1330.7500      0.0000    786.5804     14.7921    121.3281
  1331.0000      0.0000    784.4211     14.3682    126.9597
  1331.2500      0.0000    785.5088     13.9718    137.3872
  1331.5000      0.0000    788.4423     13.5977    149.9739
  1331.7500      0.0000    790.6202     13.2541    160.9213
  1332.0000      0.0000    791.5192     12.9658    166.8517
  1332.2500      0.0000    791.7449     12.7591    166.1570
  1332.5000      0.0000    791.6458     12.6790    159.9089
  1332.7500      0.0000    791.3928     12.7589    151.2496
  1333.0000      0.0000    791.1167     12.9395    143.3785
  1333.2500      0.0000    790.4724     13.0942    138.0869
  1333.5000      0.0000    787.6762     13.1495    135.7288
  1333.7500      0.0000    779.1064     13.1324    135.6075
  1334.0000      0.0000    762.3505     13.1035    136.1573
  1334.2500      0.0000    741.1017     13.0830    135.3078
  1334.5000      0.0000    722.6977     13.0447    131.1830
  1334.7500      0.0000    709.7639     12.9528    123.0064
  1335.0000      0.0000    700.9526     12.8034    111.9368
  1335.2500      0.0000    698.9014     12.6510    100.9344
  1335.5000      0.0000    707.2233     12.5691     93.0516
  1335.7500      0.0000    720.4906     12.5735     89.3301
  1336.0000      0.0000    729.7622     12.6168     88.3874
  1336.2500      0.0000    733.0495     12.6428     88.2491
  1336.5000      0.0000    730.0770     12.6409     88.6020
  1336.7500      0.0000    721.5509     12.6701     91.0930
  1337.0000      0.0000    716.3663     12.7922     97.4805
  1337.2500      0.0000    720.9663     12.9776    107.8212
  1337.5000      0.0000    727.1748     13.1241    120.5300
  1337.7500      0.0000    724.5921     13.1481    133.5831
  1338.0000      0.0000    714.3691     13.0099    145.2216
  1338.2500      0.0000    704.5806     12.6973    154.0075
  1338.5000      0.0000    704.3572     12.2713    158.8791
  1338.7500      0.0000    719.1498     11.8809    159.4494
  1339.0000      0.0000    741.2381     11.6557    156.4399
  1339.2500      0.0000    755.0958     11.6019    151.8657
  1339.5000      0.0000    755.2019     11.6204    148.3158
  1339.7500      0.0000    745.5355     11.6000    147.3542
