~Version Information
VERS.                      2.0: CWLS Log ASCII Standard - VERSION 2.0
WRAP.                       NO: One line per depth step
~Well Information Block
STRT.FT                -3.2500: 
STOP.FT               989.2500: 
STEP.FT                 0.2500: 
NULL.                -999.2500: 
COMP.          Pioneer Natural Resources: COMPANY
WELL.                Doc 34-30: WELL
FLD.           Purgatoire River: FIELD
LOC.           454' FSL & 1386' FEL: LOCATION
CNTY.               Las Animas: COUNTY
SRVC.                         : SERVICE COMPANY
DATE.          Wed Mar 08 14:28:55 2006: LOG DATE
UWI.           05 071 08694 00: UNIQUE WELL ID
STAT.                       CO: STATE
~Curve Information Block
DEPT.FT            0 000 00 00: Depth
GR.GAPI                       : Gamma Ray
CCL.                          : Casing Collar Locator
TT3.usec                      : CBL 3' Travel Time
AMP3.mV                       : CBL 3' Amplitude
~Parameter Information Block
~A  Depth        GR         CCL         TT3         AMP3    
# ...
   901.2500     82.1909      0.0000    587.0475      5.5182
   901.5000     81.2922      0.0000    592.2739      5.5918
   901.7500     80.6685      0.0000    601.7119      5.6473
   902.0000     79.9306      0.0000    615.2660      5.6830
   902.2500     78.8565      0.0000    630.6949      5.7033
   902.5000     77.8606      0.0000    644.5027      5.7166
   902.7500     77.4995      0.0000    654.2039      5.7349
   903.0000     77.9283      0.0000    659.6392      5.7707
   903.2500     79.2256      0.0000    662.3522      5.8287
   903.5000     81.6332      0.0000    664.2505      5.8971
   903.7500     84.8360      0.0000    666.7672      5.9550
   904.0000     87.3819      0.0000    670.5089      5.9909
   904.2500     87.6412      0.0000    675.0776      6.0089
   904.5000     85.4764      0.0000    679.3237      6.0176
   904.7500     82.3769      0.0000    682.2581      6.0174
   905.0000     79.8149      0.0000    684.0153      6.0043
   905.2500     77.9996      0.0000    685.8938      5.9843
   905.5000     76.2501      0.0000    689.2109      5.9825
   905.7500     73.9070      0.0000    693.8057      6.0333
   906.0000     70.6948      0.0000    697.5895      6.1548
   906.2500     66.7255      0.0000    697.3988      6.3299
   906.5000     62.4827      0.0000    690.5222      6.5115
   906.7500     58.6847      0.0000    676.6066      6.6481
   907.0000     55.9450      0.0000    658.7794      6.7074
   907.2500     54.3688      0.0000    641.2949      6.6823
   907.5000     53.3772      0.0000    624.2561      6.5854
   907.7500     52.0764      0.0000    601.7651      6.4434
   908.0000     49.9826      0.0000    567.4488      6.2950
   908.2500     47.4365      0.0000    521.9377      6.1825
   908.5000     45.3939      0.0000    474.2674      6.1341
   908.7500     44.8705      0.0000    435.9821      6.1475
   909.0000     46.3147      0.0000    413.6213      6.1959
   909.2500     49.2019      0.0000    405.8689      6.2550
   909.5000     52.3939      0.0000    406.4468      6.3209
   909.7500     55.1500      0.0000    408.9154      6.3971
   910.0000     57.6826      0.0000    409.7208      6.4717
   910.2500     60.5177      0.0000    408.4389      6.5156
   910.5000     63.4770      0.0000    406.1465      6.5059
   910.7500     65.5381      0.0000    403.5305      6.4448
   911.0000     65.6576      0.0000    400.1142      6.3582
   911.2500     63.6442      0.0000    394.8592      6.2748
   911.5000     60.3729      0.0000    387.3728      6.2033
   911.7500     57.2127      0.0000    378.5924      6.1325
   912.0000     55.0759      0.0000    370.2367      6.0541
   912.2500     53.9308      0.0000    363.5972      5.9800
   912.5000     53.2214      0.0000    359.0079      5.9325
   912.7500     52.5531      0.0000    356.3889      5.9181
   913.0000     51.8038      0.0000    356.1806      5.9163
   913.2500     50.8969      0.0000    360.1931      5.8994
   913.5000     49.9235      0.0000    372.4093      5.8615
   913.7500     49.4902      0.0000    398.7255      5.8298
   914.0000     50.6308      0.0000    443.5737      5.8452
   914.2500     54.1944      0.0000    504.1917      5.9314
   914.5000     60.3190      0.0000    568.6796      6.0744
   914.7500     68.4241      0.0000    622.6375      6.2324
   915.0000     77.3744      0.0000    658.9481      6.3695
   915.2500     85.4620      0.0000    680.3812      6.4849
   915.5000     90.7607      0.0000    693.8918      6.6109
   915.7500     92.2351      0.0000    704.7218      6.7840
   916.0000     90.4184      0.0000    715.1898      7.0170
   916.2500     86.6101      0.0000    725.7754      7.2976
   916.5000     81.7228      0.0000    735.6897      7.6056
   916.7500     76.2994      0.0000    743.3272      7.9226
   917.0000     71.1907      0.0000    747.4041      8.2223
   917.2500     67.5660      0.0000    748.0188      8.4650
   917.5000     66.3494      0.0000    746.7122      8.6110
   917.7500     67.8628      0.0000    745.3226      8.6383
   918.0000     71.7044      0.0000    744.4484      8.5440
   918.2500     76.7090      0.0000    743.0165      8.3405
   918.5000     81.3387      0.0000    739.4599      8.0595
   918.7500     84.5690      0.0000    733.1215      7.7524
   919.0000     86.5023      0.0000    724.6937      7.4783
   919.2500     88.0522      0.0000    716.0151      7.2842
   919.5000     90.1030      0.0000    709.4109      7.1937
   919.7500     93.0068      0.0000    706.3234      7.1988
   920.0000     96.6597      0.0000    706.2783      7.2546
   920.2500    100.7434      0.0000    707.4237      7.2960
   920.5000    104.7936      0.0000    707.8287      7.2766
   920.7500    108.2300      0.0000    706.0521      7.1966
   921.0000    110.5206      0.0000    701.1874      7.0928
   921.2500    111.2878      0.0000    693.4160      7.0058
   921.5000    110.2053      0.0000    684.6044      6.9558
   921.7500    107.0010      0.0000    677.4351      6.9455
   922.0000    101.9246      0.0000    673.2960      6.9769
   922.2500     96.1805      0.0000    671.3340      7.0577
   922.5000     91.5670      0.0000    670.0536      7.1923
   922.7500     89.4870      0.0000    669.7055      7.3743
   923.0000     90.3395      0.0000    672.7898      7.5899
   923.2500     93.7151      0.0000    681.6910      7.8235
   923.5000     98.8176      0.0000    695.1535      8.0551
   923.7500    104.6673      0.0000    707.3381      8.2435
   924.0000    110.4451      0.0000    711.6063      8.3054
   924.2500    115.9435      0.0000    706.3361      8.1368
   924.5000    121.1552      0.0000    696.9744      7.7020
   924.7500    124.9973      0.0000    691.7799      7.1093
   925.0000    125.1023      0.0000    695.2385      6.5556
   925.2500    119.8553      0.0000    705.5283      6.1738
   925.5000    110.7133      0.0000    717.6309      5.9662
   925.7500    101.8014      2.0000    727.7993      5.8796
   926.0000     96.7347      1.4740    734.6036      5.8867
   926.2500     95.8240      0.0000    736.6185      5.9787
   926.5000     96.4049      0.0000    731.3279      6.1302
   926.7500     95.6563      0.0000    718.0789      6.3047
   927.0000     92.9905      0.0000    701.3204      6.4743
   927.2500     89.9617      0.0000    688.5399      6.6198
   927.5000     88.3071      0.0000    684.1946      6.7214
   927.7500     88.4735      0.0000    686.2626      6.7498
   928.0000     89.9880      0.0000    688.5392      6.6724
   928.2500     92.6040      0.0000    685.6224      6.4853
   928.5000     96.4216      0.0000    676.4053      6.2305
   928.7500    100.9654      0.0000    664.4196      5.9567
   929.0000    104.7212      0.0000    654.9792      5.6789
   929.2500    106.0554      0.0000    650.8989      5.4024
   929.5000    104.5318      0.0000    650.7175      5.1637
   929.7500    100.9840      0.0000    651.3723      4.9981
   930.0000     96.2884      0.0000    651.3405      4.8719
   930.2500     90.5314     -2.0000    649.8943      4.7115
   930.5000     83.6229      0.0000    644.9490      4.5538
   930.7500     76.2539      2.0000    634.4700      4.6324
   931.0000     69.7518      0.0000    619.5298      5.2308
   931.2500     65.1877     -1.8182    602.9584      6.4473
   931.5000     62.9133     -1.1447    584.0159      8.2157
   931.7500     62.6848      1.4279    556.7317     10.6466
   932.0000     63.8798      0.0000    515.7230     14.2608
   932.2500     65.8126      0.0000    462.9220     19.6999
   932.5000     68.1877      0.0000    407.1910     27.1047
   932.7500     71.1231      0.0000    357.9916     35.7550
   933.0000     74.4420      0.0000    320.2673     44.3149
   933.2500     77.1471      0.0000    294.1716     51.5441
   933.5000     77.9886      0.0000    277.5779     57.0006
   933.7500     76.6451      0.0000    268.0226     61.1508
   934.0000     74.0644      0.0000    263.2147     64.7471
   934.2500     71.4031      0.0000    261.1569     68.1117
   934.5000     68.8878      0.0000    260.3968     71.0171
