~Version Information
 VERS.                                  2.0 : CWLS LAS VERSION
 WRAP.                                   NO : WRAPING MODE
 SWARE .                 MController 2.5.0N : SOFTWARE VERSION
~Well Information
 WELL.                      Beinville 31-28 : WELL
 COMP.       Pioneer Natural Resources, USA : COMPANY
 FLD.                       Purgatory River : FIELD
 LOC.                 NW/NE Sec28 T33S R65W : LOCATION
 DATE.                              1/16/05 : DATE(S) LOGGED
 SRVC.      Blanco Geological Services, LLC : SERVICE COMPANY
 STAT.                             Colorado : STATE
 CNTY.                           Las Animas : COUNTY
 CTRY.                                  USA : COUNTRY
 API.                       05-071-08666-00 : API NUMBER
 STRT.FT                             185.00 : START DEPTH
 STOP.FT                             900.00 : STOP DEPTH
 STEP.FT                               1.00 : DEPTH INCREMENT
 NULL.                                -9999 : NULL VALUE
~Curve information
 DEPTH.FT                                   :
 ROP.MIN/FT                                 :
 GAS.UNITS                                  :
~ASCII Log data
# ...
       585.0         0.28         95.1 
       586.0         0.30         95.2 
       587.0         0.30         94.7 
       588.0         0.23         95.1 
       589.0         0.27         95.1 
       590.0         0.27         94.6 
       591.0         0.23         94.8 
       592.0         0.27         95.0 
       593.0         0.27         94.6 
       594.0         0.27         94.4 
       595.0         0.20         94.4 
       596.0         1.72        292.5 
       597.0         0.37        454.6 
       598.0         0.33        453.0 
       599.0         0.27        290.0 
       600.0         0.23        224.2 
       601.0         0.23        169.9 
       602.0         0.27        139.4 
       603.0         0.23        120.3 
       604.0         0.23        108.3 
       605.0         0.25        100.7 
       606.0         0.23         96.7 
       607.0         0.27         94.1 
       608.0         0.27         92.6 
       609.0         0.23         91.9 
       610.0         0.37         91.6 
       611.0         0.27         91.3 
       612.0         0.27         91.5 
       613.0         0.27         91.3 
       614.0         0.20         91.6 
       615.0         0.20         91.3 
       616.0         0.20         90.6 
       617.0         0.20         90.8 
       618.0         0.25         90.4 
       619.0         0.27         90.0 
       620.0         0.23         89.8 
       621.0         0.37         89.8 
       622.0         0.27         89.3 
       623.0         0.17         89.5 
       624.0         0.20         89.6 
       625.0         0.13         89.8 
       626.0         1.33        159.9 
       627.0         0.20        184.6 
       628.0         0.15        266.4 
       629.0         0.20        387.4 
       630.0         0.17        453.3 
       631.0         0.17        459.4 
       632.0         0.30        445.7 
       633.0         0.33        422.9 
       634.0         0.27        380.9 
       635.0         0.27        333.4 
       636.0         0.27        293.0 
       637.0         0.27        267.8 
       638.0         0.23        250.5 
       639.0         0.23        237.6 
       640.0         0.27        228.3 
       641.0         0.17        226.6 
       642.0         0.13        221.2 
       643.0         0.22        218.5 
       644.0         0.20        217.4 
       645.0         0.20        217.3 
       646.0         0.23        216.7 
       647.0         0.30        216.3 
       648.0         0.27        211.9 
       649.0         0.20        210.6 
       650.0         0.20        208.6 
       651.0         0.17        207.1 
       652.0         0.20        204.1 
       653.0         0.17        203.6 
       654.0         0.20        200.2 
       655.0         0.20        198.0 
       656.0         2.68       1883.4 
       657.0         0.30       2238.4 
       658.0         0.23       1412.1 
       659.0         0.17       1292.8 
       660.0         0.20        923.6 
       661.0         0.23        773.2 
       662.0         0.28        642.1 
       663.0         0.20        520.9 
       664.0         0.17        485.9 
       665.0         0.13        452.0 
       666.0         0.17        437.3 
       667.0         0.17        407.4 
       668.0         0.23        400.0 
       669.0         0.17        404.4 
       670.0         0.13        408.0 
       671.0         0.13        413.6 
       672.0         0.13        413.6 
       673.0         0.13        414.5 
       674.0         0.20        406.2 
       675.0         0.17        411.1 
       676.0         0.20        444.3 
       677.0         0.23        475.7 
       678.0         0.27        482.2 
       679.0         0.27        490.2 
       680.0         0.28        488.0 
       681.0         0.27        482.2 
       682.0         0.27        475.1 
       683.0         0.27        470.5 
       684.0         0.20        470.5 
       685.0         0.30        466.5 
       686.0         2.92       2372.5 
       687.0         0.30       2341.7 
       688.0         0.13       1363.2 
       689.0         0.17       1202.3 
       690.0         0.17        909.2 
       691.0         0.20        774.1 
       692.0         0.17        738.4 
       693.0         0.20        629.5 
       694.0         0.20        620.0 
       695.0         0.17        560.3 
       696.0         0.13        515.4 
       697.0         0.13        502.8 
       698.0         0.13        499.7 
       699.0         0.13        489.9 
       700.0         0.18        500.0 
       701.0         0.23        508.6 
       702.0         0.20        553.6 
       703.0         0.13        553.6 
       704.0         0.13        568.6 
       705.0         0.30        593.2 
       706.0         0.27        594.2 
       707.0         0.13        601.2 
       708.0         0.17        608.9 
       709.0         0.20        610.5 
       710.0         0.33        609.2 
       711.0         0.33        595.4 
       712.0         0.20        580.0 
       713.0         0.17        572.6 
       714.0         0.13        564.6 
       715.0         0.17        552.3 
       716.0         2.22       1787.4 
       717.0         0.33       2701.6 
       718.0         0.23       2301.1 
       719.0         0.20       1675.1 
       720.0         0.20       1609.9 
       721.0         0.17       1261.4 
       722.0         0.22        914.4 
       723.0         0.33        887.0 
       724.0         0.33        634.5 
       725.0         0.27        564.0 
       726.0         0.20        539.4 
       727.0         0.27        521.6 
       728.0         0.27        509.3 
       729.0         0.23        505.3 
       730.0         0.23        499.7 
       731.0         0.23        495.1 
       732.0         0.20        495.7 
       733.0         0.23        492.6 
       734.0         0.20        489.9 
       735.0         0.32        491.4 
       736.0         0.27        489.9 
       737.0         0.30        487.1 
       738.0         0.27        486.8 
       739.0         0.33        484.0 
       740.0         0.20        484.0 
       741.0         0.20        482.2 
       742.0         0.17        481.3 
       743.0         0.20        480.3 
       744.0         0.20        479.1 
       745.0         0.20        480.3 
       746.0         1.82        978.1 
       747.0         0.43       2105.2 
       748.0         0.23       2024.9 
       749.0         0.27       1350.9 
       750.0         0.20       1264.1 
       751.0         0.20        971.3 
       752.0         0.17        943.3 
       753.0         0.20        772.6 
       754.0         0.30        647.7 
       755.0         0.23        572.0 
       756.0         0.17        544.0 
       757.0         0.22        535.1 
       758.0         0.13        524.3 
       759.0         0.13        522.2 
       760.0         0.23        513.9 
       761.0         0.20        539.1 
       762.0         0.27        566.8 
       763.0         0.27        619.1 
       764.0         0.23        640.6 
       765.0         0.17        648.9 
       766.0         0.27        647.7 
       767.0         0.17        640.6 
       768.0         0.20        639.1 
       769.0         0.23        627.1 
       770.0         0.27        616.3 
       771.0         0.23        607.1 
       772.0         0.13        603.1 
       773.0         0.15        602.8 
       774.0         0.20        601.5 
       775.0         0.17        594.8 
       776.0         2.23       1548.1 
       777.0         0.33       2840.7 
       778.0         0.27       2816.4 
       779.0         0.22       2301.7 
       780.0         0.20       1472.4 
       781.0         0.20       1360.4 
       782.0         0.20       1030.7 
       783.0         0.17        973.8 
       784.0         0.23        777.2 
