~Version Information
VERS.                      2.0: CWLS Log ASCII Standard - VERSION 2.0
WRAP.                       NO: One line per depth step
~Well Information Block
STRT.FT                -7.5000: 
STOP.FT              1336.0000: 
STEP.FT                 0.2500: 
NULL.                -999.2500: 
COMP.          Pioneer Natural Resources: COMPANY
WELL.               LPGC 32-32: WELL
FLD.           Purgatorie River: FIELD
LOC.           1937' FNL & 1661' FEL--: LOCATION
CNTY.               Las Animas: COUNTY
SRVC.          Patterson Wireline: SERVICE COMPANY
DATE.          Fri Feb 03 09:39:42 2006: LOG DATE
UWI.           05 071 08641 00: UNIQUE WELL ID
STAT.                       CO: STATE
~Curve Information Block
DEPT.FT            0 000 00 00: Depth
CCL.                          : Casing Collar Locator
TT3.usec                      : CBL 3' Travel Time
AMP3.mV                       : CBL 3' Amplitude
GR.GAPI                       : Gamma Ray
~Parameter Information Block
~A  Depth       CCL         TT3         AMP3         GR     
# ...
   327.5000      0.0000    432.3530     14.6596    103.7601
   327.7500      0.0000    423.7027     14.5733    108.2627
   328.0000      0.0000    435.4275     14.4783    111.0797
   328.2500      0.0000    453.3362     14.3873    113.0049
   328.5000      0.0000    460.3976     14.3316    113.7765
   328.7500      0.0000    447.1615     14.3391    112.0751
   329.0000      0.0000    418.4665     14.4057    107.2642
   329.2500      0.0000    387.6837     14.4936    100.7268
   329.5000      0.0000    365.1162     14.5612     95.0950
   329.7500      0.0000    353.0650     14.5896     92.2877
   330.0000      0.0000    349.1454     14.5806     92.6423
   330.2500      0.0000    351.2675     14.5419     95.7445
   330.5000      0.0000    359.7359     14.4783    101.2974
   330.7500      0.0000    376.0494     14.3900    108.6916
   331.0000      0.0000    400.0834     14.2737    116.2501
   331.2500      0.0000    428.6942     14.1266    121.7644
   331.5000      0.0000    458.3665     13.9511    124.0993
   331.7500      0.0000    489.5022     13.7619    123.9819
   332.0000      0.0000    526.5643     13.5979    123.2076
   332.2500      0.0000    572.3702     13.5196    123.4079
   332.5000      0.0000    622.6794     13.5770    125.3910
   332.7500      0.0000    667.9464     13.7669    128.8380
   333.0000      0.0000    700.6568     14.0243    132.1866
   333.2500      0.0000    720.2501     14.2564    133.2022
   333.5000      0.0000    731.3932     14.3901    130.3078
   333.7500      0.0000    738.8564     14.3993    123.7932
   334.0000      0.0000    744.1349     14.3033    115.8871
   334.2500      0.0000    745.9827     14.1520    109.5156
   334.5000      0.0000    743.3228     14.0105    106.6084
   334.7500      0.0000    737.2044     13.9485    107.2734
   335.0000      0.0000    730.1830     14.0251    110.4166
   335.2500      0.0000    724.6664     14.2626    114.8660
   335.5000      0.0000    722.0173     14.6156    119.8516
   335.7500      0.0000    722.2971     14.9691    124.8922
   336.0000      0.0000    724.3862     15.1873    129.6545
   336.2500      0.0000    726.7210     15.1890    133.7588
   336.5000      0.0000    728.1531     14.9871    136.4772
   336.7500      0.0000    728.1002     14.6605    136.9285
   337.0000      0.0000    726.1693     14.2948    135.1143
   337.2500      0.0000    722.1733     13.9457    132.7250
   337.5000      0.0000    716.6533     13.6369    132.0739
   337.7500      0.0000    710.9538     13.3738    133.8884
   338.0000      0.0000    706.2850     13.1546    136.6049
   338.2500      0.0000    702.8943     12.9722    137.9240
   338.5000      0.0000    700.6017     12.8135    136.4452
   338.7500      0.0000    699.9063     12.6664    131.7604
   339.0000      0.0000    701.6561     12.5318    123.9093
   339.2500      0.0000    705.3278     12.4274    113.3788
   339.5000      0.0000    707.6285     12.3750    101.1350
   339.7500      0.0000    703.4694     12.3850     88.1240
   340.0000      0.0000    689.5001     12.4498     75.0287
   340.2500      0.0000    667.8852     12.5486     62.7296
   340.5000      0.0000    645.9874     12.6584     52.4954
   340.7500      0.0000    631.3979     12.7618     45.3495
   341.0000      0.0000    627.6761     12.8473     41.4570
   341.2500      0.0000    634.2232     12.9080     40.2420
   341.5000      0.0000    645.8855     12.9523     40.8395
   341.7500      0.0000    650.1663     13.0148     42.4550
   342.0000      0.0000    630.2171     13.1397     44.5395
   342.2500      0.0000    578.0867     13.3334     46.6269
   342.5000      0.0000    505.1320     13.5412     47.9798
   342.7500      0.0000    435.2633     13.6909     47.7970
   343.0000      0.0000    388.1149     13.7584     46.0538
   343.2500      0.0000    371.1242     13.7698     43.8152
   343.5000      0.0000    384.3104     13.7501     42.3538
   343.7500      0.0000    424.9407     13.7009     42.0950
   344.0000      0.0000    483.2119     13.6307     42.6054
   344.2500      0.0000    537.2394     13.5754     43.4404
   344.5000      0.0000    560.5670     13.5747     44.7423
   344.7500      0.0000    540.4061     13.6434     47.1431
   345.0000      0.0000    488.0264     13.7685     51.3683
   345.2500      0.0000    429.1212     13.9247     57.8290
   345.5000      0.0000    384.3692     14.0885     66.2840
   345.7500      0.0000    359.3385     14.2481     75.8651
   346.0000      0.0000    348.7462     14.4032     85.5674
   346.2500      0.0000    345.3144     14.5546     94.7933
   346.5000      0.0000    344.4400     14.7005    103.5460
   346.7500      0.0000    344.2673     14.8436    112.0376
   347.0000      0.0000    344.2838     14.9977    119.8633
   347.2500      0.0000    344.3712     15.1766    125.8077
   347.5000      0.0000    344.4456     15.3772    129.0829
   347.7500      0.0000    344.4437     15.5774    130.6533
   348.0000      0.0000    344.3529     15.7467    132.5047
   348.2500      0.0000    344.2282     15.8560    135.3536
   348.5000      0.0000    344.1828     15.8893    137.7106
   348.7500      0.0000    344.3937     15.8543    137.5875
   349.0000      0.0000    345.1491     15.7774    134.8044
   349.2500      0.0000    346.7846     15.6785    131.3320
   349.5000      0.0000    349.2933     15.5606    129.4731
   349.7500      0.0000    351.8798     15.4261    129.8773
   350.0000      0.0000    353.2388     15.2913    131.2701
   350.2500      0.0000    352.7025     15.1722    131.8377
   350.5000      0.0000    351.0840     15.0659    130.7819
   350.7500      0.0000    350.2571     14.9576    128.9461
   351.0000      0.0000    352.3023     14.8402    128.2690
   351.2500      0.0000    359.2729     14.7189    130.3043
   351.5000      0.0000    373.3911     14.6033    134.6581
   351.7500      0.0000    396.2595     14.5021    138.9269
   352.0000      0.0000    425.9860     14.4220    140.6121
   352.2500      0.0000    454.1392     14.3709    138.8952
   352.5000      0.0000    468.1523     14.3601    134.2010
   352.7500      0.0000    460.8016     14.3969    126.8404
   353.0000      0.0000    437.7292     14.4764    117.2115
   353.2500      0.0000    413.8155     14.5881    106.9836
   353.5000      0.0000    403.4748     14.7336     98.7971
   353.7500      0.0000    415.8069     14.9253     94.3807
   354.0000      0.0000    454.5414     15.1643     93.4828
   354.2500      0.0000    516.0156     15.4245     94.7391
   354.5000      0.0000    587.0040     15.6641     97.0023
   354.7500      0.0000    649.9026     15.8509     99.6217
   355.0000      0.0000    693.1910     15.9777    102.0131
   355.2500      0.0000    716.4578     16.0495    103.6587
   355.5000      0.0000    726.3049     16.0565    104.5979
   355.7500      0.0000    729.6359     15.9735    105.5911
   356.0000      0.0000    730.5234     15.7985    107.4486
   356.2500      0.0000    730.6063     15.5866    110.1648
   356.5000      0.0000    730.3954     15.4293    113.0077
   356.7500      0.0000    730.0708     15.3864    115.5824
   357.0000      0.0000    729.7410     15.4348    118.3862
   357.2500      0.0000    729.4601     15.4859    121.9963
   357.5000      0.0000    729.2156     15.4597    126.1019
   357.7500      0.0000    728.8576     15.3447    129.7110
   358.0000      0.0000    727.9913     15.1895    132.0892
   358.2500      0.0000    726.0135     15.0454    133.2527
   358.5000      0.0000    722.5425     14.9304    133.6851
   358.7500      0.0000    718.0598     14.8412    133.6259
   359.0000      0.0000    713.6485     14.7805    132.5095
   359.2500      0.0000    709.2468     14.7607    129.3342
   359.5000      0.0000    701.9504     14.7784    123.9676
   359.7500      0.0000    687.2013     14.7847    117.9562
   360.0000      0.0000    663.2836     14.6817    113.6030
   360.2500      0.0000    634.7814     14.3775    112.1067
   360.5000      0.0000    610.4681     13.8749    112.8293
   360.7500      0.0000    597.8885     13.2890    114.5701
