~Version Information
VERS.                      2.0: CWLS Log ASCII Standard - VERSION 2.0
WRAP.                       NO: One line per depth step
~Well Information Block
STRT.FT               460.0000: 
STOP.FT              2311.7000: 
STEP.FT                 0.1000: 
NULL.                -999.2500: 
COMP.          Pioneer Natural Resources: COMPANY
WELL.          McDonald 33-31 R: WELL
FLD.           Purgatoire River: FIELD
LOC.           1386' FSL & 1926' FEL: LOCATION
STAT.                 Colorado: State
CNTY.               Las Animas: COUNTY
CTRY.                      USA: Country
SECT.                       31: Section
TOWN.                      32S: Township
RANG.                      66W: Range
SRVC.                Patterson: SERVICE COMPANY
DATE.          Sat Sep 24 09:00:13 2005: LOG DATE
API.           05 071 08533 00: API
~Curve Information Block
DEPT.FT            0 000 00 00: Depth
DCAL.in                       : CDL Caliper
RHOB.g/cc                     : CDL Bulk Density
RHOC.g/cc                     : CDL Density Correction
DPOR.pu                       : CDL Density Porosity
NPOR.pu                       : Neutron Porosity
GR.GAPI                       : Gamma Ray
~Parameter Information Block
~A  Depth       DCAL        RHOB        RHOC        DPOR        NPOR         GR     
# ...
  2284.0000      7.8110      2.5782      0.0548      4.3506     22.3681   -999.2500
  2284.1000      7.8110      2.5614      0.0215      5.3697     21.9408   -999.2500
  2284.2000      7.8110      2.5575      0.0432      5.6076     21.7401   -999.2500
  2284.3000      7.8065      2.5626      0.0290      5.2989     21.7937   -999.2500
  2284.4000      7.8065      2.5780      0.0508      4.3612     22.1761   -999.2500
  2284.5000      7.8015      2.6057      0.0613      2.6871     22.2229   -999.2500
  2284.6000      7.8015      2.6289      0.1163      1.2758     21.6126   -999.2500
  2284.7000      7.8015      2.6270      0.0849      1.3965     21.0360   -999.2500
  2284.8000      7.8012      2.6066      0.0601      2.6280     20.8537   -999.2500
  2284.9000      7.8012      2.5910      0.0593      3.5763     22.3932   -999.2500
  2285.0000      7.8045      2.5934      0.0341      3.4321     29.1187   -999.2500
  2285.1000      7.8045      2.6107      0.0783      2.3797     40.4230   -999.2500
  2285.2000      7.8045      2.6247      0.0638      1.5332     48.8109   -999.2500
  2285.3000      7.8106      2.6248      0.0714      1.5259     51.8689   -999.2500
  2285.4000      7.8106      2.6199      0.0720      1.8218     52.4711   -999.2500
  2285.5000      7.8176      2.6250      0.0281      1.5181     52.5351   -999.2500
  2285.6000      7.8176      2.6390      0.0873      0.6664     52.5387   -999.2500
  2285.7000      7.8176      2.6424      0.0671      0.4623   -999.2500   -999.2500
  2285.8000      7.8185      2.6315      0.0312      1.1195   -999.2500   -999.2500
  2285.9000      7.8185      2.6188      0.0638      1.8928   -999.2500   -999.2500
  2286.0000      7.8144      2.6049      0.0352      2.7347   -999.2500   -999.2500
  2286.1000      7.8144      2.5884      0.0504      3.7359   -999.2500   -999.2500
  2286.2000      7.8144      2.5724      0.0270      4.7046   -999.2500   -999.2500
  2286.3000      7.8092      2.5566      0.0052      5.6613   -999.2500   -999.2500
  2286.4000      7.8092      2.5417      0.0294      6.5656   -999.2500   -999.2500
  2286.5000      7.8026      2.5331      0.0094      7.0837   -999.2500   -999.2500
  2286.6000      7.8026      2.5348      0.0264      6.9830   -999.2500   -999.2500
  2286.7000      7.8026      2.5443      0.0376      6.4057   -999.2500   -999.2500
  2286.8000      7.7892      2.5606     -0.0179      5.4203   -999.2500   -999.2500
  2286.9000      7.7892      2.5779      0.0765      4.3706   -999.2500   -999.2500
  2287.0000      7.7698      2.5842      0.0475      3.9898   -999.2500   -999.2500
  2287.1000      7.7698      2.5848      0.0545      3.9496   -999.2500   -999.2500
  2287.2000      7.7698      2.5899      0.0689      3.6448   -999.2500   -999.2500
  2287.3000      7.7620      2.5974      0.0655      3.1859   -999.2500   -999.2500
  2287.4000      7.7620      2.6046      0.0886      2.7508   -999.2500   -999.2500
  2287.5000      7.7676      2.6067      0.1127      2.6260   -999.2500   -999.2500
  2287.6000      7.7676      2.6040      0.0693      2.7900   -999.2500   -999.2500
  2287.7000      7.7676      2.6069      0.0810      2.6148   -999.2500   -999.2500
  2287.8000      7.7759      2.6155      0.0900      2.0918   -999.2500   -999.2500
  2287.9000      7.7759      2.6173      0.0865      1.9814   -999.2500   -999.2500
  2288.0000      7.7880      2.6087      0.0773      2.5045   -999.2500   -999.2500
  2288.1000      7.7880      2.6057      0.0054      2.6875   -999.2500   -999.2500
  2288.2000      7.7880      2.6188      0.0593      1.8888   -999.2500   -999.2500
  2288.3000      7.8069      2.6340      0.0697      0.9718   -999.2500   -999.2500
  2288.4000      7.8069      2.6425      0.0805      0.4540   -999.2500   -999.2500
  2288.5000      7.8149      2.6509      0.0713     -0.0562   -999.2500   -999.2500
  2288.6000      7.8149      2.6554      0.0624     -0.3268   -999.2500   -999.2500
  2288.7000      7.8149      2.6459      0.0651      0.2508   -999.2500   -999.2500
  2288.8000      7.8072      2.6253      0.0500      1.4987   -999.2500   -999.2500
  2288.9000      7.8072      2.6042      0.0465      2.7735   -999.2500   -999.2500
  2289.0000      7.8031      2.5890      0.0346      3.6945   -999.2500   -999.2500
  2289.1000      7.8031      2.5832      0.0458      4.0478   -999.2500   -999.2500
  2289.2000      7.8031      2.5910      0.0612      3.5733   -999.2500   -999.2500
  2289.3000      7.8076      2.6141      0.0297      2.1773   -999.2500   -999.2500
  2289.4000      7.8076      2.6392      0.1128      0.6540   -999.2500   -999.2500
  2289.5000      7.8153      2.6458      0.0741      0.2527   -999.2500   -999.2500
  2289.6000      7.8153      2.6308      0.0571      1.1654   -999.2500   -999.2500
  2289.7000      7.8153      2.6064      0.0622      2.6399   -999.2500   -999.2500
  2289.8000      7.8208      2.5910      0.0426      3.5767   -999.2500   -999.2500
  2289.9000      7.8208      2.5887      0.0509      3.7155   -999.2500   -999.2500
  2290.0000      7.8217      2.5832      0.0461      4.0497   -999.2500   -999.2500
  2290.1000      7.8217      2.5687      0.0252      4.9276   -999.2500   -999.2500
  2290.2000      7.8217      2.5570      0.0251      5.6334   -999.2500   -999.2500
  2290.3000      7.8222      2.5533      0.0460      5.8603   -999.2500   -999.2500
  2290.4000      7.8222      2.5531      0.0264      5.8755   -999.2500   -999.2500
  2290.5000      7.8237      2.5545      0.0584      5.7879   -999.2500   -999.2500
  2290.6000      7.8237      2.5563      0.0603      5.6794   -999.2500   -999.2500
  2290.7000      7.8237      2.5569      0.0307      5.6433   -999.2500   -999.2500
  2290.8000      7.8179      2.5554      0.0567      5.7353   -999.2500   -999.2500
  2290.9000      7.8179      2.5487      0.0540      6.1405   -999.2500   -999.2500
  2291.0000      7.8018      2.5384      0.0345      6.7609   -999.2500   -999.2500
  2291.1000      7.8018      2.5343      0.0027      7.0121   -999.2500   -999.2500
  2291.2000      7.8018      2.5445      0.0303      6.3928   -999.2500   -999.2500
  2291.3000      7.7819      2.5596      0.0695      5.4796   -999.2500   -999.2500
  2291.4000      7.7819      2.5651      0.0549      5.1430   -999.2500   -999.2500
  2291.5000      7.7589      2.5714      0.0350      4.7652   -999.2500   -999.2500
  2291.6000      7.7589      2.5870      0.1034      3.8210   -999.2500   -999.2500
  2291.7000      7.7589      2.5965      0.1049      3.2414   -999.2500   -999.2500
  2291.8000      7.7376      2.5942      0.0962      3.3821   -999.2500   -999.2500
  2291.9000      7.7376      2.5887      0.0980      3.7168   -999.2500   -999.2500
  2292.0000      7.7332      2.5816      0.0944      4.1446   -999.2500   -999.2500
  2292.1000      7.7332      2.5669      0.0863      5.0368   -999.2500   -999.2500
  2292.2000      7.7332      2.5365      0.0591      6.8797   -999.2500   -999.2500
  2292.3000      7.7089      2.4938      0.0080      9.4641   -999.2500   -999.2500
  2292.4000      7.7089      2.4668     -0.0062     11.1005   -999.2500   -999.2500
  2292.5000      7.5437      2.4945      0.0258      9.4254   -999.2500   -999.2500
  2292.6000      7.5437      2.4769      0.0247     10.4898   -999.2500   -999.2500
  2292.7000      7.5437      2.0483      0.4710     36.4664   -999.2500   -999.2500
  2292.8000      6.9468      1.1565      0.0550     90.5178   -999.2500   -999.2500
  2292.9000      6.9468      0.3911      0.0550    136.9016   -999.2500   -999.2500
  2293.0000      5.2886      0.0742   -999.2500    156.1103   -999.2500   -999.2500
  2293.1000      5.2886      0.0076   -999.2500    160.1429   -999.2500   -999.2500
  2293.2000      5.2886      0.0004   -999.2500    160.5809   -999.2500   -999.2500
  2293.3000      2.9111      0.0000   -999.2500    160.6061   -999.2500   -999.2500
  2293.4000      2.9111      0.0000   -999.2500    160.6061   -999.2500   -999.2500
  2293.5000      1.5290   -999.2500   -999.2500   -999.2500   -999.2500   -999.2500
