~Version Information
VERS.                      2.0: CWLS Log ASCII Standard - VERSION 2.0
WRAP.                       NO: One line per depth step
~Well Information Block
STRT.FT               -12.2500: 
STOP.FT              1442.2500: 
STEP.FT                 0.2500: 
NULL.                -999.2500: 
COMP.          Pioneer Natural Resources: COMPANY
WELL.              Lucky 21-36: WELL
FLD.           Purgatorie River: FIELD
LOC.           799' FNL & 1578' FWL--: LOCATION
CDN. :
PROV. :
UWI. :
STAT. :
CNTY. :
CTRY. :
API. :
COMP. :
WELL. :
FLD. :
LOC. :
DATE. :
SRVC. :
CNTY.               Las Animas: COUNTY
SRVC.          Superior Well Services: SERVICE COMPANY
DATE.          Mon Jul 21 12-16-21 2008: LOG DATE
UWI.           05 071 08456 00: UNIQUE WELL ID
STAT.                       CO: STATE
~Curve Information Block
DEPT.FT            0 000 00 00: Depth
CCL.                          : Casing Collar Locator
TT3.usec                      : CBL 3' Travel Time
AMP3.mV                       : CBL 3' Amplitude
GR.GAPI                       : Gamma Ray
~Parameter Information Block
~A  Depth       CCL         TT3         AMP3         GR     
# ...
   188.7500      0.0000    266.6720     42.5866     59.1631
   189.0000      0.0000    266.9900     42.6710     51.6008
   189.2500      0.0000    267.9552     42.8413     45.2122
   189.5000      0.0000    270.3348     42.8748     41.9424
   189.7500      0.0000    274.8382     42.6215     41.7448
   190.0000      0.0000    281.4117     42.1014     42.6653
   190.2500      0.0000    288.8511     41.4735     42.7925
   190.5000      0.0000    295.3926     40.9080     41.8803
   190.7500      0.0000    299.8610     40.4844     40.9654
   191.0000      0.0000    302.2261     40.1875     40.6887
   191.2500      0.0000    303.1874     39.9665     40.5918
   191.5000      0.0000    303.4780     39.7813     40.1916
   191.7500      0.0000    303.5342     39.6024     40.0306
   192.0000      0.0000    303.5342     39.3901     41.1012
   192.2500      0.0000    303.5357     39.0947     43.7040
   192.5000      0.0000    303.5580     38.6883     47.4797
   192.7500      0.0000    303.6050     38.1944     52.3039
   193.0000      0.0000    303.6673     37.6819     58.5544
   193.2500      0.0000    303.7288     37.2342     66.2914
   193.5000      0.0000    303.7762     36.9119     74.3890
   193.7500      0.0000    303.8049     36.7246     80.8444
   194.0000      0.0000    303.8183     36.6314     84.2396
   194.2500      0.0000    303.8206     36.5775     84.8287
   194.5000      0.0000    303.8087     36.5313     84.0529
   194.7500      0.0000    303.7755     36.4829     83.1266
   195.0000      0.0000    303.7233     36.4257     82.0982
   195.2500      0.0000    303.6696     36.3520     80.0934
   195.5000      0.0000    303.6433     36.2603     76.5389
   195.7500      0.0000    303.6761     36.1525     72.2711
   196.0000      0.0000    303.8464     36.0061     69.1484
   196.2500      0.0000    304.3999     35.7181     68.4413
   196.5000      0.0000    305.8877     35.0722     69.9237
   196.7500      0.0000    308.9936     33.8622     72.5039
   197.0000      0.0000    313.7690     32.1614     75.2313
   197.2500      0.0000    318.8333     30.4127     77.6364
   197.5000      0.0000    321.8671     29.0915     79.5882
   197.7500      0.0000    321.5105     28.2959     81.0218
   198.0000      0.0000    318.5908     27.8031     81.7265
   198.2500      0.0000    315.1606     27.4438     81.4922
   198.5000      0.0000    312.6860     27.2428     80.5979
   198.7500      0.0000    311.4300     27.2553     79.9182
   199.0000      2.0000    311.0511     27.4443     80.2092
   199.2500      0.0000    311.2581     27.7250     81.2433
   199.5000      0.0000    311.8276     28.0897     81.8294
   199.7500      0.0000    312.1625     28.7055     80.7871
   200.0000      0.0000    311.1257     29.8494     77.7757
   200.2500      0.0000    307.8266     31.6361     73.2489
   200.5000      0.0000    302.8476     33.7988     67.9394
   200.7500      0.0000    298.2862     35.8427     62.4997
   201.0000      0.0000    296.1660     37.3999     57.4934
   201.2500      0.0000    296.8539     38.3833     53.6602
   201.5000      0.0000    299.0977     38.8950     51.9729
   201.7500      0.0000    301.3389     39.1026     53.0909
   202.0000      0.0000    302.7814     39.1594     56.8121
   202.2500      0.0000    303.4398     39.1608     62.2369
   202.5000      0.0000    303.5952     39.1552     68.1551
   202.7500      0.0000    303.3299     39.1914     73.1136
   203.0000      0.0000    302.3195     39.3468     75.8018
   203.2500      0.0000    299.8714     39.7109     75.9929
   203.5000      0.0000    295.3080     40.3460     74.8699
   203.7500      0.0000    288.6769     41.2406     73.9399
   204.0000      0.0000    281.1508     42.2955     73.5457
   204.2500      0.0000    274.4719     43.3593     72.6745
   204.5000      0.0000    269.8259     44.2970     70.4014
   204.7500      0.0000    267.2744     45.0456     67.3090
   205.0000      0.0000    266.1433     45.6285     65.1282
   205.2500      0.0000    265.7060     46.1272     65.0774
   205.5000      0.0000    265.5216     46.6246     66.8348
   205.7500      0.0000    265.4097     47.1619     68.9569
   206.0000      0.0000    265.3207     47.7277     69.9076
   206.2500      0.0000    265.2504     48.2648     68.7019
   206.5000      0.0000    265.2055     48.6806     65.0868
   206.7500      0.0000    265.1941     48.8776     59.7170
   207.0000      0.0000    265.2171     48.8059     54.2237
   207.2500      0.0000    265.2655     48.4996     50.5446
   207.5000      0.0000    265.3248     48.0614     49.7147
   207.7500      0.0000    265.3833     47.6126     51.2529
   208.0000      0.0000    265.4361     47.2482     53.6301
   208.2500      0.0000    265.4829     47.0169     55.2793
   208.5000      0.0000    265.5248     46.9163     55.4569
   208.7500      0.0000    265.5641     46.8982     54.4434
   209.0000      0.0000    265.6048     46.8875     52.9122
   209.2500      0.0000    265.6511     46.8167     51.2098
   209.5000      0.0000    265.7065     46.6530     49.4052
   209.7500      0.0000    265.7741     46.3973     47.7841
   210.0000      0.0000    265.8599     46.0617     46.8190
   210.2500      0.0000    265.9759     45.6537     46.6144
   210.5000      0.0000    266.1721     45.1738     46.5946
   210.7500      0.0000    266.6215     44.6203     45.8742
   211.0000      0.0000    267.7536     43.9921     44.0777
   211.2500      0.0000    270.2883     43.2889     41.8812
   211.5000      0.0000    274.9037     42.5214     40.5422
   211.7500      0.0000    281.5487     41.7335     40.7081
   212.0000      0.0000    289.0449     41.0056     41.8442
   212.2500      0.0000    295.6498     40.4222     42.9877
   212.5000      0.0000    300.1902     40.0331     43.9020
   212.7500      0.0000    302.6240     39.8454     45.4037
   213.0000      0.0000    303.6378     39.8360     48.7433
   213.2500      0.0000    303.9554     39.9558     54.5995
   213.5000      0.0000    304.0019     40.1322     62.2414
   213.7500      0.0000    303.9084     40.2886     69.4645
   214.0000      0.0000    303.5601     40.3754     73.6246
   214.2500      0.0000    302.5462     40.3947     73.2641
   214.5000      0.0000    300.1591     40.4027     69.0809
   214.7500      0.0000    295.7600     40.4767     63.3652
   215.0000      0.0000    289.5570     40.6538     58.5204
   215.2500      0.0000    283.1455     40.8880     56.1049
   215.5000      0.0000    278.9863     41.0674     56.7176
   215.7500      0.0000    278.9422     41.0791     59.9494
   216.0000      0.0000    283.0258     40.8636     64.3087
   216.2500      0.0000    289.3981     40.4233     67.9017
   216.5000      0.0000    295.6161     39.7941     69.6696
   216.7500      0.0000    300.0862     39.0215     69.8927
   217.0000      0.0000    302.5802     38.1721     69.5227
   217.2500      0.0000    303.7000     37.3588     69.2479
   217.5000      0.0000    304.1154     36.7274     69.1872
   217.7500      0.0000    304.2238     36.3942     69.1945
   218.0000      0.0000    304.1970     36.3910     69.2236
   218.2500      0.0000    304.1070     36.6597     69.4596
   218.5000      0.0000    303.9939     37.0795     70.3334
   218.7500      0.0000    303.8866     37.5097     72.3795
   219.0000      0.0000    303.8008     37.8558     75.7636
   219.2500      0.0000    303.7354     38.1197     79.7509
   219.5000      0.0000    303.6747     38.3663     82.8549
   219.7500      0.0000    303.6004     38.6375     83.8799
   220.0000      0.0000    303.4720     38.9207     82.8536
   220.2500      0.0000    303.1705     39.1953     80.8117
   220.5000      0.0000    302.4450     39.4676     78.8083
   220.7500      0.0000    301.0133     39.7408     77.3422
   221.0000      0.0000    298.9244     39.9641     76.4130
   221.2500      0.0000    296.9066     40.0327     75.6598
   221.5000      0.0000    296.0791     39.8455     74.6521
   221.7500      0.0000    297.0035     39.3764     73.5652
   222.0000      0.0000    299.1168     38.7024     73.3930
