~Version Information
VERS.                      2.0: CWLS Log ASCII Standard - VERSION 2.0
WRAP.                       NO: One line per depth step
~Well Information Block
STRT.FT                -9.0000: 
STOP.FT              1754.0000: 
STEP.FT                 0.2500: 
NULL.                -999.2500: 
COMP.          Pioneer Natural Resources: COMPANY
WELL.          Touchstone 11-32 Tr: WELL
FLD.           Purgatorie River: FIELD
LOC.           782' FNL & 840' FWL--: LOCATION
CNTY.               Las Animas: COUNTY
SRVC.          Patterson Wireline: SERVICE COMPANY
DATE.          Mon Mar 06 09:18:09 2006: LOG DATE
UWI.           05 071 08626 00: UNIQUE WELL ID
STAT.                       CO: STATE
~Curve Information Block
DEPT.FT            0 000 00 00: Depth
CCL.                          : Casing Collar Locator
TT3.usec                      : CBL 3' Travel Time
AMP3.mV                       : CBL 3' Amplitude
GR.GAPI                       : Gamma Ray
~Parameter Information Block
~A  Depth       CCL         TT3         AMP3         GR     
# ...
   929.0000      0.0000    700.9006      8.8798    140.5425
   929.2500      0.0000    711.7443      9.0038    138.4320
   929.5000      0.0000    720.2333      9.1668    137.2239
   929.7500      0.0000    721.4629      9.3082    138.8015
   930.0000      0.0000    714.6346      9.3863    142.5811
   930.2500      0.0000    703.9515      9.3991    145.3747
   930.5000      0.0000    695.1230      9.3735    144.2205
   930.7500      0.0000    691.9886      9.3405    139.4158
   931.0000      0.0000    696.2173      9.3172    134.3865
   931.2500      0.0000    707.9371      9.3060    132.5385
   931.5000      0.0000    724.9285      9.3038    134.5896
   931.7500      0.0000    742.0052      9.3055    138.8878
   932.0000      0.0000    753.1422      9.2991    143.5171
   932.2500      0.0000    755.0417      9.2677    147.5616
   932.5000      0.0000    748.6423      9.2051    150.5501
   932.7500      0.0000    737.8340      9.1294    151.5105
   933.0000      0.0000    727.0234      9.0731    149.4970
   933.2500      0.0000    719.1472      9.0605    145.0307
   933.5000      0.0000    715.1796      9.0950    140.0886
   933.7500      0.0000    714.8279      9.1633    136.1993
   934.0000      0.0000    716.7946      9.2480    133.1533
   934.2500      0.0000    718.6841      9.3357    129.9294
   934.5000      0.0000    718.0406      9.4184    126.2165
   934.7500      0.0000    713.8789      9.4895    122.4371
   935.0000      0.0000    706.9940      9.5384    118.8067
   935.2500      0.0000    699.2993      9.5532    115.0968
   935.5000      0.0000    693.1569      9.5258    111.0846
   935.7500      0.0000    690.6076      9.4542    106.5592
   936.0000      0.0000    692.4857      9.3406    101.0676
   936.2500      0.0000    697.8589      9.1968     94.4990
   936.5000      0.0000    704.3051      9.0501     87.9552
   936.7500      0.0000    709.3418      8.9338     83.2548
   937.0000      0.0000    712.1697      8.8627     81.2968
   937.2500      0.0000    713.9479      8.8209     81.3348
   937.5000      0.0000    716.2235      8.7748     81.9692
   937.7500      0.0000    719.5328      8.7003     82.4211
   938.0000      0.0000    723.6453      8.5990     82.6098
   938.2500      0.0000    728.3740      8.4971     82.4218
   938.5000      0.0000    733.5245      8.4272     81.5374
   938.7500      0.0000    738.4843      8.4079     79.8906
   939.0000      0.0000    742.5523      8.4330     77.8754
   939.2500      0.0000    745.5727      8.4760     76.1656
   939.5000      0.0000    747.7656      8.5097     75.7828
   939.7500      0.0000    749.0990      8.5256     78.3523
   940.0000      0.0000    749.3807      8.5365     85.6092
   940.2500      0.0000    748.9451      8.5601     97.8849
   940.5000      0.0000    748.7198      8.6068    112.9135
   940.7500      0.0000    749.4699      8.6797    126.5545
   941.0000      0.0000    751.3093      8.7764    135.2836
   941.2500      0.0000    753.9444      8.8861    138.4959
   941.5000      0.0000    756.8453      8.9920    138.5802
   941.7500      0.0000    759.1295      9.0793    138.6238
   942.0000      0.0000    760.0052      9.1408    140.0780
   942.2500      0.0000    759.5714      9.1776    142.6399
   942.5000      0.0000    758.7322      9.1941    145.6538
   942.7500      0.0000    757.8635      9.1878    148.8013
   943.0000      0.0000    755.2603      9.1460    151.6953
   943.2500      0.0000    746.9645      9.0627    153.5268
   943.5000      0.0000    729.9176      8.9606    153.1865
   943.7500      0.0000    708.3141      8.8723    149.7505
   944.0000      0.0000    696.5672      8.7850    143.3920
   944.2500      0.0000    710.4056      8.6352    136.0077
   944.5000      0.0000    750.9276      8.3853    130.1402
   944.7500      0.0000    801.2816      8.0823    126.7932
   945.0000      0.0000    843.1764      7.8096    124.9017
   945.2500      0.0000    872.1957      7.6034    123.2554
   945.5000      0.0000    893.5798      7.4308    122.1001
   945.7500      0.0000    910.2536      7.2300    122.3885
   946.0000      2.0000    920.4922      6.9636    124.2071
   946.2500      0.0000    921.4054      6.6518    126.3741
   946.5000      0.0000    910.1234      6.3658    127.0167
   946.7500      0.0000    886.4908      6.1670    124.3789
   947.0000      0.0000    857.9752      6.0506    117.8924
   947.2500      0.0000    837.5743      5.9659    109.0554
   947.5000      0.0000    833.4370      5.8825    100.9785
   947.7500      0.0000    842.2944      5.8067     96.4972
   948.0000      0.0000    854.0930      5.7453     96.3999
   948.2500      0.0000    861.0067      5.6944     99.3586
   948.5000      0.0000    861.3435      5.6652    103.3788
   948.7500      0.0000    857.2556      5.6944    107.2146
   949.0000      0.0000    850.9465      5.8210    110.5382
   949.2500      0.0000    843.0969      6.0597    113.2299
   949.5000      0.0000    833.7789      6.3952    114.9352
   949.7500      0.0000    823.7131      6.7936    115.4085
   950.0000      0.0000    814.0422      7.2162    115.0490
   950.2500      0.0000    805.0444      7.6222    114.8189
   950.5000      0.0000    795.7473      7.9669    115.4300
   950.7500      0.0000    785.1160      8.2095    116.6550
   951.0000      0.0000    773.5046      8.3357    117.6934
   951.2500      0.0000    762.9156      8.3753    118.1747
   951.5000      0.0000    755.8524      8.3877    118.4025
   951.7500      0.0000    753.5367      8.4197    118.7835
   952.0000      0.0000    754.7707      8.4723    119.6922
   952.2500      0.0000    756.6978      8.5059    121.7135
   952.5000      0.0000    756.8560      8.4743    125.1392
   952.7500      0.0000    754.4257      8.3578    129.1575
   953.0000      0.0000    750.1424      8.1742    132.2369
   953.2500      0.0000    745.9017      7.9689    133.5363
   953.5000      0.0000    743.9711      7.7943    133.5045
   953.7500      0.0000    745.3958      7.6889    133.0515
   954.0000      0.0000    749.0543      7.6664    132.5815
   954.2500      0.0000    752.7540      7.7185    132.0851
   954.5000      0.0000    755.0505      7.8283    131.8936
   954.7500      0.0000    755.7454      7.9787    132.8907
   955.0000      0.0000    755.1500      8.1501    135.6127
   955.2500      0.0000    753.4641      8.3146    139.0910
   955.5000      0.0000    750.9548      8.4400    141.0878
   955.7500      0.0000    748.3854      8.5041    140.0662
   956.0000      0.0000    746.6713      8.5047    136.7534
   956.2500      0.0000    745.6356      8.4563    133.3428
   956.5000      0.0000    743.3134      8.3804    131.4465
   956.7500      0.0000    737.2473      8.2993    131.2246
   957.0000      0.0000    726.9407      8.2353    131.9890
   957.2500      0.0000    714.9104      8.2091    132.8380
   957.5000      0.0000    704.9424      8.2312    132.8305
   957.7500      0.0000    699.3073      8.2922    131.3791
   958.0000      0.0000    697.9435      8.3616    128.7250
   958.2500      0.0000    699.9713      8.3993    125.7183
   958.5000      0.0000    704.9211      8.3754    123.1224
   958.7500      0.0000    711.9829      8.2873    121.3403
   959.0000      0.0000    718.8126      8.1608    120.5046
   959.2500      0.0000    722.2600      8.0278    120.3611
   959.5000      0.0000    721.0472      7.8996    120.2029
   959.7500      0.0000    717.4659      7.7640    119.2856
   960.0000      0.0000    715.3774      7.6088    117.3940
   960.2500      0.0000    716.1063      7.4419    115.0769
   960.5000      0.0000    717.2726      7.2891    113.4682
   960.7500      0.0000    716.2130      7.1758    113.6443
   961.0000      0.0000    713.6000      7.1144    115.8129
   961.2500      0.0000    713.0510      7.1054    119.1086
   961.5000      0.0000    717.8857      7.1456    122.2873
   961.7500      0.0000    728.4794      7.2340    124.7253
   962.0000      0.0000    742.1127      7.3681    126.6250
   962.2500      0.0000    755.5392      7.5339    128.0390
