~Version Information
 VERS.                                  2.0 : CWLS LAS VERSION
 WRAP.                                   NO : WRAPING MODE
 SWARE .                 MController 2.5.0J : SOFTWARE VERSION
~Well Information
 WELL.                        DUDE 43-34 TR : WELL
 COMP.    PIONEER NATURAL RESOURCES USA INC : COMPANY
 FLD.                      PURGATOIRE RIVER : FIELD
 LOC.                NE/SE SEC 34 T32S R67W : LOCATION
 DATE.                          01/25-26/06 : DATE(S) LOGGED
 SRVC.       BLANCO GEOLOGICAL SERVICES LLC : SERVICE COMPANY
 STAT.                             COLORADO : STATE
 CNTY.                           LAS ANIMAS : COUNTY
 CTRY.                                  USA : COUNTRY
 API.                       05-071-08676-00 : API NUMBER
 STRT.FT                             485.00 : START DEPTH
 STOP.FT                            1765.00 : STOP DEPTH
 STEP.FT                               1.00 : DEPTH INCREMENT
 NULL.                                -9999 : NULL VALUE
~Curve information
 DEPTH.FT                                   :
 ROP.MIN/FT                                 :
 GAS.UNITS                                  :
~ASCII Log data
       485.0     -9999.00          1.8 
       486.0         0.23          2.0 
       487.0         0.10          1.7 
       488.0         0.10          1.7 
       489.0         0.07          1.5 
       490.0         0.10          1.5 
       491.0         0.07          1.5 
       492.0         0.10          1.6 
       493.0         0.07          1.6 
       494.0         0.10          1.8 
       495.0         0.07          2.2 
       496.0         0.10          1.8 
       497.0         0.07          1.8 
       498.0         0.13          2.3 
       499.0         0.10          1.7 
       500.0         0.10          2.0 
       501.0         0.07          2.0 
       502.0         0.13          2.2 
       503.0         0.12          2.1 
       504.0         0.13          2.1 
       505.0         0.30          2.3 
       506.0         1.50          2.8 
       507.0         0.07          2.7 
       508.0         0.10          2.6 
       509.0         0.17          2.7 
       510.0         0.07          3.3 
       511.0         0.10          2.9 
       512.0         0.10          2.9 
       513.0         0.10          2.9 
       514.0         0.07          2.7 
       515.0         0.10          2.7 
       516.0         0.20          3.1 
       517.0         0.07          3.1 
       518.0         0.10          2.6 
       519.0         0.10          2.6 
       520.0         0.12          2.6 
       521.0         0.07          2.7 
       522.0         0.13          2.7 
       523.0         0.23          3.3 
       524.0         0.10          2.8 
       525.0         0.10          2.8 
       526.0         0.13          3.2 
       527.0         0.10          3.0 
       528.0         0.20          3.1 
       529.0         0.10          2.9 
       530.0         0.10          3.2 
       531.0         0.10          3.2 
       532.0         0.20          3.3 
       533.0         0.10          3.2 
       534.0         0.10          3.2 
       535.0         0.13          3.2 
       536.0         1.78          3.7 
       537.0         0.10          3.3 
       538.0         0.20          3.5 
       539.0         0.13          3.5 
       540.0         0.20          3.5 
       541.0         0.10          3.5 
       542.0         0.10          3.6 
       543.0         0.10          3.6 
       544.0         0.20          3.5 
       545.0         0.07          3.5 
       546.0         0.10          4.0 
       547.0         0.10          4.0 
       548.0         0.10          4.0 
       549.0         0.10          3.3 
       550.0         0.07          3.3 
       551.0         0.10          3.3 
       552.0         0.10          3.5 
       553.0         0.20          3.1 
       554.0         0.07          3.1 
       555.0         0.10          3.3 
       556.0         0.10          3.4 
       557.0         0.17          3.5 
       558.0         0.10          3.5 
       559.0         0.10          3.9 
       560.0         0.17          3.4 
       561.0         0.15          4.4 
       562.0         0.10          3.4 
       563.0         0.10          3.8 
       564.0         0.10          3.5 
       565.0         0.10          4.0 
       566.0         1.87          4.6 
       567.0         0.20          4.0 
       568.0         0.13          4.3 
       569.0         0.17          4.3 
       570.0         0.10          4.3 
       571.0         0.13          4.3 
       572.0         0.13          4.6 
       573.0         0.10          4.3 
       574.0         0.12          4.3 
       575.0         0.13          4.3 
       576.0         0.10          4.6 
       577.0         0.13          4.5 
       578.0         0.13          4.5 
       579.0         0.10          4.5 
       580.0         0.17          4.8 
       581.0         0.10          4.5 
       582.0         0.10          4.5 
       583.0         0.23          4.8 
       584.0         0.23          4.9 
       585.0         0.20          4.9 
       586.0         0.20          4.4 
       587.0         0.20          4.3 
       588.0         0.23          4.8 
       589.0         0.30          4.7 
       590.0         0.27          4.4 
       591.0         0.20          4.8 
       592.0         0.20          4.0 
       593.0         0.25          3.8 
       594.0         0.23          4.0 
       595.0         0.27          4.2 
       596.0         2.92          5.1 
       597.0         0.37          4.9 
       598.0         0.30          5.2 
       599.0         0.27          5.2 
       600.0         0.30          5.4 
       601.0         0.33          5.3 
       602.0         0.27          4.9 
       603.0         0.33          5.4 
       604.0         0.23          5.1 
       605.0         0.23          5.0 
       606.0         0.23          4.8 
       607.0         0.22          5.0 
       608.0         0.23          5.1 
       609.0         0.27          4.7 
       610.0         0.20          4.7 
       611.0         0.20          4.5 
       612.0         0.20          4.9 
       613.0         0.23          4.7 
       614.0         0.23          4.5 
       615.0         0.23          4.4 
       616.0         0.23          4.7 
       617.0         0.27          4.6 
       618.0         0.20          4.0 
       619.0         0.17          4.2 
       620.0         0.23          4.2 
       621.0         0.20          4.2 
       622.0         0.22          3.7 
       623.0         0.17          3.7 
       624.0         0.20          4.1 
       625.0         0.27          4.3 
       626.0         3.22          4.9 
       627.0         0.30          4.9 
       628.0         0.23          4.9 
       629.0         0.23          5.1 
       630.0         0.23          4.9 
       631.0         0.23          5.4 
       632.0         0.20          5.2 
       633.0         0.20          5.2 
       634.0         0.27          5.1 
       635.0         0.23          4.7 
       636.0         0.20          5.0 
       637.0         0.20          4.9 
       638.0         0.20          5.0 
       639.0         0.22          5.0 
       640.0         0.20          4.8 
       641.0         0.23          5.7 
       642.0         0.20          5.6 
       643.0         0.20          5.5 
       644.0         0.17          5.0 
       645.0         0.20          5.6 
       646.0         0.20          4.8 
       647.0         0.20          5.1 
       648.0         0.17          4.4 
       649.0         0.17          4.5 
       650.0         0.17          4.5 
       651.0         0.17          4.6 
       652.0         0.17          5.0 
       653.0         0.17          4.3 
       654.0         0.20          4.3 
       655.0         0.23          4.8 
       656.0         2.95          6.2 
       657.0         0.17          5.6 
       658.0         0.27          5.7 
       659.0         0.25          5.6 
       660.0         0.30          5.2 
       661.0         0.20          5.5 
       662.0         0.17          5.7 
       663.0         0.17          5.4 
       664.0         0.13          5.4 
       665.0         0.13          5.0 
       666.0         0.20          5.3 
       667.0         0.17          5.6 
       668.0         0.23          5.1 
       669.0         0.20          5.7 
       670.0         0.17          5.7 
       671.0         0.23          5.2 
       672.0         0.27          5.8 
       673.0         0.30          5.2 
       674.0         0.27          5.5 
       675.0         0.22          5.0 
       676.0         0.20          5.0 
       677.0         0.23          5.5 
       678.0         0.17          4.7 
       679.0         0.20          4.3 
       680.0         0.17          5.0 
       681.0         0.17          4.8 
       682.0         0.20          4.8 
       683.0         0.23          4.6 
       684.0         0.17          4.7 
