~Version Information
 VERS.                                  2.0 : CWLS LAS VERSION
 WRAP.                                   NO : WRAPING MODE
 SWARE .                 MController 2.5.0J : SOFTWARE VERSION
~Well Information
 WELL.                    Greenwood 43-29Tr : WELL
 COMP.    Pioneer Natural Resources USA Inc : COMPANY
 FLD.                      Purgatoire River : FIELD
 LOC.                 NE/SE SEC29 T32S R67W : LOCATION
 DATE.                          08/30-31/05 : DATE(S) LOGGED
 SRVC.       Blanco Geological Services LLC : SERVICE COMPANY
 STAT.                             Colorado : STATE
 CNTY.                           Las Animas : COUNTY
 CTRY.                                  USA : COUNTRY
 API.                       05-071-08478-00 : API NUMBER
 STRT.FT                             941.00 : START DEPTH
 STOP.FT                            2097.00 : STOP DEPTH
 STEP.FT                               1.00 : DEPTH INCREMENT
 NULL.                                -9999 : NULL VALUE
~Curve information
 DEPTH.FT                                   :
 ROP.MIN/FT                                 :
 GAS.UNITS                                  :
~ASCII Log data
# ...
      1541.0         0.30        646.0 
      1542.0         0.27        645.1 
      1543.0         0.27        650.2 
      1544.0         0.25        652.1 
      1545.0         0.23        652.1 
      1546.0         0.27        653.0 
      1547.0         0.23        650.8 
      1548.0         0.23        650.5 
      1549.0         0.27        651.4 
      1550.0         0.27        650.2 
      1551.0         0.27        633.6 
      1552.0         0.27        607.0 
      1553.0         0.30        623.2 
      1554.0         0.27        665.4 
      1555.0         0.30        713.6 
      1556.0         2.12        842.5 
      1557.0         0.37        700.6 
      1558.0         0.40        696.8 
      1559.0         0.27        694.9 
      1560.0         0.23        689.5 
      1561.0         0.20        680.9 
      1562.0         0.25        667.6 
      1563.0         0.23        660.3 
      1564.0         0.27        649.2 
      1565.0         0.27        637.5 
      1566.0         0.30        635.9 
      1567.0         0.30        631.1 
      1568.0         0.27        627.3 
      1569.0         0.23        627.6 
      1570.0         0.13        631.7 
      1571.0         0.23        635.9 
      1572.0         0.43        640.0 
      1573.0         0.37        636.2 
      1574.0         0.32        632.4 
      1575.0         0.40        632.1 
      1576.0         0.23        633.3 
      1577.0         0.23        630.5 
      1578.0         0.20        626.0 
      1579.0         0.20        608.6 
      1580.0         0.17        608.6 
      1581.0         0.23        596.2 
      1582.0         0.27        597.5 
      1583.0         0.20        604.1 
      1584.0         0.23        616.8 
      1585.0         0.20        616.8 
      1586.0         4.50       1273.2 
      1587.0         0.57        647.0 
      1588.0         0.33        648.6 
      1589.0         0.30        643.5 
      1590.0         0.33        637.8 
      1591.0         0.37        630.2 
      1592.0         0.40        626.7 
      1593.0         0.30        628.6 
      1594.0         0.22        627.0 
      1595.0         0.17        629.5 
      1596.0         0.20        632.1 
      1597.0         0.20        630.8 
      1598.0         0.17        630.8 
      1599.0         0.23        629.2 
      1600.0         0.23        627.9 
      1601.0         0.20        625.7 
      1602.0         0.23        623.2 
      1603.0         0.27        624.4 
      1604.0         0.30        623.2 
      1605.0         0.27        623.2 
      1606.0         0.27        622.2 
      1607.0         0.23        617.5 
      1608.0         0.20        617.5 
      1609.0         0.28        599.1 
      1610.0         0.27        582.5 
      1611.0         0.20        582.5 
      1612.0         0.23        585.7 
      1613.0         0.23        601.3 
      1614.0         0.23        619.7 
      1615.0         0.13        637.1 
      1616.0         2.65        803.1 
      1617.0         0.23        630.5 
      1618.0         0.20        627.0 
      1619.0         0.53        664.8 
      1620.0         0.90        723.2 
      1621.0         0.27        672.4 
      1622.0         0.30        670.1 
      1623.0         0.17        656.5 
      1624.0         0.28        660.6 
      1625.0         0.47        659.0 
      1626.0         0.63        650.8 
      1627.0         0.23        621.3 
      1628.0         0.27        622.5 
      1629.0         0.30        622.5 
      1630.0         0.30        625.4 
      1631.0         0.47        691.7 
      1632.0         0.65        692.4 
      1633.0         0.47        653.3 
      1634.0         0.30        654.3 
      1635.0         0.33        641.3 
      1636.0         0.33        629.2 
      1637.0         0.13        626.7 
      1638.0         0.23        621.0 
      1639.0         0.33        621.3 
      1640.0         0.27        619.7 
      1641.0         0.30        617.1 
      1642.0         0.17        616.2 
      1643.0         0.23        616.5 
      1644.0         0.32        613.7 
      1645.0         0.43        596.5 
      1646.0         4.92       1276.0 
      1647.0         0.70        795.8 
      1648.0         0.48        635.6 
      1649.0         0.40        611.1 
      1650.0         0.37        617.8 
      1651.0         0.37        623.8 
      1652.0         0.37        631.1 
      1653.0         0.33        628.6 
      1654.0         0.47        624.1 
      1655.0         0.23        614.6 
      1656.0         0.27        609.2 
      1657.0         0.27        608.6 
      1658.0         0.28        608.3 
      1659.0         0.33        608.6 
      1660.0         0.27        606.7 
      1661.0         0.27        605.7 
      1662.0         0.30        601.6 
      1663.0         0.27        609.5 
      1664.0         0.30        627.0 
      1665.0         0.30        640.0 
      1666.0         0.23        639.7 
      1667.0         0.20        634.0 
      1668.0         0.13        634.0 
      1669.0         0.20        633.3 
      1670.0         0.13        630.2 
      1671.0         0.17        641.3 
      1672.0         0.15        652.4 
      1673.0         0.10        652.4 
      1674.0         0.10        680.3 
      1675.0         0.10        680.3 
      1676.0         2.33       1107.8 
      1677.0         0.47       1052.3 
      1678.0         0.45        831.7 
      1679.0         0.37        734.9 
      1680.0         0.23        678.4 
      1681.0         0.30        641.9 
      1682.0         0.33        625.1 
      1683.0         0.30        627.3 
      1684.0         0.33        634.0 
      1685.0         0.30        638.1 
      1686.0         0.27        637.1 
      1687.0         0.33        679.7 
      1688.0         0.38        687.6 
      1689.0         0.30        668.9 
      1690.0         0.33        645.4 
      1691.0         0.30        629.8 
      1692.0         0.23        627.3 
      1693.0         0.33        623.5 
      1694.0         0.30        620.0 
      1695.0         0.27        618.1 
      1696.0         0.23        617.8 
      1697.0         0.20        615.2 
      1698.0         0.33        614.6 
      1699.0         0.27        612.7 
      1700.0         0.25        607.9 
      1701.0         0.27        592.1 
      1702.0         0.27        583.2 
      1703.0         0.23        581.0 
      1704.0         0.23        594.3 
      1705.0         0.20        601.0 
      1706.0         2.15        877.1 
      1707.0         0.80        787.6 
      1708.0         0.43        687.6 
      1709.0         0.37        635.2 
      1710.0         0.33        624.1 
      1711.0         0.33        629.8 
      1712.0         0.30        633.0 
      1713.0         0.30        629.5 
      1714.0         0.23        627.9 
      1715.0         0.32        624.8 
      1716.0         0.27        618.4 
      1717.0         0.23        611.4 
      1718.0         0.27        602.9 
      1719.0         0.27        598.1 
      1720.0         0.27        621.9 
      1721.0         0.27        653.6 
      1722.0         0.23        695.5 
      1723.0         0.23        720.3 
      1724.0         0.20        720.3 
      1725.0         0.13        720.9 
      1726.0         0.13        720.9 
      1727.0         0.13        703.5 
      1728.0         0.13        703.5 
      1729.0         0.13        669.8 
      1730.0         0.13        669.8 
      1731.0         0.17        638.1 
      1732.0         0.28        628.3 
      1733.0         0.23        617.8 
      1734.0         0.23        618.7 
      1735.0         0.23        623.5 
      1736.0         3.78       1186.2 
      1737.0         1.00        718.4 
      1738.0         0.77        642.9 
      1739.0         0.45        668.9 
      1740.0         0.53        711.4 
