~Version Information
VERS.                      2.0: CWLS Log ASCII Standard - VERSION 2.0
WRAP.                       NO: One line per depth step
~Well Information Block
STRT.FT               240.0000: 
STOP.FT               902.0000: 
STEP.FT                 0.1000: 
NULL.                -999.2500: 
COMP.          Pioneer Natural Resources: COMPANY
WELL.          Bienville 31-28: WELL
FLD.           Purgatoire River: FIELD
LOC.           1212' FNL & 2271' FEL: LOCATION
PROV.                 Colorado: PROVINCE
CNTY.               Las Animas: COUNTRY
SRVC.                Patterson: SERVICE COMPANY
DATE.          Mon Jan 16 13:39:21 2006: LOG DATE
UWI.           05 071 08666 00: UNIQUE WELL ID
~Curve Information Block
DEPT.FT            0 000 00 00: Depth
DCAL.in                       : CDL Caliper
RHOB.g/cc                     : CDL Bulk Density
RHOC.g/cc                     : CDL Density Correction
DPOR.pu                       : CDL Density Porosity
GR.GAPI                       : Gamma Ray
NPOR.pu                       : Neutron Porosity
~Parameter Information Block
~A  Depth       DCAL        RHOB        RHOC        DPOR         GR         NPOR    
# ...
   326.4000      7.9264      2.6289      0.1391      1.2807    152.8167     26.6113
   326.5000      7.9683      2.6427      0.1915      0.4420    151.0070     26.5179
   326.6000      7.9683      2.6347      0.1479      0.9275    153.8629     26.6664
   326.7000      7.9683      2.6122      0.1026      2.2907    159.1593     26.7055
   326.8000      7.9394      2.5886      0.0576      3.7202    162.2446     26.2157
   326.9000      7.9394      2.5711      0.0840      4.7848    165.1463     25.9286
   327.0000      7.9132      2.5642      0.0646      5.2018    167.6142     26.4855
   327.1000      7.9132      2.5740      0.0176      4.6088    163.2596     27.1554
   327.2000      7.9132      2.5901      0.0512      3.6286    156.5734     27.0800
   327.3000      7.9006      2.5925      0.0686      3.4872    157.2397     26.7760
   327.4000      7.9006      2.5911      0.0187      3.5707    165.8886     26.9207
   327.5000      7.9492      2.6020      0.1202      2.9113    175.1287     27.2867
   327.6000      7.9492      2.6099      0.1098      2.4293    178.4045     27.5150
   327.7000      7.9492      2.6050      0.0690      2.7264    173.9768     27.6193
   327.8000      7.9358      2.5917      0.1153      3.5347    165.6485     27.7020
   327.9000      7.9358      2.5769      0.0266      4.4312    162.2355     27.6236
   328.0000      7.9200      2.5720      0.1237      4.7248    167.3896     27.4652
   328.1000      7.9200      2.5704      0.0969      4.8228    172.4789     27.6507
   328.2000      7.9200      2.5646      0.0486      5.1730    169.4561     28.1284
   328.3000      7.9094      2.5663      0.0816      5.0725    163.1139     28.2769
   328.4000      7.9094      2.5806      0.0898      4.2037    163.3652     28.0886
   328.5000      7.9156      2.5951      0.1582      3.3245    168.3326     28.2251
   328.6000      7.9156      2.5942      0.1613      3.3844    170.2393     28.6763
   328.7000      7.9156      2.5772      0.1847      4.4120    167.6997     28.9809
   328.8000      7.9206      2.5584      0.0883      5.5532    164.5050     29.0012
   328.9000      7.9206      2.5508      0.0760      6.0143    164.5786     28.6671
   329.0000      7.8555      2.5495      0.0747      6.0921    163.5600     28.1676
   329.1000      7.8555      2.5447     -0.0008      6.3806    156.3265     27.8661
   329.2000      7.8555      2.5386      0.0509      6.7514    149.9417     27.8474
   329.3000      7.8805      2.5298      0.0586      7.2862    148.2130     27.9803
   329.4000      7.8805      2.5185      0.0513      7.9685    145.2775     28.0702
   329.5000      7.9271      2.5262      0.0338      7.5010    143.3179     27.9416
   329.6000      7.9271      2.5700      0.0817      4.8470    146.7181     27.4537
   329.7000      7.9271      2.6248      0.1310      1.5288    148.8773     26.7942
   329.8000      7.9273      2.6483      0.1651      0.1035    148.8220     26.5939
   329.9000      7.9273      2.6328      0.1479      1.0443    150.8195     27.0790
   330.0000      7.8695      2.6058      0.1418      2.6798    150.1563     27.7052
   330.1000      7.8695      2.5861      0.1438      3.8725    144.7593     27.9492
   330.2000      7.8695      2.5653      0.0946      5.1349    139.1031     27.7205
   330.3000      7.8548      2.5358      0.0427      6.9203    135.5252     27.2881
   330.4000      7.8548      2.5056      0.0323      8.7513    135.3747     26.9568
   330.5000      7.8621      2.4877      0.0114      9.8347    138.4704     26.8005
   330.6000      7.8621      2.4902     -0.0012      9.6832    141.2860     26.5400
   330.7000      7.8621      2.5065      0.0813      8.6958    140.7838     26.0187
   330.8000      7.8800      2.5234      0.0867      7.6716    136.2411     25.3997
   330.9000      7.8800      2.5493      0.0896      6.1044    129.6681     24.7346
   331.0000      7.9225      2.6021      0.1746      2.9055    123.6414     23.8120
   331.1000      7.9225      2.6783      0.2409     -1.7146    118.7961     22.7374
   331.2000      7.9225      2.7504      0.3600     -6.0841    113.1888     21.9946
   331.3000      7.8552      2.7888      0.3201     -8.4110    107.7371     21.7533
   331.4000      7.8552      2.7952      0.2918     -8.8013    106.7255     21.8722
   331.5000      7.7863      2.7830      0.2803     -8.0594    110.6925     22.3295
   331.6000      7.7863      2.7477      0.2110     -5.9202    115.8489     22.8559
   331.7000      7.7863      2.6944      0.1492     -2.6915    119.0865     22.9681
   331.8000      7.7984      2.6474      0.1089      0.1604    119.8794     22.7128
   331.9000      7.7984      2.6114      0.1256      2.3377    119.5595     22.4856
   332.0000      7.7957      2.5846      0.0528      3.9663    120.9811     22.3833
   332.1000      7.7957      2.5893      0.0778      3.6779    125.9539     22.4419
   332.2000      7.7957      2.6228      0.1927      1.6457    132.9231     22.7543
   332.3000      7.9049      2.6403      0.1762      0.5868    140.4351     23.2548
   332.4000      7.9049      2.6194      0.1479      1.8554    149.2312     23.9056
   332.5000      7.9301      2.5746      0.0734      4.5726    158.9615     24.6281
   332.6000      7.9301      2.5226      0.0421      7.7226    165.9719     25.3719
   332.7000      7.9301      2.4761     -0.0312     10.5380    168.0034     26.0324
   332.8000      7.9432      2.4522     -0.0556     11.9867    166.1457     26.2862
   332.9000      7.9432      2.4543     -0.0434     11.8592    163.4719     26.1475
   333.0000      8.0282      2.4654     -0.0165     11.1879    164.4029     26.0443
   333.1000      8.0282      2.4757      0.0053     10.5637    168.7060     26.1281
   333.2000      8.0282      2.4938      0.0331      9.4677    170.1347     26.3128
   333.3000      8.0296      2.5230      0.0494      7.6993    166.0550     26.7654
   333.4000      8.0296      2.5535      0.0660      5.8494    161.1120     27.3589
   333.5000      8.0248      2.5779      0.0942      4.3707    160.7917     27.6451
   333.6000      8.0248      2.5878      0.0986      3.7681    164.9291     27.6535
   333.7000      8.0248      2.5773      0.0634      4.4055    167.8338     27.6908
   333.8000      8.0198      2.5615      0.0484      5.3611    167.0015     27.9875
   333.9000      8.0198      2.5592      0.0562      5.5028    163.9747     28.6633
   334.0000      7.9830      2.5678      0.0755      4.9833    159.9865     29.3312
   334.1000      7.9830      2.5806      0.0843      4.2087    159.1202     29.5212
   334.2000      7.9830      2.5980      0.0731      3.1496    162.8921     29.4540
   334.3000      7.9523      2.6161      0.1084      2.0543    166.5026     29.5643
   334.4000      7.9523      2.6304      0.0583      1.1902    167.6776     29.6844
   334.5000      7.9528      2.6409      0.0869      0.5489    167.3641     29.3694
   334.6000      7.9528      2.6366      0.1219      0.8133    163.7285     28.5908
   334.7000      7.9528      2.6071      0.1036      2.5971    158.9064     27.7437
   334.8000      7.9661      2.5632      0.0861      5.2604    159.2894     27.1762
   334.9000      7.9661      2.5259      0.0425      7.5203    166.1088     26.9358
   335.0000      7.9605      2.5110      0.0526      8.4261    173.0367     26.9481
   335.1000      7.9605      2.5131      0.0349      8.2948    174.2030     27.1995
   335.2000      7.9605      2.5095      0.0721      8.5142    171.7576     27.3967
   335.3000      7.9709      2.4874      0.0098      9.8555    169.9830     27.0769
   335.4000      7.9709      2.4612      0.0236     11.4435    166.7915     26.5596
   335.5000      8.0094      2.4463      0.0670     12.3481    162.0097     26.4206
   335.6000      8.0094      2.4395      0.0761     12.7563    160.4713     26.3787
   335.7000      8.0094      2.4313      0.1418     13.2528    159.4948     26.1221
   335.8000      8.0284      2.4153      0.1526     14.2219    156.3595     25.7818
   335.9000      8.0284      2.4018      0.1202     15.0415    154.9268     25.3700
