~Version Information
VERS.                      2.0: CWLS Log ASCII Standard - VERSION 2.0
WRAP.                       NO: One line per depth step
~Well Information Block
STRT.FT                -7.0000: 
STOP.FT              2517.5000: 
STEP.FT                 0.2500: 
NULL.                -999.2500: 
COMP.          Pioneer Natural Resources: COMPANY
WELL.          Horsefeathers 24-34: WELL
FLD.           Purgatoire River: FIELD
LOC.           183' FSL & 1570' FWL: LOCATION
CNTY.               Las Animas: COUNTY
SRVC.                         : SERVICE COMPANY
DATE.          Fri Mar 17 10:06:37 2006: LOG DATE
UWI.           05 071 08675 00: UNIQUE WELL ID
STAT.                       CO: STATE
~Curve Information Block
DEPT.FT            0 000 00 00: Depth
GR.GAPI                       : Gamma Ray
CCL.                          : Casing Collar Locator
TT3.usec                      : CBL 3' Travel Time
AMP3.mV                       : CBL 3' Amplitude
~Parameter Information Block
~A  Depth        GR         CCL         TT3         AMP3    
# ...
  1802.0000    157.4121      0.0000    682.7932      4.4843
  1802.2500    155.8165      0.0000    685.8639      4.4894
  1802.5000    154.2289      0.0000    690.4442      4.5007
  1802.7500    152.1937      0.0000    698.8457      4.5175
  1803.0000    148.4856      0.0000    710.2324      4.5498
  1803.2500    142.3974      0.0000    721.0350      4.6073
  1803.5000    134.4076      0.0000    727.4977      4.6886
  1803.7500    125.9126      0.0000    727.0090      4.7782
  1804.0000    118.5798      0.0000    717.7458      4.8545
  1804.2500    113.7665      0.0000    698.9472      4.9063
  1804.5000    112.2486      0.0000    672.4223      4.9473
  1804.7500    114.2020      0.0000    642.4472      5.0119
  1805.0000    119.1014      0.0000    612.9097      5.1247
  1805.2500    125.5231      0.0000    585.2332      5.2688
  1805.5000    131.3463      0.0000    560.0184      5.3916
  1805.7500    134.7485      0.0000    539.8690      5.4479
  1806.0000    135.4827      0.0000    529.1215      5.4345
  1806.2500    135.1664      0.0000    529.8729      5.3817
  1806.5000    135.8697      0.0000    538.2266      5.3215
  1806.7500    138.1154      0.0000    545.3605      5.2661
  1807.0000    140.5468      0.0000    543.5976      5.2078
  1807.2500    141.6396      0.0000    532.0155      5.1329
  1807.5000    141.0199      0.0000    516.0442      5.0353
  1807.7500    138.8774      0.0000    501.9577      4.9220
  1808.0000    135.1993      0.0000    492.5034      4.8082
  1808.2500    130.3484      0.0000    486.9510      4.7072
  1808.5000    125.5964      0.0000    483.5006      4.6253
  1808.7500    122.1697      0.0000    480.9002      4.5628
  1809.0000    120.0155      0.0000    478.6063      4.5170
  1809.2500    117.9860      0.0000    476.2980      4.4836
  1809.5000    114.9596      0.0000    473.4512      4.4569
  1809.7500    110.4996      0.0000    469.2569      4.4332
  1810.0000    104.9949      0.0000    463.0280      4.4115
  1810.2500     99.6996      0.0000    454.9141      4.3906
  1810.5000     96.2080      0.0000    446.2581      4.3691
  1810.7500     95.2995      0.0000    438.9570      4.3485
  1811.0000     96.4485      0.0000    434.2645      4.3330
  1811.2500     98.7159      0.0000    432.1858      4.3240
  1811.5000    101.9002      0.0000    431.8593      4.3152
  1811.7500    106.5112      0.0000    432.2853      4.2997
  1812.0000    112.6505      0.0000    432.7700      4.2806
  1812.2500    119.1164      0.0000    433.0345      4.2706
  1812.5000    123.9080      0.0000    433.2329      4.2798
  1812.7500    125.7995      0.0000    434.1731      4.3062
  1813.0000    125.1982      0.0000    437.6897      4.3410
  1813.2500    123.1647      0.0000    446.5423      4.3811
  1813.5000    120.0514      0.0000    462.8103      4.4333
  1813.7500    115.8300      0.0000    484.9286      4.5038
  1814.0000    111.4470      0.0000    506.2961      4.5861
  1814.2500    109.0982      0.0000    518.9868      4.6572
  1814.5000    111.0962      0.0000    520.9260      4.6896
  1814.7500    118.3946      0.0000    518.9433      4.6694
  1815.0000    129.5381      0.0000    522.9271      4.6169
  1815.2500    140.9386      0.0000    537.0202      4.5892
  1815.5000    149.0192      0.0000    557.5101      4.6444
  1815.7500    152.5724      0.0000    578.4856      4.7778
  1816.0000    152.8171      0.0000    597.2119      4.9119
  1816.2500    151.4137      0.0000    613.8646      4.9737
  1816.5000    149.1218      0.0000    628.6522      4.9651
  1816.7500    146.2323      0.0000    640.6550      4.9363
  1817.0000    143.3030      0.0000    648.9426      4.9202
  1817.2500    140.9374     -1.8329    653.8389      4.9182
  1817.5000    139.3016      0.0000    655.8425      4.9279
  1817.7500    138.3132      0.0000    653.4021      4.9636
  1818.0000    138.1072      0.0000    644.5889      5.0504
  1818.2500    138.9943      0.0000    632.2148      5.1923
  1818.5000    141.0549      0.0000    624.5632      5.3385
  1818.7500    143.9491      0.0000    628.7907      5.4047
  1819.0000    146.9261      0.0000    644.3491      5.3522
  1819.2500    148.8118      0.0000    663.9752      5.2321
  1819.5000    148.2889      0.0000    680.3817      5.1346
  1819.7500    144.7693      0.0000    691.1585      5.1114
  1820.0000    139.0940      0.0000    697.8121      5.1552
  1820.2500    133.0667      0.0000    702.0536      5.2291
  1820.5000    128.1454      0.0000    704.2303      5.2978
  1820.7500    124.7034      0.0000    704.4129      5.3401
  1821.0000    122.4092      0.0000    703.3420      5.3496
  1821.2500    120.9437      0.0000    701.7534      5.3324
  1821.5000    120.3179      0.0000    699.2131      5.3021
  1821.7500    120.7982      0.0000    693.3723      5.2741
  1822.0000    122.5848      0.0000    680.1810      5.2586
  1822.2500    125.2570      0.0000    656.1081      5.2559
  1822.5000    127.5303      0.0000    622.2548      5.2575
  1822.7500    127.9849      0.0000    586.8849      5.2544
  1823.0000    126.2664      0.0000    562.1901      5.2438
  1823.2500    123.4507      0.0000    556.8422      5.2287
  1823.5000    121.1466      0.0000    571.1099      5.2099
  1823.7500    120.1857      0.0000    598.6223      5.1821
  1824.0000    120.0275      0.0000    631.4338      5.1390
  1824.2500    119.3633      0.0000    662.8116      5.0801
  1824.5000    117.2730      0.0000    687.1908      5.0134
  1824.7500    113.8382      0.0000    700.8300      4.9517
  1825.0000    109.9493      0.0000    703.8254      4.9052
  1825.2500    106.8536      0.0000    700.5610      4.8772
  1825.5000    105.9020      0.0000    697.1042      4.8660
  1825.7500    108.3758      0.0000    697.2576      4.8680
  1826.0000    114.8789      0.0000    700.5015      4.8781
  1826.2500    124.5261      0.0000    703.6624      4.8871
  1826.5000    135.1328      0.0000    704.4120      4.8824
  1826.7500    144.5475      0.0000    702.9713      4.8549
  1827.0000    151.6529      0.0000    700.9451      4.8112
  1827.2500    156.3700      0.0000    699.5093      4.7715
  1827.5000    159.3050      0.0000    698.8408      4.7517
  1827.7500    161.3720      0.0000    698.5961      4.7486
  1828.0000    163.2192      0.0000    698.3922      4.7463
  1828.2500    164.8602      0.0000    697.8916      4.7322
  1828.5000    166.0339      0.0000    696.7622      4.7028
  1828.7500    166.7686      0.0000    694.9364      4.6605
  1829.0000    167.3336      0.0000    692.8020      4.6083
  1829.2500    167.7098      0.0000    690.4297      4.5474
  1829.5000    167.4576      0.0000    685.7401      4.4778
  1829.7500    166.1475      0.0000    673.8698      4.4026
  1830.0000    163.7036      0.0000    650.5029      4.3309
  1830.2500    160.3365      0.0000    618.3182      4.2750
  1830.5000    156.3798      0.0000    590.1680      4.2425
  1830.7500    152.0908      0.0000    582.6802      4.2308
  1831.0000    147.2666      0.0000    603.4086      4.2300
  1831.2500    141.0550      0.0000    643.8731      4.2306
  1831.5000    132.5793      0.0000    686.0853      4.2286
  1831.7500    122.1694      0.0000    715.5236      4.2274
  1832.0000    111.9010      0.0000    728.0651      4.2348
  1832.2500    104.5812      0.0000    727.6741      4.2565
  1832.5000    101.8758      0.0000    720.8699      4.2905
  1832.7500    103.0415      0.0000    713.0344      4.3303
  1833.0000    105.2494      0.0000    707.0569      4.3705
  1833.2500    105.4063      0.0000    703.4937      4.4064
  1833.5000    102.2773      0.0000    701.5934      4.4336
  1833.7500     97.1688      0.0000    700.4098      4.4527
  1834.0000     92.5512      0.0000    699.3392      4.4736
  1834.2500     90.0312      0.0000    698.1863      4.5088
  1834.5000     89.6366      0.0000    697.0659      4.5609
  1834.7500     90.5773      0.0000    696.3123      4.6188
  1835.0000     92.0190      0.0000    696.3976      4.6653
  1835.2500     93.1648      0.0000    697.7859      4.6860
