~Version Information
VERS.                      2.0: CWLS Log ASCII Standard - VERSION 2.0
WRAP.                       NO: One line per depth step
~Well Information Block
STRT.FT               239.2000: 
STOP.FT              1618.0000: 
STEP.FT                 0.1000: 
NULL.                -999.2500: 
COMP.          Pioneer Natural Resources: COMPANY
WELL.          Daytona 31-14 Tr: WELL
FLD.           Purgatoire River: FIELD
LOC.           683' FNL & 1943' FEL: LOCATION
CNTY.               Las Animas: COUNTY
SRVC.                         : SERVICE COMPANY
DATE.          Fri Jan 27 14:32:28 2006: LOG DATE
UWI.           05 071 08681 00: UNIQUE WELL ID
STAT.                 Colorado: STATE
~Curve Information Block
DEPT.FT            0 000 00 00: Depth
DCAL.in                       : CDL Caliper
RHOB.g/cc                     : CDL Bulk Density
RHOC.g/cc                     : CDL Density Correction
DPOR.pu                       : CDL Density Porosity
GR.GAPI                       : Gamma Ray
~Parameter Information Block
~A  Depth       DCAL        RHOB        RHOC        DPOR         GR     
# ...
   250.4000   -999.2500   -999.2500   -999.2500   -999.2500     82.3714
   250.5000   -999.2500   -999.2500   -999.2500   -999.2500     83.0980
   250.6000   -999.2500   -999.2500   -999.2500   -999.2500     82.5516
   250.7000   -999.2500   -999.2500   -999.2500   -999.2500     82.9526
   250.8000   -999.2500   -999.2500   -999.2500   -999.2500     83.0007
   250.9000   -999.2500   -999.2500   -999.2500   -999.2500     80.8039
   251.0000   -999.2500   -999.2500   -999.2500   -999.2500     78.5588
   251.1000   -999.2500   -999.2500   -999.2500   -999.2500     81.5507
   251.2000   -999.2500   -999.2500   -999.2500   -999.2500     87.4247
   251.3000   -999.2500   -999.2500   -999.2500   -999.2500     88.2038
   251.4000   -999.2500   -999.2500   -999.2500   -999.2500     85.3153
   251.5000   -999.2500   -999.2500   -999.2500   -999.2500     83.6003
   251.6000   -999.2500   -999.2500   -999.2500   -999.2500     81.8227
   251.7000   -999.2500   -999.2500   -999.2500   -999.2500     81.6127
   251.8000   -999.2500   -999.2500   -999.2500   -999.2500     85.4865
   251.9000   -999.2500   -999.2500   -999.2500   -999.2500     88.2241
   252.0000   -999.2500   -999.2500   -999.2500   -999.2500     86.7484
   252.1000   -999.2500   -999.2500   -999.2500   -999.2500     85.5910
   252.2000   -999.2500   -999.2500   -999.2500   -999.2500     85.6641
   252.3000   -999.2500   -999.2500   -999.2500   -999.2500     85.1602
   252.4000   -999.2500   -999.2500   -999.2500   -999.2500     85.6445
   252.5000   -999.2500   -999.2500   -999.2500   -999.2500     86.7817
   252.6000   -999.2500   -999.2500   -999.2500   -999.2500     85.7968
   252.7000   -999.2500   -999.2500   -999.2500   -999.2500     82.0429
   252.8000   -999.2500   -999.2500   -999.2500   -999.2500     76.4410
   252.9000   -999.2500   -999.2500   -999.2500   -999.2500     72.6390
   253.0000   -999.2500   -999.2500   -999.2500   -999.2500     73.5225
   253.1000   -999.2500   -999.2500   -999.2500   -999.2500     78.0004
   253.2000   -999.2500   -999.2500   -999.2500   -999.2500     84.2777
   253.3000   -999.2500   -999.2500   -999.2500   -999.2500     87.6147
   253.4000   -999.2500   -999.2500   -999.2500   -999.2500     83.8861
   253.5000   -999.2500   -999.2500   -999.2500   -999.2500     78.6415
   253.6000   -999.2500   -999.2500   -999.2500   -999.2500     77.6005
   253.7000   -999.2500   -999.2500   -999.2500   -999.2500     77.7426
   253.8000   -999.2500   -999.2500   -999.2500   -999.2500     74.3409
   253.9000   -999.2500   -999.2500   -999.2500   -999.2500     67.6328
   254.0000   -999.2500   -999.2500   -999.2500   -999.2500     61.3222
   254.1000   -999.2500   -999.2500   -999.2500   -999.2500     57.5343
   254.2000   -999.2500   -999.2500   -999.2500   -999.2500     58.3905
   254.3000   -999.2500   -999.2500   -999.2500   -999.2500     65.3992
   254.4000   -999.2500   -999.2500   -999.2500   -999.2500     72.5617
   254.5000   -999.2500   -999.2500   -999.2500   -999.2500     72.5200
   254.6000   -999.2500   -999.2500   -999.2500   -999.2500     67.8971
   254.7000   -999.2500   -999.2500   -999.2500   -999.2500     63.6107
   254.8000   -999.2500   -999.2500   -999.2500   -999.2500     60.3178
   254.9000   -999.2500   -999.2500   -999.2500   -999.2500     57.8615
   255.0000   -999.2500   -999.2500   -999.2500   -999.2500     56.7499
   255.1000   -999.2500   -999.2500   -999.2500   -999.2500     57.4529
   255.2000   -999.2500   -999.2500   -999.2500   -999.2500     60.9524
   255.3000   -999.2500   -999.2500   -999.2500   -999.2500     67.3200
   255.4000   -999.2500   -999.2500   -999.2500   -999.2500     73.3584
   255.5000   -999.2500   -999.2500   -999.2500   -999.2500     74.5593
   255.6000   -999.2500   -999.2500   -999.2500   -999.2500     70.5606
   255.7000   -999.2500   -999.2500   -999.2500   -999.2500     65.7530
   255.8000   -999.2500   -999.2500   -999.2500   -999.2500     64.2479
   255.9000   -999.2500   -999.2500   -999.2500   -999.2500     65.1269
   256.0000      8.2587   -999.2500   -999.2500   -999.2500     65.5832
   256.1000      8.2587   -999.2500     -0.5587   -999.2500     66.3817
   256.2000      8.2587   -999.2500     -0.4353   -999.2500     70.6156
   256.3000      8.2587   -999.2500     -0.4624   -999.2500     78.5126
   256.4000      8.2587   -999.2500     -0.4376   -999.2500     84.4741
   256.5000      8.2606   -999.2500     -0.3563   -999.2500     82.5125
   256.6000      8.2606      2.1670     -0.4211     29.2729     72.9252
   256.7000      8.2606      2.1559     -0.4368     29.9471     63.5214
   256.8000      8.2597      2.1390     -0.3455     30.9677     61.1746
   256.9000      8.2597      2.1185     -0.5211     32.2124     63.5671
   257.0000      8.2597      2.1273     -0.5238     31.6785     67.1214
   257.1000      8.2597      2.1832     -0.4563     28.2900     70.6646
   257.2000      8.2597      2.2462     -0.3246     24.4738     69.8705
   257.3000      8.2611      2.2611     -0.3464     23.5693     64.0544
   257.4000      8.2611      2.2231     -0.4053     25.8714     59.1529
   257.5000      8.2625      2.1765     -0.4446     28.6998     58.0831
   257.6000      8.2625      2.1619     -0.4549     29.5789     59.5331
   257.7000      8.2625      2.1783     -0.4381     28.5900     62.9118
   257.8000      8.2629      2.1938     -0.3940     27.6483     67.4086
   257.9000      8.2629      2.1933     -0.4665     27.6760     70.0698
   258.0000      8.2623      2.1886     -0.4146     27.9622     69.0820
   258.1000      8.2623      2.1848     -0.3862     28.1918     67.1067
   258.2000      8.2623      2.1839     -0.4944     28.2489     66.8823
   258.3000      8.2622      2.1906     -0.3881     27.8443     67.9149
   258.4000      8.2622      2.1916     -0.3998     27.7813     69.5678
   258.5000      8.2642      2.1755     -0.4676     28.7595     71.7347
   258.6000      8.2642      2.1535     -0.4420     30.0932     72.7018
   258.7000      8.2642      2.1446     -0.4838     30.6286     71.6380
   258.8000      8.2654      2.1575     -0.4132     29.8502     71.1229
   258.9000      8.2654      2.1786     -0.4254     28.5701     73.0677
   259.0000      8.2640      2.1840     -0.3708     28.2426     75.9250
   259.1000      8.2640      2.1684     -0.3972     29.1889     76.4795
   259.2000      8.2640      2.1558     -0.5120     29.9528     74.7728
   259.3000      8.2639      2.1621     -0.4200     29.5705     73.5069
   259.4000      8.2639      2.1747     -0.4432     28.8077     72.1548
   259.5000      8.2665      2.1825     -0.4387     28.3352     72.3084
   259.6000      8.2665      2.1869     -0.4713     28.0659     77.0514
   259.7000      8.2665      2.1894     -0.3905     27.9169     81.1491
   259.8000      8.2640      2.1931     -0.3969     27.6879     81.7356
   259.9000      8.2640      2.2054     -0.3819     26.9476     83.2324
   260.0000      8.2649      2.2161     -0.3964     26.2983     85.1198
   260.1000      8.2649      2.2099     -0.3732     26.6741     82.3091
   260.2000      8.2649      2.1962     -0.4859     27.5018     75.9506
   260.3000      8.2658      2.1951     -0.4241     27.5722     73.6404
   260.4000      8.2658      2.1975     -0.3744     27.4242     77.1418
   260.5000      8.2662      2.1869     -0.4397     28.0690     83.7758
   260.6000      8.2662      2.1746     -0.4385     28.8109     93.8375
   260.7000      8.2662      2.1773     -0.4396     28.6470    102.3579
   260.8000      8.2666      2.1880     -0.3799     27.9986    100.9656
   260.9000      8.2666      2.1915     -0.4224     27.7907     93.0573
   261.0000      8.2671      2.1891     -0.4666     27.9309     86.2434
   261.1000      8.2671      2.1907     -0.4399     27.8355     80.3157
   261.2000      8.2671      2.1997     -0.4244     27.2897     75.8918
   261.3000      8.2678      2.2198     -0.4628     26.0755     77.9042
   261.4000      8.2678      2.2483     -0.3737     24.3432     82.7654
   261.5000      8.2663      2.2658     -0.3473     23.2856     81.7955
