~Version Information
VERS.                      2.0: CWLS Log ASCII Standard - VERSION 2.0
WRAP.                       NO: One line per depth step
~Well Information Block
STRT.FT               575.0000: 
STOP.FT              1558.5000: 
STEP.FT                 0.2500: 
NULL.                -999.2500: 
COMP.          Pioneer Natural Resources: COMPANY
WELL.          McClaren 13-34 Tr: WELL
FLD.           Purgatoire River: FIELD
LOC.           1934' FSL & 826' FWL: LOCATION
PROV.                 Colorado: PROVINCE
CNTY.               Las Animas: COUNTRY
SRVC.                Patterson: SERVICE COMPANY
DATE.          Mon Jul 11 20:01:13 2005: LOG DATE
UWI.           05 071 08437 00: UNIQUE WELL ID
~Curve Information Block
DEPT.FT            0 000 00 00: Depth
SN.Ohm-m                      : IEL Short Normal
SP.mV                         : IEL Spontaneous Potential
DIR.Ohm-m                     : IEL Induction Resistivity
GR.GAPI                       : Gamma Ray
~Parameter Information Block
~A  Depth        SN          SP         DIR          GR     
   575.0000   2000.0000   2000.0000      7.9461    157.2496
   575.2500   2000.0000   2000.0000      7.8505    156.1062
   575.5000   2000.0000   2000.0000      7.7806    152.1586
   575.7500   2000.0000   2000.0000      7.7368    148.6343
   576.0000   2000.0000   2000.0000      7.7233    143.4909
   576.2500   2000.0000   2000.0000      7.7505    141.0715
   576.5000   2000.0000   2000.0000      7.8304    139.8232
   576.7500   2000.0000   2000.0000      7.9667    140.2804
   577.0000   2000.0000   2000.0000      8.1458    141.3530
   577.2500   2000.0000   2000.0000      8.3350    141.5769
   577.5000   2000.0000   2000.0000      8.4906    141.0967
   577.7500   2000.0000   2000.0000      8.5750    140.6756
   578.0000   2000.0000   2000.0000      8.5757    140.6457
   578.2500   2000.0000   2000.0000      8.5137    141.2699
   578.5000   2000.0000   2000.0000      8.4329    143.0417
   578.7500   2000.0000   2000.0000      8.3802    144.2526
   579.0000   2000.0000   2000.0000      8.3852    144.9470
   579.2500   2000.0000   2000.0000      8.4479    144.4716
   579.5000   2000.0000   2000.0000      8.5369    143.2679
   579.7500   2000.0000   2000.0000      8.6033    142.9600
   580.0000   2000.0000   2000.0000      8.6069    144.1930
   580.2500   2000.0000   2000.0000      8.5396    146.2398
   580.5000   2000.0000   2000.0000      8.4265    150.5365
   580.7500   2000.0000   2000.0000      8.3047    153.5031
   581.0000   2000.0000   2000.0000      8.2019    156.6743
   581.2500   2000.0000   2000.0000      8.1305    157.3874
   581.5000   2000.0000   2000.0000      8.0932    156.5721
   581.7500   2000.0000   2000.0000      8.0929    155.3329
   582.0000   2000.0000   2000.0000      8.1356    152.6910
   582.2500   2000.0000   2000.0000      8.2260    149.8461
   582.5000   2000.0000   2000.0000      8.3620    143.2164
   582.7500   2000.0000   2000.0000      8.5308    137.7691
   583.0000   2000.0000   2000.0000      8.7095    129.9882
   583.2500   2000.0000   2000.0000      8.8712    125.6315
   583.5000   2000.0000   2000.0000      8.9929    119.4703
   583.7500   2000.0000   2000.0000      9.0640    114.6358
   584.0000   2000.0000   2000.0000      9.0885    105.5622
   584.2500   2000.0000   2000.0000      9.0812     98.8172
   584.5000   2000.0000   2000.0000      9.0597     89.4206
   584.7500   2000.0000   2000.0000      9.0374     84.5355
   585.0000   2000.0000   2000.0000      9.0202     80.2549
   585.2500   2000.0000   2000.0000      9.0079     79.8988
   585.5000   2000.0000   2000.0000      8.9988     83.9221
   585.7500   2000.0000   2000.0000      8.9941     89.8470
   586.0000   2000.0000   2000.0000      8.9991    102.7293
   586.2500   2000.0000   2000.0000      9.0211    112.6055
   586.5000   2000.0000   2000.0000      9.0668    126.2801
   586.7500   2000.0000   2000.0000      9.1400    133.3154
   587.0000   2000.0000   2000.0000      9.2393    140.4001
   587.2500   2000.0000   2000.0000      9.3560    143.3715
   587.5000   2000.0000   2000.0000      9.4709    145.8389
   587.7500   2000.0000   2000.0000      9.5528    145.9818
   588.0000   2000.0000   2000.0000      9.5610    143.5003
   588.2500   2000.0000   2000.0000      9.4590    140.2036
   588.5000   2000.0000   2000.0000      9.2410    133.8805
   588.7500   2000.0000   2000.0000      8.9495    129.6737
   589.0000   2000.0000   2000.0000      8.6635    124.8568
   589.2500   2000.0000   2000.0000      8.4600    122.8976
   589.5000   2000.0000   2000.0000      8.3825    120.6906
   589.7500   2000.0000   2000.0000      8.4285    118.5835
   590.0000   2000.0000   2000.0000      8.5550    113.4370
   590.2500   2000.0000   2000.0000      8.6955    109.0568
   590.5000   2000.0000   2000.0000      8.7891    102.7562
   590.7500   2000.0000   2000.0000      8.8116     99.6492
   591.0000   2000.0000   2000.0000      8.7921     97.3436
   591.2500   2000.0000   2000.0000      8.8062     97.3708
   591.5000   2000.0000   2000.0000      8.9575     99.3542
   591.7500   2000.0000   2000.0000      9.3577    101.4969
   592.0000   2000.0000   2000.0000     10.1039    104.7525
   592.2500   2000.0000   2000.0000     11.2323    106.3566
   592.5000   2000.0000   2000.0000     12.6210    107.9211
   592.7500   2000.0000   2000.0000     13.9035    109.0527
   593.0000   2000.0000   2000.0000     14.6168    112.0324
   593.2500   2000.0000   2000.0000     14.6246    114.8181
   593.5000   2000.0000   2000.0000     14.2609    118.6059
   593.7500   2000.0000   2000.0000     14.0227    119.7573
   594.0000   2000.0000   2000.0000     14.3857    118.7048
   594.2500   2000.0000   2000.0000     16.0624    116.6631
   594.5000   2000.0000   2000.0000     21.1934    113.4105
   594.7500   2000.0000   2000.0000     43.2168    112.1418
   595.0000   2000.0000   2000.0000 100000.0000    112.1733
   595.2500   2000.0000   2000.0000 100000.0000    112.8088
   595.5000   2000.0000   2000.0000 100000.0000    112.4682
   595.7500   2000.0000   2000.0000 100000.0000    110.4879
   596.0000   2000.0000   2000.0000 100000.0000    105.6366
   596.2500   2000.0000   2000.0000 100000.0000    102.8376
   596.5000   2000.0000   2000.0000 100000.0000    102.5219
   596.7500   2000.0000   2000.0000 100000.0000    105.8598
   597.0000   2000.0000   2000.0000 100000.0000    115.2478
   597.2500   2000.0000   2000.0000 100000.0000    122.6421
   597.5000   2000.0000   2000.0000 100000.0000    131.9153
   597.7500   2000.0000   2000.0000 100000.0000    126.5416
   598.0000   2000.0000   2000.0000 100000.0000    128.0776
   598.2500   2000.0000   2000.0000 100000.0000    127.5393
   598.5000   2000.0000   2000.0000 100000.0000    126.0214
   598.7500   2000.0000   2000.0000     32.6350    116.1135
   599.0000   2000.0000   2000.0000      6.9774    114.7380
   599.2500   2000.0000   2000.0000      4.1433    113.5549
   599.5000   2000.0000   2000.0000      3.4018    111.3406
   599.7500   2000.0000   2000.0000      3.4017    101.5632
   600.0000   2000.0000   2000.0000      3.9040    101.2473
   600.2500   2000.0000   2000.0000      4.9607    102.6405
   600.5000   2000.0000   2000.0000      6.9100    107.0679
   600.7500   2000.0000   2000.0000     10.9437    101.7179
   601.0000   2000.0000   2000.0000     22.7303    107.4700
   601.2500   2000.0000   2000.0000    157.9947    111.3490
   601.5000   2000.0000   2000.0000 100000.0000    116.8961
   601.7500   2000.0000   2000.0000 100000.0000    109.0463
   602.0000   2000.0000   2000.0000 100000.0000    111.5816
   602.2500   2000.0000   2000.0000    247.5067    112.1417
   602.5000   2000.0000   2000.0000     39.1283    112.1258
   602.7500   2000.0000   2000.0000     22.9159    112.2407
   603.0000   2000.0000   2000.0000     17.9873    113.1593
   603.2500   2000.0000   2000.0000     16.1194    113.9400
   603.5000   2000.0000   2000.0000     15.4122    114.3531
   603.7500   2000.0000   2000.0000     15.1918    113.9844
   604.0000   2000.0000   2000.0000     15.1935    113.3678
   604.2500   2000.0000   2000.0000     15.3445    113.5430
   604.5000   2000.0000   2000.0000     15.6943    115.0212
   604.7500   2000.0000   2000.0000     16.3783    116.7362
   605.0000   2000.0000   2000.0000     17.5683    120.4558
   605.2500   2000.0000   2000.0000     19.3726    123.7831
   605.5000   2000.0000   2000.0000     21.6629    129.6472
   605.7500   2000.0000   2000.0000     23.9046    133.5328
   606.0000   2000.0000   2000.0000     25.3179    138.2231
   606.2500   2000.0000   2000.0000     25.5053    140.1467
   606.5000   2000.0000   2000.0000     24.7652    140.5113
   606.7500   2000.0000   2000.0000     23.6311    138.5336
   607.0000   2000.0000   2000.0000     22.4107    131.8447
   607.2500   2000.0000   2000.0000     21.1789    125.5564
   607.5000   2000.0000   2000.0000     19.9666    115.8489
   607.7500   2000.0000   2000.0000     18.8672    110.6791
   608.0000   2000.0000   2000.0000     18.0044    106.4788
   608.2500   2000.0000   2000.0000     17.4502    106.4476
