~Version Information
VERS.                      2.0: CWLS Log ASCII Standard - VERSION 2.0
WRAP.                       NO: One line per depth step
~Well Information Block
STRT.FT               575.0000: 
STOP.FT              1558.5000: 
STEP.FT                 0.2500: 
NULL.                -999.2500: 
COMP.          Pioneer Natural Resources: COMPANY
WELL.          McClaren 13-34 Tr: WELL
FLD.           Purgatoire River: FIELD
LOC.           1934' FSL & 826' FWL: LOCATION
PROV.                 Colorado: PROVINCE
CNTY.               Las Animas: COUNTRY
SRVC.                Patterson: SERVICE COMPANY
DATE.          Mon Jul 11 20:01:13 2005: LOG DATE
UWI.           05 071 08437 00: UNIQUE WELL ID
~Curve Information Block
DEPT.FT            0 000 00 00: Depth
SN.Ohm-m                      : IEL Short Normal
SP.mV                         : IEL Spontaneous Potential
DIR.Ohm-m                     : IEL Induction Resistivity
GR.GAPI                       : Gamma Ray
~Parameter Information Block
~A  Depth        SN          SP         DIR          GR     
# ...
  1211.5000     17.3070    129.3605      0.2658    149.4187
  1211.7500     21.5490    130.7181      0.3218    144.0950
  1212.0000     24.8345    131.5698      0.4423    134.3927
  1212.2500     27.2638    132.0082      0.6883    128.1066
  1212.5000     29.0858    132.1053      1.2650    120.1429
  1212.7500     30.4577    131.9484      3.3838    115.7843
  1213.0000     31.5022    131.6486 100000.0000    110.3318
  1213.2500     32.3855    131.3219 100000.0000    107.5260
  1213.5000     33.2536    131.0490 100000.0000    105.0665
  1213.7500     34.1128    130.8375 100000.0000    104.6728
  1214.0000     34.8169    130.6123 100000.0000    105.5179
  1214.2500     35.1944    130.2355 100000.0000    106.7957
  1214.5000     35.1819    129.5375 100000.0000    109.8602
  1214.7500     34.8848    128.3468 100000.0000    112.7217
  1215.0000     34.4348    126.5184 100000.0000    117.4875
  1215.2500     33.7558    123.9539 100000.0000    120.1509
  1215.5000     32.7052    120.5892 100000.0000    122.5658
  1215.7500     31.3969    116.3484 100000.0000    123.3854
  1216.0000     30.1030    111.1013 100000.0000    124.3905
  1216.2500     28.9621    104.6611 100000.0000    125.1942
  1216.5000     27.9390     96.8141 100000.0000    126.4576
  1216.7500     26.9611     87.3555 100000.0000    127.2129
  1217.0000     26.0184     76.1253 100000.0000    128.4022
  1217.2500     25.1358     63.0572 100000.0000    129.4867
  1217.5000     24.2890     48.2564 100000.0000    131.7499
  1217.7500     23.3919     32.0912 100000.0000    133.5947
  1218.0000     22.3343     15.2461     54.7489    136.5493
  1218.2500     20.9668     -1.3417     19.0738    138.2668
  1218.5000     19.0593    -16.7023     10.6885    139.1918
  1218.7500     16.4207    -30.1452      7.7318    137.7983
  1219.0000     13.1884    -41.4991      6.8996    131.7251
  1219.2500      9.9699    -51.1161      7.4983    125.0068
  1219.5000      7.5770    -59.6291      9.6430    111.5914
  1219.7500      6.4775    -67.6442     12.9228    101.1341
  1220.0000      6.5896    -75.5673     13.5275     85.0280
  1220.2500      7.8139    -83.6056     10.2091     75.3044
  1220.5000     10.6388    -91.8404      7.4637     64.0989
  1220.7500     15.7617   -100.2601      6.6012     59.4039
  1221.0000     22.6029   -108.7160      8.1343     56.1968
  1221.2500     28.6791   -116.8312     22.6540     55.7743
  1221.5000     31.3053   -123.9204 100000.0000     55.8560
  1221.7500     29.5394   -128.9633 100000.0000     55.6733
  1222.0000     24.3519   -130.6662 100000.0000     55.0727
  1222.2500     17.7204   -127.6427 100000.0000     54.8891
  1222.5000     11.6090   -118.7119 100000.0000     55.1794
  1222.7500      7.1641   -103.2565 100000.0000     55.3039
  1223.0000      4.4904    -81.5188 100000.0000     54.3393
  1223.2500      3.0716    -54.7042 100000.0000     52.8099
  1223.5000      2.3892    -24.8273 100000.0000     50.2644
  1223.7500      2.1447      5.6611     14.1398     49.4396
  1224.0000      2.1029     34.3643     10.1716     51.1427
  1224.2500      2.0406     59.4275     18.5422     54.9457
  1224.5000      1.9000     79.8761 100000.0000     65.3964
  1224.7500      1.8101     95.6565 100000.0000     75.3306
  1225.0000      1.8833    107.3759 100000.0000     92.1873
  1225.2500      2.1281    115.9163 100000.0000    102.1402
  1225.5000      2.6361    122.1341 100000.0000    111.3027
  1225.7500      3.7283    126.7166      4.2540    113.1859
  1226.0000      5.6957    130.1514      1.5504    112.1900
  1226.2500      8.3257    132.7501      0.9033    110.8659
  1226.5000     10.9067    134.7077      0.6816    109.6875
  1226.7500     12.8089    136.1817      0.6387    109.6420
  1227.0000     13.8708    137.3468      0.7342    110.5226
  1227.2500     14.2416    138.3815      1.0318    111.6199
  1227.5000     14.1529    139.4014      1.8549    113.7076
  1227.7500     13.8515    140.4090      5.6814    115.0644
  1228.0000     13.5124    141.3175 100000.0000    116.4426
  1228.2500     13.1563    142.0333 100000.0000    116.8267
  1228.5000     12.7098    142.5269 100000.0000    117.1454
  1228.7500     12.1691    142.8394 100000.0000    117.6935
  1229.0000     11.6718    143.0377 100000.0000    119.5415
  1229.2500     11.3552    143.1681 100000.0000    121.4462
  1229.5000     11.2238    143.2433 100000.0000    125.0412
  1229.7500     11.2212    143.2565 100000.0000    127.7276
  1230.0000     11.3265    143.2028 100000.0000    131.6184
  1230.2500     11.5486    143.0969 100000.0000    133.6485
  1230.5000     11.8652    142.9750     50.0366    135.2642
  1230.7500     12.1885    142.8811     23.6390    135.3965
  1231.0000     12.3825    142.8468     17.5084    134.6348
  1231.2500     12.2869    142.8806     14.9277    133.7617
  1231.5000     11.8079    142.9715     13.7446    132.3004
  1231.7500     11.0577    143.0979     13.5276    131.6032
  1232.0000     10.3537    143.2343     14.3068    131.8385
  1232.2500     10.0278    143.3556     16.3401    133.0061
  1232.5000     10.1798    143.4409     19.9751    135.2825
  1232.7500     10.6388    143.4744     24.9975    136.3400
  1233.0000     11.1723    143.4446     28.9376    137.0943
  1233.2500     11.5980    143.3442     27.8365    137.7740
  1233.5000     11.7803    143.1749     22.5831    140.1272
  1233.7500     11.7282    142.9532     17.2686    142.4314
  1234.0000     11.5820    142.7097     13.5221    145.8315
  1234.2500     11.4049    142.4802     11.1797    147.4165
  1234.5000     11.1410    142.2958      9.7884    148.0517
  1234.7500     10.7976    142.1778      9.0103    147.1163
  1235.0000     10.5309    142.1362      8.6332    143.9623
  1235.2500     10.5100    142.1651      8.5274    141.1714
  1235.5000     10.7831    142.2447      8.6141    136.5354
  1235.7500     11.2528    142.3497      8.8454    133.1624
  1236.0000     11.6880    142.4607      9.1871    128.0570
  1236.2500     11.8656    142.5694      9.6039    125.4614
  1236.5000     11.7688    142.6772     10.0519    124.3653
  1236.7500     11.5529    142.7861     10.4833    125.5444
  1237.0000     11.3441    142.8887     10.8639    128.3933
  1237.2500     11.1678    142.9662     11.1856    129.7503
  1237.5000     11.0539    142.9973     11.4615    130.1043
  1237.7500     11.0797    142.9717     11.7053    129.5464
  1238.0000     11.2590    142.8909     11.9143    128.5003
  1238.2500     11.5253    142.7602     12.0714    128.0459
  1238.5000     11.8204    142.5781     12.1626    127.8754
  1238.7500     12.0839    142.3347     12.1902    127.9849
  1239.0000     12.2232    142.0197     12.1699    128.2824
  1239.2500     12.1627    141.6357     12.1163    128.6884
  1239.5000     11.8930    141.2047     12.0355    130.1739
  1239.7500     11.5068    140.7630     11.9328    131.9160
  1240.0000     11.1899    140.3458     11.8241    135.0301
  1240.2500     11.1011    139.9740     11.7357    136.6511
  1240.5000     11.2475    139.6504     11.6907    137.3487
  1240.7500     11.5058    139.3653     11.6954    136.7704
  1241.0000     11.7355    139.1074     11.7387    135.8770
  1241.2500     11.8342    138.8691     11.8035    136.3510
  1241.5000     11.7791    138.6428     11.8789    139.2414
  1241.7500     11.6652    138.4137     11.9625    141.7979
  1242.0000     11.6185    138.1598     12.0558    144.2455
  1242.2500     11.7059    137.8619     12.1623    144.1689
  1242.5000     11.9602    137.5161     12.2910    142.2471
  1242.7500     12.3905    137.1341     12.4603    140.9879
  1243.0000     12.9507    136.7302     12.6944    140.7676
  1243.2500     13.5550    136.3037     13.0137    141.7571
  1243.5000     14.1476    135.8364     13.4239    143.5528
  1243.7500     14.7345    135.3072     13.9119    143.8821
  1244.0000     15.3401    134.7104     14.4530    141.8372
  1244.2500     15.9757    134.0644     15.0239    138.7058
  1244.5000     16.6418    133.4117     15.6137    132.1560
  1244.7500     17.3644    132.8111     16.2248    127.1310
