~Version Information
VERS.                      2.0: CWLS Log ASCII Standard - VERSION 2.0
WRAP.                       NO: One line per depth step
~Well Information Block
STRT.FT               260.0000: 
STOP.FT               713.2500: 
STEP.FT                 0.2500: 
NULL.                -999.2500: 
COMP.          Pioneer Natural Resources: COMPANY
WELL.           Quintessa 23-7: WELL
FLD.           Purgatoire River: FIELD
LOC.           1964' FSL & 2589' FWL--: LOCATION
PROV.                 Colorado: PROVINCE
CNTY.               Las Animas: COUNTRY
SRVC.                Patterson: SERVICE COMPANY
DATE.          Fri Nov 18 16:07:34 2005: LOG DATE
UWI.           05 071 08558 00: UNIQUE WELL ID
~Curve Information Block
DEPT.FT            0 000 00 00: Depth
SN.Ohm-m                      : IEL Short Normal
SP.mV                         : IEL Spontaneous Potential
DIR.Ohm-m                     : IEL Induction Resistivity
GR.GAPI                       : Gamma Ray
~Parameter Information Block
~A  Depth        SN          SP         DIR          GR     
# ...
   360.5000     11.1042    119.2607      9.7719    124.2927
   360.7500     10.8526    119.5489      9.5715    126.9262
   361.0000     10.5810    119.7781      9.4073    130.1766
   361.2500     10.2882    119.9357      9.2699    131.5257
   361.5000      9.9754    120.0119      9.1521    132.3598
   361.7500      9.6525    120.0008      9.0524    132.4966
   362.0000      9.3501    119.9008      8.9757    132.7071
   362.2500      9.1249    119.7151      8.9304    132.8548
   362.5000      9.0458    119.4506      8.9252    132.5139
   362.7500      9.1611    119.1167      8.9658    131.6331
   363.0000      9.4684    118.7239      9.0534    129.4033
   363.2500      9.9093    118.2826      9.1843    127.5349
   363.5000     10.3961    117.8015      9.3501    124.5284
   363.7500     10.8519    117.2875      9.5416    122.5771
   364.0000     11.2402    116.7455      9.7529    119.9902
   364.2500     11.5695    116.1789      9.9857    118.5651
   364.5000     11.8760    115.5903     10.2497    116.8784
   364.7500     12.2021    114.9824     10.5586    115.8988
   365.0000     12.5814    114.3582     10.9250    113.7952
   365.2500     13.0314    113.7214     11.3552    111.4001
   365.5000     13.5494    113.0769     11.8447    106.5042
   365.7500     14.1120    112.4305     12.3767    103.3722
   366.0000     14.6815    111.7890     12.9247    100.8112
   366.2500     15.2217    111.1606     13.4616    100.9511
   366.5000     15.7216    110.5547     13.9724    103.2283
   366.7500     16.2061    109.9825     14.4617    105.3175
   367.0000     16.7145    109.4565     14.9505    107.8798
   367.2500     17.2580    108.9903     15.4635    108.4446
   367.5000     17.8026    108.5985     16.0152    106.5317
   367.7500     18.2956    108.2949     16.6023    103.1285
   368.0000     18.7066    108.0920     17.2047     95.1716
   368.2500     19.0415    107.9993     17.7942     88.7503
   368.5000     19.3283    108.0220     18.3466     79.7393
   368.7500     19.5862    108.1605     18.8459     75.5739
   369.0000     19.7933    108.4097     19.2787     73.1990
   369.2500     19.8808    108.7598     19.6231     73.7383
   369.5000     19.7777    109.1967     19.8465     76.2103
   369.7500     19.4666    109.7041     19.9132     78.4788
   370.0000     18.9918    110.2646     19.7991     82.7356
   370.2500     18.4230    110.8613     19.5000     86.0433
   370.5000     17.8285    111.4793     19.0329     91.1148
   370.7500     17.2713    112.1057     18.4300     94.2309
   371.0000     16.7956    112.7305     17.7310     98.2784
   371.2500     16.3988    113.3457     16.9775    100.5293
   371.5000     16.0319    113.9453     16.2111    103.0759
   371.7500     15.6407    114.5247     15.4714    104.1159
   372.0000     15.2072    115.0805     14.7945    104.9125
   372.2500     14.7531    115.6102     14.2073    105.3840
   372.5000     14.3143    116.1122     13.7228    106.7054
   372.7500     13.9194    116.5861     13.3366    107.9751
   373.0000     13.5774    117.0325     13.0291    110.0078
   373.2500     13.2759    117.4533     12.7733    111.5000
   373.5000     12.9922    117.8513     12.5460    114.6543
   373.7500     12.7153    118.2300     12.3356    117.4560
   374.0000     12.4581    118.5932     12.1413    121.4925
   374.2500     12.2438    118.9445     11.9654    123.1211
   374.5000     12.0790    119.2873     11.8050    123.5521
   374.7500     11.9426    119.6238     11.6486    123.0363
   375.0000     11.8011    119.9555     11.4810    121.8936
   375.2500     11.6335    120.2829     11.2894    120.8546
   375.5000     11.4406    120.6056     11.0693    118.8577
   375.7500     11.2384    120.9227     10.8252    117.9003
   376.0000     11.0433    121.2328     10.5672    118.7638
   376.2500     10.8604    121.5344     10.3065    121.2870
   376.5000     10.6843    121.8262     10.0522    126.9048
   376.7500     10.5081    122.1069      9.8097    130.6037
   377.0000     10.3294    122.3755      9.5814    133.9414
   377.2500     10.1476    122.6317      9.3665    133.9625
   377.5000      9.9611    122.8755      9.1615    131.1143
   377.7500      9.7709    123.1073      8.9618    128.5274
   378.0000      9.5851    123.3281      8.7638    126.0235
   378.2500      9.4167    123.5392      8.5677    125.8380
   378.5000      9.2755    123.7416      8.3777    126.8631
   378.7500      9.1635    123.9362      8.2008    127.5384
   379.0000      9.0754    124.1227      8.0443    128.0476
   379.2500      9.0051    124.2997      7.9143    128.3712
   379.5000      8.9487    124.4638      7.8146    129.4244
   379.7500      8.9019    124.6102      7.7463    130.5242
   380.0000      8.8549    124.7321      7.7083    132.3332
   380.2500      8.7920    124.8220      7.6975    133.1860
   380.5000      8.6988    124.8723      7.7094    132.9717
   380.7500      8.5735    124.8762      7.7393    131.3756
   381.0000      8.4338    124.8292      7.7840    126.7022
   381.2500      8.3135    124.7292      7.8428    122.6070
   381.5000      8.2526    124.5776      7.9176    116.8188
   381.7500      8.2858    124.3786      8.0119    114.2700
   382.0000      8.4330    124.1388      8.1283    113.1400
   382.2500      8.6881    123.8663      8.2673    113.7882
   382.5000      9.0154    123.5691      8.4252    115.5750
   382.7500      9.3620    123.2548      8.5956    116.7236
   383.0000      9.6812    122.9291      8.7713    117.8805
   383.2500      9.9499    122.5961      8.9481    118.1350
   383.5000     10.1706    122.2582      9.1274    117.8161
   383.7500     10.3617    121.9170      9.3167    117.4721
   384.0000     10.5473    121.5742      9.5283    117.3537
   384.2500     10.7502    121.2324      9.7778    117.5555
   384.5000     10.9885    120.8959     10.0804    118.0328
   384.7500     11.2720    120.5714     10.4481    118.5792
   385.0000     11.5984    120.2680     10.8865    120.1177
   385.2500     11.9534    119.9965     11.3923    121.3345
   385.5000     12.3169    119.7689     11.9521    121.7486
   385.7500     12.6718    119.5972     12.5439    120.0133
   386.0000     13.0082    119.4922     13.1400    113.9052
   386.2500     13.3197    119.4621     13.7082    108.3260
   386.5000     13.5967    119.5122     14.2105    100.2362
   386.7500     13.8207    119.6437     14.5989     96.2317
   387.0000     13.9669    119.8536     14.8191     92.6905
   387.2500     14.0124    120.1354     14.8267     91.5402
   387.5000     13.9439    120.4791     14.6113     91.3344
   387.7500     13.7627    120.8722     14.2070     92.5644
   388.0000     13.4886    121.3007     13.6800     96.8740
   388.2500     13.1562    121.7498     13.1009    101.0296
   388.5000     12.7985    122.2049     12.5247    108.0341
   388.7500     12.4302    122.6524     11.9849    112.7277
   389.0000     12.0512    123.0799     11.4966    119.3486
   389.2500     11.6656    123.4769     11.0648    123.2310
   389.5000     11.2905    123.8350     10.6897    127.8080
   389.7500     10.9484    124.1479     10.3713    129.8355
   390.0000     10.6544    124.4115     10.1096    131.2559
   390.2500     10.4127    124.6237      9.9035    131.3065
   390.5000     10.2214    124.7841      9.7483    130.7722
   390.7500     10.0807    124.8943      9.6353    130.4558
   391.0000      9.9946    124.9567      9.5532    130.4368
   391.2500      9.9665    124.9748      9.4923    130.7601
   391.5000      9.9945    124.9525      9.4479    131.7364
   391.7500     10.0706    124.8938      9.4215    132.6578
   392.0000     10.1847    124.8023      9.4188    134.0598
   392.2500     10.3291    124.6810      9.4452    134.6434
   392.5000     10.4983    124.5321      9.5045    134.5866
   392.7500     10.6851    124.3569      9.5997    134.0086
   393.0000     10.8773    124.1560      9.7354    132.7220
   393.2500     11.0604    123.9298      9.9189    131.6004
   393.5000     11.2254    123.6784     10.1578    128.9872
   393.7500     11.3752    123.4023     10.4571    126.3174
