~Version Information
VERS.                      2.0: CWLS Log ASCII Standard - VERSION 2.0
WRAP.                       NO: One line per depth step
~Well Information Block
STRT.FT                -6.5000: 
STOP.FT              1758.0000: 
STEP.FT                 0.2500: 
NULL.                -999.2500: 
COMP.          Pioneer Natural Resources: COMPANY
WELL.           Rolls 14-14 Tr: WELL
FLD.           Purgatorie River: FIELD
LOC.           473' FSL & 817' FWL--: LOCATION
PROV.                       CO: PROVINCE
CNTY.               Las Animas: COUNTRY
SRVC.          Patterson Wireline: SERVICE COMPANY
DATE.          Mon Aug 08 11:51:25 2005: LOG DATE
UWI.           05 071 08454 00: UNIQUE WELL ID
~Curve Information Block
DEPT.FT            0 000 00 00: Depth
CCL.                          : Casing Collar Locator
TT3.usec                      : CBL 3' Travel Time
AMP3.mV                       : CBL 3' Amplitude
GR.GAPI                       : Gamma Ray
~Parameter Information Block
~A  Depth       CCL         TT3         AMP3         GR     
# ...
  1032.0000      0.0000    833.4268      6.5138    145.9351
  1032.2500      0.0000    835.4226      6.3415    145.3874
  1032.5000      0.0000    834.0530      6.1964    145.2076
  1032.7500      0.0000    829.3259      6.0797    145.1682
  1033.0000      0.0000    823.1346      6.0010    144.3182
  1033.2500      0.0000    817.7814      5.9697    142.0857
  1033.5000      0.0000    814.5584      5.9856    139.3478
  1033.7500      0.0000    813.6202      6.0391    138.2700
  1034.0000      0.0000    814.5697      6.1141    140.4263
  1034.2500      0.0000    816.7465      6.1897    144.8938
  1034.5000      0.0000    819.1794      6.2487    148.5865
  1034.7500      0.0000    820.7484      6.2890    148.8356
  1035.0000      0.0000    820.6785      6.3269    145.6423
  1035.2500      0.0000    818.8688      6.3889    141.2882
  1035.5000      0.0000    815.6564      6.4991    137.9695
  1035.7500      0.0000    811.1761      6.6651    136.1217
  1036.0000      0.0000    805.1558      6.8677    134.8243
  1036.2500      0.0000    797.8513      7.0664    133.2873
  1036.5000      0.0000    791.2728      7.2204    131.7406
  1036.7500      0.0000    788.5242      7.3076    131.1396
  1037.0000      0.0000    791.0282      7.3292    132.1429
  1037.2500      0.0000    796.8917      7.3027    134.2331
  1037.5000      0.0000    802.7013      7.2519    135.9016
  1037.7500      0.0000    806.4119      7.2001    135.8204
  1038.0000      0.0000    808.0847      7.1636    133.5533
  1038.2500      0.0000    808.6818      7.1430    129.2315
  1038.5000      0.0000    808.9453      7.1232    123.3244
  1038.7500      0.0000    809.1568      7.0889    117.0453
  1039.0000      0.0000    809.3253      7.0404    112.2363
  1039.2500      0.0000    809.3721      6.9945    110.0745
  1039.5000      0.0000    809.2639      6.9677    109.8772
  1039.7500      0.0000    809.0464      6.9552    109.6158
  1040.0000      0.0000    808.7968      6.9279    107.7380
  1040.2500      0.0000    808.5563      6.8565    104.1311
  1040.5000      0.0000    808.3386      6.7410     99.3415
  1040.7500      0.0000    808.1393      6.6131     93.6037
  1041.0000      0.0000    807.8578      6.5102     87.0844
  1041.2500      0.0000    807.1865      6.4529     80.5111
  1041.5000      0.0000    805.7159      6.4452     74.9315
  1041.7500      0.0000    803.4117      6.4851     70.8978
  1042.0000      0.0000    801.0864      6.5662     68.1944
  1042.2500      0.0000    800.0819      6.6705     66.3667
  1042.5000      0.0000    801.0883      6.7674     65.3244
  1042.7500      0.0000    803.3526      6.8258     65.5218
  1043.0000      0.0000    805.2513      6.8333     67.8814
  1043.2500      0.0000    805.5929      6.8017     73.5507
  1043.5000      0.0000    804.4990      6.7540     83.2887
  1043.7500      0.0000    803.4622      6.7077     96.6167
  1044.0000      0.0000    804.3964      6.6677    111.5841
  1044.2500      0.0000    807.8468      6.6265    125.7477
  1044.5000      0.0000    811.8597      6.5683    137.5866
  1044.7500      0.0000    813.1942      6.4815    146.7927
  1045.0000      0.0000    810.2891      6.3720    153.3665
  1045.2500      0.0000    805.0483      6.2599    156.9600
  1045.5000      0.0000    801.2687      6.1622    157.3018
  1045.7500      0.0000    800.8788      6.0813    154.9369
  1046.0000      0.0000    801.9051      6.0109    151.1905
  1046.2500      0.0000    800.6517      5.9474    147.3034
  1046.5000      0.0000    795.7715      5.8969    143.8381
  1046.7500      0.0000    789.6869      5.8693    141.1506
  1047.0000      0.0000    786.0869      5.8659    140.1672
  1047.2500      0.0000    786.5714      5.8714    141.9994
  1047.5000      0.0000    789.8508      5.8617    146.6210
  1047.7500      0.0000    793.7573      5.8263    152.1226
  1048.0000      0.0000    797.3127      5.7832    155.2624
  1048.2500      0.0000    800.6608      5.7663    152.9143
  1048.5000      0.0000    803.8141      5.7955    143.8378
  1048.7500      0.0000    806.2659      5.8635    129.9146
  1049.0000      0.0000    807.5458      5.9475    115.5936
  1049.2500      0.0000    807.4549      6.0274    105.2211
  1049.5000      0.0000    805.8010      6.0922    100.2829
  1049.7500      0.0000    802.3475      6.1378     99.0133
  1050.0000      0.0000    797.1553      6.1662     98.3553
  1050.2500      0.0000    790.7590      6.1853     96.1981
  1050.5000      0.0000    783.9590      6.2073     92.3865
  1050.7500      0.0000    777.6623      6.2414     88.4677
  1051.0000      0.0000    772.8849      6.2897     86.6866
  1051.2500      0.0000    770.6044      6.3488     88.6520
  1051.5000      0.0000    771.4489      6.4148     94.3722
  1051.7500      0.0000    775.3901      6.4840    102.2270
  1052.0000      0.0000    781.3295      6.5484    109.8168
  1052.2500      0.0000    786.9099      6.5942    115.1856
  1052.5000      0.0000    789.4063      6.6084    117.9002
  1052.7500      0.0000    787.5074      6.5894    119.2473
  1053.0000      0.0000    782.3044      6.5476    120.9280
  1053.2500      0.0000    776.3336      6.4954    123.2069
  1053.5000      0.0000    771.6835      6.4405    124.5082
  1053.7500      0.0000    768.9806      6.3885    122.9342
  1054.0000      0.0000    767.7614      6.3491    118.0166
  1054.2500      0.0000    767.3250      6.3335    110.9699
  1054.5000      0.0000    767.2054      6.3433    103.5990
  1054.7500      0.0000    767.1907      6.3632     97.3120
  1055.0000      0.0000    767.1953      6.3699     92.7838
  1055.2500      0.0000    767.1959      6.3492     89.7767
  1055.5000      0.0000    767.2195      6.3075     87.2661
  1055.7500      0.0000    767.3658      6.2652     84.2697
  1056.0000      0.0000    767.8758      6.2400     80.7578
  1056.2500      0.0000    769.2704      6.2368     77.6389
  1056.5000      0.0000    772.4014      6.2503     75.8571
  1056.7500      0.0000    778.0886      6.2743     75.5844
  1057.0000      0.0000    786.3053      6.3054     76.1685
  1057.2500      0.0000    795.6572      6.3399     76.6962
  1057.5000      0.0000    804.0195      6.3707     76.6435
  1057.7500      0.0000    809.9274      6.3919     76.1197
  1058.0000      0.0000    813.3242      6.4056     75.5783
  1058.2500      0.0000    815.1601      6.4203     75.4222
  1058.5000      0.0000    816.6819      6.4416     75.9854
  1058.7500      0.0000    819.0249      6.4667     77.7252
  1059.0000      0.0000    822.7454      6.4908     81.1348
  1059.2500      0.0000    827.1493      6.5140     86.4567
  1059.5000      0.0000    830.3206      6.5368     93.6542
  1059.7500      0.0000    830.5236      6.5536    102.5006
  1060.0000      0.0000    827.8007      6.5557    112.3077
  1060.2500      0.0000    823.9040      6.5382    121.7737
  1060.5000      0.0000    820.6391      6.4996    129.6771
  1060.7500      0.0000    818.5223      6.4367    135.6693
  1061.0000      0.0000    816.8334      6.3479    139.9484
  1061.2500      0.0000    814.4960      6.2404    142.3806
  1061.5000      0.0000    811.0198      6.1297    142.4487
  1061.7500      0.0000    807.1543      6.0318    139.9742
  1062.0000      0.0000    804.7161      5.9540    135.6540
  1062.2500      0.0000    805.2373      5.8941    130.9121
  1062.5000      0.0000    808.5264      5.8450    127.1595
  1062.7500      0.0000    812.8167      5.8031    125.0670
  1063.0000      0.0000    816.3474      5.7749    124.7144
  1063.2500      0.0000    818.5284      5.7735    126.2364
  1063.5000      0.0000    819.7368      5.8054    129.8047
  1063.7500      0.0000    820.5245      5.8600    134.9685
  1064.0000      0.0000    821.1786      5.9073    140.7035
  1064.2500      0.0000    821.6651      5.9087    146.3989
  1064.5000      0.0000    821.6310      5.8348    152.1026
  1064.7500      0.0000    820.4011      5.6829    157.4140
  1065.0000      0.0000    817.2947      5.4790    160.9025
  1065.2500      0.0000    812.4791      5.2652    161.3533
