~Version Information
VERS.                      2.0: CWLS Log ASCII Standard - VERSION 2.0
WRAP.                       NO: One line per depth step
~Well Information Block
STRT.FT               645.0000: 
STOP.FT              2131.0000: 
STEP.FT                 0.1000: 
NULL.                -999.2500: 
COMP.          Pioneer Natural Resources: COMPANY
WELL.          Gunslinger 13-24: WELL
FLD.           Purgatoire River: FIELD
LOC.           1968' FSL & 633' FWL: LOCATION
PROV.                 Colorado: PROVINCE
CNTY.               Las Animas: COUNTRY
SRVC.                Patterson: SERVICE COMPANY
DATE.          Sat Jul 30 08:07:53 2005: LOG DATE
UWI.           05 071 08442 00: UNIQUE WELL ID
~Curve Information Block
DEPT.FT            0 000 00 00: Depth
DCAL.in                       : CDL Caliper
RHOB.g/cc                     : CDL Bulk Density
RHOC.g/cc                     : CDL Density Correction
DPOR.pu                       : CDL Density Porosity
GR.GAPI                       : Gamma Ray
NPOR.pu                       : Neutron Porosity
~Parameter Information Block
~A  Depth       DCAL        RHOB        RHOC        DPOR         GR         NPOR    
# ...
   942.6000      8.0459      2.5232      0.0406      7.6835    144.0435     26.6211
   942.7000      8.0459      2.5176      0.0091      8.0249    146.2822     26.9356
   942.8000      8.0509      2.5232     -0.0071      7.6825    148.6768     26.6377
   942.9000      8.0509      2.5447      0.0001      6.3803    148.8673     26.0103
   943.0000      8.0481      2.5620      0.0460      5.3339    146.7112     25.6515
   943.1000      8.0481      2.5590      0.0533      5.5145    146.2402     25.7890
   943.2000      8.0481      2.5496     -0.0127      6.0828    146.8918     26.1335
   943.3000      8.0567      2.5431      0.0661      6.4774    144.6236     26.2509
   943.4000      8.0567      2.5289      0.0042      7.3368    139.7180     26.0911
   943.5000      8.0599      2.5112      0.0038      8.4109    137.6714     26.0954
   943.6000      8.0599      2.5009     -0.0049      9.0392    143.1040     26.4976
   943.7000      8.0599      2.5002     -0.0219      9.0777    152.1755     26.7938
   943.8000      8.0627      2.5088      0.0091      8.5589    155.3287     26.4132
   943.9000      8.0627      2.5207      0.0161      7.8368    151.4185     25.5116
   944.0000      8.0685      2.5380      0.0256      6.7851    145.7177     24.8529
   944.1000      8.0685      2.5737      0.0357      4.6235    143.6158     24.7701
   944.2000      8.0685      2.6170      0.0910      1.9993    144.3876     24.8771
   944.3000      8.0527      2.6385      0.0657      0.6971    142.2615     24.8487
   944.4000      8.0527      2.6252      0.1167      1.5006    136.9593     24.5851
   944.5000      8.0537      2.5905      0.0420      3.6041    130.3695     24.1036
   944.6000      8.0537      2.5675     -0.0036      4.9990    123.8555     23.7400
   944.7000      8.0537      2.5643      0.0679      5.1917    121.0391     23.5239
   944.8000      8.0460      2.5541      0.0438      5.8129    126.1603     22.8938
   944.9000      8.0460      2.5339     -0.0170      7.0335    135.3862     22.1558
   945.0000      8.0071      2.5209      0.0696      7.8217    142.0870     22.1960
   945.1000      8.0071      2.5119      0.0780      8.3673    146.3533     22.7806
   945.2000      8.0071      2.4959      0.0519      9.3392    147.3253     23.3052
   945.3000      8.0119      2.4737      0.0511     10.6827    146.3023     23.7665
   945.4000      8.0119      2.4533      0.0275     11.9205    145.6432     23.9848
   945.5000      8.0185      2.4412      0.0269     12.6518    142.8298     23.7034
   945.6000      8.0185      2.4401      0.0569     12.7229    137.6415     23.2666
   945.7000      8.0185      2.4476      0.0609     12.2686    135.1658     23.4549
   945.8000      8.0410      2.4572      0.0760     11.6862    139.8212     24.2643
   945.9000      8.0410      2.4606      0.0954     11.4797    150.3033     24.8368
   946.0000      8.0473      2.4592      0.0204     11.5626    160.1771     24.8347
   946.1000      8.0473      2.4597      0.0579     11.5330    164.6165     24.5608
   946.2000      8.0473      2.4650      0.0390     11.2125    164.0791     24.3151
   946.3000      8.0700      2.4784      0.0516     10.4009    161.5763     24.3394
   946.4000      8.0700      2.4936      0.0661      9.4785    158.5815     24.5562
   946.5000      8.0839      2.4998      0.0604      9.1058    160.1782     24.6212
   946.6000      8.0839      2.4958      0.0669      9.3443    166.6767     24.2398
   946.7000      8.0839      2.4874      0.0812      9.8546    168.5325     23.5432
   946.8000      8.0839      2.4814      0.0366     10.2179    164.5864     23.1887
   946.9000      8.0839      2.4804      0.0703     10.2796    160.8627     23.3932
   947.0000      8.0843      2.4807      0.0446     10.2581    159.2905     23.7607
   947.1000      8.0843      2.4789      0.0574     10.3714    160.3093     23.9306
   947.2000      8.0843      2.4693      0.0620     10.9494    162.7765     23.9170
   947.3000      8.0690      2.4512      0.0197     12.0477    165.6393     23.7170
   947.4000      8.0690      2.4351      0.0074     13.0226    166.2229     23.1006
   947.5000      8.0699      2.4301     -0.0158     13.3277    159.4930     22.2303
   947.6000      8.0699      2.4285      0.0278     13.4247    147.3475     21.3998
   947.7000      8.0699      2.4031      0.0616     14.9643    134.6307     20.6063
   947.8000      8.0794      2.3462     -0.0462     18.4127    125.0709     19.9039
   947.9000      8.0794      2.2962     -0.0995     21.4424    120.2210     19.6230
   948.0000      8.1019      2.2803     -0.0827     22.4064    115.3369     20.0890
   948.1000      8.1019      2.2827     -0.0423     22.2579    107.5996     20.9019
   948.2000      8.1019      2.2861      0.0083     22.0533    100.3893     21.5731
   948.3000      8.0165      2.2944     -0.0740     21.5507     96.6134     22.1638
   948.4000      8.0165      2.3169      0.0229     20.1902     96.0548     22.3799
   948.5000      7.9906      2.3462      0.0775     18.4096     96.5699     21.8285
   948.6000      7.9906      2.3693      0.1101     17.0124     95.5691     21.0510
   948.7000      7.9906      2.3860      0.0793     15.9996     91.4947     20.7606
   948.8000      7.9795      2.4113      0.0597     14.4691     85.1739     20.9859
   948.9000      7.9795      2.4593      0.1023     11.5574     80.2494     21.1831
   949.0000      7.9920      2.5194      0.1260      7.9180     77.2839     21.0665
   949.1000      7.9920      2.5468      0.1585      6.2565     75.4065     20.8477
   949.2000      7.9920      2.5031      0.0136      8.9006     73.6203     20.6385
   949.3000      8.0367      2.4010     -0.1167     15.0937     68.0480     20.3286
   949.4000      8.0367      2.2774     -0.0649     22.5798     59.8498     19.8784
   949.5000      7.9913      2.1607     -0.1126     29.6538     56.5909     19.4729
   949.6000      7.9913      2.0677     -0.1156     35.2902     59.7872     19.3992
   949.7000      7.9913      2.0040     -0.1527     39.1521     63.6896     19.6182
   949.8000      8.0031      1.9731     -0.1632     41.0254     65.6302     19.8310
   949.9000      8.0031      1.9789     -0.1626     40.6725     67.0001     20.0000
   950.0000      8.0071      2.0132     -0.0421     38.5918     69.2676     20.2832
   950.1000      8.0071      2.0606      0.0502     35.7227     70.9339     20.8494
   950.2000      8.0071      2.1264      0.0764     31.7351     70.8233     21.6815
   950.3000      8.0178      2.2298      0.1547     25.4643     71.6933     22.5464
   950.4000      8.0178      2.3574      0.2918     17.7353     75.7371     23.3403
   950.5000      7.9944      2.4610      0.3347     11.4525     84.5458     24.2906
   950.6000      7.9944      2.5209      0.2953      7.8272     97.5271     25.5232
   950.7000      7.9944      2.5687      0.2542      4.9296    107.7825     26.7357
   950.8000      7.9847      2.6324      0.2500      1.0676    111.2158     27.6726
   950.9000      7.9847      2.6930      0.2948     -2.6080    116.0374     28.3694
   951.0000      7.9898      2.7179      0.2788     -4.1177    126.6767     28.9358
   951.1000      7.9898      2.7135      0.1556     -3.8470    133.8628     29.3562
   951.2000      7.9898      2.7107      0.1338     -3.6765    134.0925     29.5504
   951.3000      8.0276      2.7208      0.1163     -4.2937    132.3456     29.5342
   951.4000      8.0276      2.7419      0.0844     -5.5719    128.6607     29.5210
   951.5000      8.0298      2.7740      0.0562     -7.5163    122.6146     29.6401
   951.6000      8.0298      2.7994      0.1119     -9.0531    115.8878     29.6288
   951.7000      8.0298      2.7968      0.0555     -8.8966    108.5527     29.2215
   951.8000      8.0014      2.7822      0.0493     -8.0136    102.1163     28.2903
   951.9000      8.0014      2.7833      0.0380     -8.0774     96.4251     27.1394
   952.0000      7.9947      2.8024      0.0735     -9.2364     88.6972     26.5233
   952.1000      7.9947      2.8254      0.0948    -10.6273     79.2491     26.5106
