~Version Information
VERS.                      2.0: CWLS Log ASCII Standard - VERSION 2.0
WRAP.                       NO: One line per depth step
~Well Information Block
STRT.FT                 0.0000: 
STOP.FT              2792.7500: 
STEP.FT                 0.2500: 
NULL.                -999.2500: 
COMP.          Pioneer Natural Resources: COMPANY
WELL.          Black Cat 13-32: WELL
FLD.           Purgatorie River: FIELD
LOC.           1865' FSL & 1120' FWL: LOCATION
PROV.                 Colorado: PROVINCE
CNTY.               Las Animas: COUNTRY
SRVC.                Patterson: SERVICE COMPANY
DATE.          Fri Aug 19 09:19:21 2005: LOG DATE
UWI.                          : UNIQUE WELL ID
~Curve Information Block
DEPT.FT            0 000 00 00: Depth
CCL.                          : Casing Collar Locator
TT3.usec                      : CBL 3' Travel Time
AMP3.mV                       : CBL 3' Amplitude
GR.GAPI                       : Gamma Ray
~Parameter Information Block
~A  Depth       CCL         TT3         AMP3         GR     
# ...
  2579.5000      0.0000    642.1320      4.4113     82.7156
  2579.7500      0.0000    642.9706      4.3370     81.8942
  2580.0000      0.0000    647.1174      4.2844     82.5363
  2580.2500      0.0000    654.9536      4.2914     83.7184
  2580.5000      0.0000    659.7410      4.3451     84.4587
  2580.7500      0.0000    657.7667      4.4046     84.8061
  2581.0000      0.0000    657.7809      4.4475     85.5144
  2581.2500      0.0000    668.5673      4.4722     86.8293
  2581.5000      0.0000    683.4377      4.4721     88.1081
  2581.7500      0.0000    687.9536      4.4495     88.5767
  2582.0000      0.0000    678.8908      4.4346     88.0570
  2582.2500      0.0000    665.1948      4.4565     87.0401
  2582.5000      0.0000    654.9070      4.5121     86.3688
  2582.7500      0.0000    651.4144      4.5779     86.7530
  2583.0000      0.0000    655.0981      4.6267     88.2684
  2583.2500      0.0000    660.6204      4.6313     90.2998
  2583.5000      0.0000    660.3167      4.5823     92.0627
  2583.7500      0.0000    652.9193      4.5017     93.1968
  2584.0000      0.0000    643.3788      4.4192     93.8843
  2584.2500      0.0000    636.3619      4.3422     94.5463
  2584.5000      0.0000    633.0023      4.2701     95.5039
  2584.7500      0.0000    632.0085      4.2134     96.7175
  2585.0000      0.0000    631.9637      4.1775     97.7262
  2585.2500      0.0000    632.3235      4.1569     97.9490
  2585.5000      0.0000    633.4188      4.1532     97.1035
  2585.7500      0.0000    636.2980      4.1669     95.3285
  2586.0000      0.0000    641.5200      4.1880     93.0358
  2586.2500      0.0000    647.2779      4.2096     90.6899
  2586.5000      0.0000    650.7156      4.2303     88.6291
  2586.7500      0.0000    652.4134      4.2464     86.9715
  2587.0000      0.0000    655.0667      4.2492     85.5701
  2587.2500      0.0000    656.0934      4.2361     84.1618
  2587.5000      0.0000    650.5944      4.2107     82.8478
  2587.7500      0.0000    641.2158      4.1731     82.3379
  2588.0000      0.0000    634.3254      4.1347     83.1489
  2588.2500      0.0000    631.5353      4.1222     84.5484
  2588.5000      0.0000    630.9523      4.1430     85.0090
  2588.7500      0.0000    631.0046      4.1813     83.8691
  2589.0000      0.0000    631.0850      4.2235     81.9416
  2589.2500      0.0000    631.0418      4.2520     80.4163
  2589.5000      0.0000    630.8871      4.2420     79.7712
  2589.7500      0.0000    630.6957      4.1877     79.8693
  2590.0000      0.0000    630.5745      4.0984     80.5596
  2590.2500      0.0000    630.7448      3.9772     81.8151
  2590.5000      0.0000    631.8909      3.8308     83.5504
  2590.7500      0.0000    635.5149      3.6741     85.5849
  2591.0000      0.0000    643.1676      3.5001     87.6643
  2591.2500      0.0000    654.0682      3.2961     89.4872
  2591.5000      0.0000    663.6165      3.1476     90.8230
  2591.7500      0.0000    667.8474      3.1960     91.5843
  2592.0000      0.0000    671.1027      3.3907     91.7544
  2592.2500      0.0000    681.1473      3.5447     91.2794
  2592.5000      0.0000    696.4551      3.6324     90.0090
  2592.7500      0.0000    709.8538      3.7423     87.9673
  2593.0000      0.0000    718.6520      3.8807     85.9630
  2593.2500      2.0000    723.4918      4.0000     85.6087
  2593.5000     -2.0000    724.6099      4.0797     88.0715
  2593.7500      0.0000    721.2209      4.0902     92.8210
  2594.0000      0.0000    712.9112      4.0108     98.0372
  2594.2500      0.0000    702.4799      3.9583    102.2763
  2594.5000      0.0000    694.2885      4.0691    105.4635
  2594.7500      0.0000    688.4362      4.2260    108.2271
  2595.0000      0.0000    681.3151      4.2587    110.7439
  2595.2500      0.0000    672.3455      4.2457    112.7296
  2595.5000      0.0000    665.0405      4.3036    114.0462
  2595.7500      0.0000    661.9734      4.4004    114.4465
  2596.0000      0.0000    662.9768      4.4747    113.0736
  2596.2500      0.0000    666.6159      4.5139    109.3248
  2596.5000      0.0000    671.0082      4.5271    104.1490
  2596.7500      0.0000    675.1720      4.5237     99.5469
  2597.0000      0.0000    679.2914      4.5133     96.6204
  2597.2500      0.0000    682.8339      4.5094     94.6345
  2597.5000      0.0000    684.8346      4.5271     92.1735
  2597.7500      0.0000    685.2167      4.5683     88.9351
  2598.0000      0.0000    683.8924      4.6083     86.1277
  2598.2500      0.0000    679.9882      4.6248     85.1842
  2598.5000      0.0000    673.8179      4.6261     86.3815
  2598.7500      0.0000    668.3167      4.6293     88.7387
  2599.0000      0.0000    665.3144      4.6379     90.8376
  2599.2500      0.0000    663.1661      4.6529     91.6771
  2599.5000      0.0000    660.7758      4.6767     91.2355
  2599.7500      0.0000    659.0640      4.7030     90.3842
  2600.0000      0.0000    658.4388      4.7133     89.9388
  2600.2500      0.0000    658.3032      4.6886     89.6773
  2600.5000      0.0000    657.7807      4.6335     88.4863
  2600.7500      0.0000    655.9512      4.5732     85.5352
  2601.0000      0.0000    652.7195      4.5191     81.0907
  2601.2500      0.0000    649.0892      4.4555     76.2301
  2601.5000      0.0000    644.7663      4.3630     72.2421
  2601.7500      0.0000    638.5535      4.2403     70.1870
  2602.0000      0.0000    634.4294      4.1025     70.2349
  2602.2500      0.0000    640.3085      3.9685     71.2287
  2602.5000      0.0000    655.8928      3.8636     71.5251
  2602.7500      0.0000    670.5631      3.8251     70.4172
  2603.0000      0.0000    678.4661      3.8903     68.3464
  2603.2500      0.0000    684.5410      4.0874     65.8903
  2603.5000      0.0000    691.0778      4.4107     63.1226
  2603.7500      0.0000    692.4559      4.7828     60.0117
  2604.0000      0.0000    686.3511      5.0829     56.9884
  2604.2500      0.0000    679.2017      5.2372     54.9097
  2604.5000      0.0000    678.7020      5.2487     54.6606
  2604.7500      0.0000    685.1080      5.1632     56.8048
  2605.0000      0.0000    692.5474      5.0385     61.3776
  2605.2500      0.0000    696.7723      4.9142     67.7954
  2605.5000      0.0000    697.3847      4.7996     75.0497
  2605.7500      0.0000    694.7827      4.7029     82.2708
  2606.0000      0.0000    689.4882      4.6584     89.2516
  2606.2500      0.0000    683.1660      4.6926     96.2995
  2606.5000      0.0000    677.0338      4.7685    103.4711
  2606.7500      0.0000    671.7549      4.8147    109.9385
  2607.0000      0.0000    670.1852      4.8057    114.1632
  2607.2500      0.0000    674.8416      4.7691    114.9498
  2607.5000      0.0000    682.5258      4.7294    112.6006
  2607.7500      0.0000    686.0192      4.6828    108.8032
  2608.0000      0.0000    681.4327      4.6201    105.1988
  2608.2500      0.0000    672.0258      4.5503    102.4355
  2608.5000      0.0000    664.4584      4.5040    100.6289
  2608.7500      0.0000    662.2752      4.5118    100.0463
  2609.0000      0.0000    663.2686      4.5650    100.9553
  2609.2500      0.0000    662.4169      4.6162    103.0870
  2609.5000      0.0000    658.0090      4.6224    105.6247
  2609.7500      0.0000    652.6741      4.5740    107.6475
  2610.0000      0.0000    647.6942      4.4986    108.2903
  2610.2500      0.0000    641.4709      4.4339    106.6087
  2610.5000      0.0000    632.9916      4.3846    101.9289
  2610.7500      0.0000    624.5363      4.3297     94.7230
  2611.0000      0.0000    620.5432      4.2771     86.9160
  2611.2500      0.0000    622.0068      4.2654     81.0552
  2611.5000      0.0000    625.1213      4.3009     78.9589
  2611.7500      0.0000    626.2438      4.3386     80.6160
  2612.0000      0.0000    624.0677      4.3331     83.9449
  2612.2500      0.0000    618.5535      4.2761     85.9815
  2612.5000      0.0000    611.3425      4.1953     85.0669
  2612.7500      0.0000    605.4326      4.1384     82.1140
