~Version Information
VERS.                      2.0: CWLS Log ASCII Standard - VERSION 2.0
WRAP.                       NO: One line per depth step
~Well Information Block
STRT.FT               680.0000: 
STOP.FT              1585.5000: 
STEP.FT                 0.1000: 
NULL.                -999.2500: 
COMP.          Pioneer Natural Resources: COMPANY
WELL.          Screamin' 12-29: WELL
FLD.           Purgatoire River: FIELD
LOC.           2038' FNL & 612' FWL: LOCATION
CNTY.               Las Animas: COUNTY
SRVC.                Patterson: SERVICE COMPANY
DATE.          Wed Mar 29 10:01:18 2006: LOG DATE
UWI.           05 071 08661 00: UNIQUE WELL ID
STAT.                 Colorado: STATE
~Curve Information Block
DEPT.FT            0 000 00 00: Depth
DCAL.in                       : CDL Caliper
RHOB.g/cc                     : CDL Bulk Density
RHOC.g/cc                     : CDL Density Correction
DPOR.pu                       : CDL Density Porosity
GR.GAPI                       : Gamma Ray
NPOR.pu                       : Neutron Porosity
~Parameter Information Block
~A  Depth       DCAL        RHOB        RHOC        DPOR         GR         NPOR    
# ...
   795.2000      7.7955      2.6252      0.1347      1.5020    132.2534     27.4081
   795.3000      7.7932      2.6330      0.1769      1.0300    133.3780     27.5684
   795.4000      7.7932      2.6449      0.1705      0.3071    129.7531     28.0822
   795.5000      7.7935      2.6501      0.1295     -0.0062    123.5557     28.6702
   795.6000      7.7935      2.6424      0.1150      0.4592    116.1291     29.2769
   795.7000      7.7935      2.6289      0.0729      1.2816    110.2682     29.6313
   795.8000      7.7935      2.6222      0.0619      1.6851    108.3196     29.4523
   795.9000      7.7935      2.6232      0.0686      1.6249    112.2095     29.0412
   796.0000      7.7931      2.6186      0.1274      1.9055    119.7665     28.9005
   796.1000      7.7931      2.6046      0.0569      2.7507    123.1174     29.0311
   796.2000      7.7931      2.5899      0.0551      3.6399    121.7735     28.8989
   796.3000      7.7928      2.5733      0.0483      4.6489    123.5161     28.4903
   796.4000      7.7928      2.5560      0.0329      5.6984    126.1588     28.2781
   796.5000      7.7920      2.5587      0.0034      5.5317    122.3580     28.2790
   796.6000      7.7920      2.5912      0.0612      3.5642    116.5997     28.0572
   796.7000      7.7920      2.6363      0.0865      0.8291    116.2586     27.5127
   796.8000      7.7913      2.6835      0.0717     -2.0286    117.8970     27.3425
   796.9000      7.7913      2.7259      0.0896     -4.6014    115.9261     27.7679
   797.0000      7.7909      2.7453      0.1086     -5.7755    113.3365     28.2169
   797.1000      7.7909      2.7393      0.1126     -5.4149    112.7314     28.3598
   797.2000      7.7909      2.7283      0.0724     -4.7480    113.1678     27.9273
   797.3000      7.7906      2.7162      0.1072     -4.0092    114.2293     27.0504
   797.4000      7.7906      2.6847      0.0372     -2.1046    115.1688     26.3994
   797.5000      7.7911      2.6384     -0.0358      0.7043    115.2536     26.4110
   797.6000      7.7911      2.5976     -0.0180      3.1738    114.5482     27.0981
   797.7000      7.7911      2.5656      0.0143      5.1169    114.4320     28.1351
   797.8000      7.7917      2.5416     -0.0212      6.5717    112.9559     28.6015
   797.9000      7.7917      2.5294      0.0187      7.3075    108.6832     28.1458
   798.0000      7.7916      2.5330      0.0091      7.0902    106.5715     27.3534
   798.1000      7.7916      2.5564      0.0195      5.6743    109.9345     26.3895
   798.2000      7.7916      2.5855      0.0311      3.9116    113.9073     25.4252
   798.3000      7.7906      2.5973      0.0633      3.1915    115.0731     25.3720
   798.4000      7.7906      2.5966      0.0388      3.2378    117.1945     26.5224
   798.5000      7.7894      2.6077      0.0630      2.5617    122.1650     27.9167
   798.6000      7.7894      2.6306      0.0756      1.1728    125.0473     28.9670
   798.7000      7.7894      2.6407      0.0833      0.5629    122.4077     29.5436
   798.8000      7.7888      2.6303      0.0665      1.1960    117.3151     29.2291
   798.9000      7.7888      2.6152      0.0504      2.1065    110.9126     28.1766
   799.0000      7.7890      2.6055      0.0156      2.6986    102.8683     27.3212
   799.1000      7.7890      2.6004      0.0534      3.0062     98.2573     27.3240
   799.2000      7.7890      2.5986      0.0441      3.1155    100.8737     27.9421
   799.3000      7.7894      2.5959      0.0532      3.2798    108.0879     28.6462
   799.4000      7.7894      2.5885      0.0370      3.7258    113.6820     29.2891
   799.5000      7.7888      2.5783      0.0501      4.3475    112.2928     29.8936
   799.6000      7.7888      2.5727     -0.0085      4.6856    107.0023     30.2864
   799.7000      7.7888      2.5781      0.0584      4.3562    105.1242     30.4715
   799.8000      7.7880      2.5913      0.0311      3.5574    105.9243     30.5970
   799.9000      7.7880      2.6087      0.0808      2.5018    105.4139     30.8684
   800.0000      7.7885      2.6276      0.0872      1.3601    105.9131     31.3402
   800.1000      7.7885      2.6460      0.0668      0.2402    106.8893     31.6204
   800.2000      7.7885      2.6599      0.0898     -0.5981    102.8821     31.2957
   800.3000      7.7893      2.6682      0.0164     -1.1028     94.9042     30.3623
   800.4000      7.7893      2.6798      0.0693     -1.8087     88.9657     29.1178
   800.5000      7.7898      2.6931      0.0823     -2.6133     87.7977     27.9214
   800.6000      7.7898      2.6993      0.0688     -2.9858     88.7402     27.0362
   800.7000      7.7898      2.7000      0.0473     -3.0330     89.0346     26.1453
   800.8000      7.7893      2.6970      0.0233     -2.8483     87.8973     24.7245
   800.9000      7.7893      2.6868      0.0009     -2.2312     84.1821     23.1538
   801.0000      7.7877      2.6726     -0.0222     -1.3679     78.7525     22.1050
   801.1000      7.7877      2.6546      0.0300     -0.2809     75.9812     21.5780
   801.2000      7.7877      2.6314     -0.0122      1.1255     75.3913     21.3419
   801.3000      7.7869      2.6129     -0.0020      2.2455     72.9024     21.2030
   801.4000      7.7869      2.6016      0.0214      2.9336     69.7072     21.3769
   801.5000      7.7876      2.5896      0.0033      3.6598     68.6768     22.1215
   801.6000      7.7876      2.5832     -0.0430      4.0487     69.3791     23.1957
   801.7000      7.7876      2.5924      0.0472      3.4909     69.5647     23.9955
   801.8000      7.7889      2.6014      0.0454      2.9465     68.1194     23.9669
   801.9000      7.7889      2.5922      0.0560      3.5043     67.0517     23.3788
   802.0000      7.7888      2.5756      0.0374      4.5100     68.1271     22.5349
   802.1000      7.7888      2.5730      0.0336      4.6676     71.6533     21.3972
   802.2000      7.7888      2.5836      0.0568      4.0212     75.4467     20.4094
   802.3000      7.7849      2.5880      0.0918      3.7546     74.7186     19.8433
   802.4000      7.7849      2.5805      0.0271      4.2101     68.7200     19.7290
   802.5000      7.7815      2.5648      0.0652      5.1644     61.2732     20.0405
   802.6000      7.7815      2.5274      0.0545      7.4287     56.1250     20.3894
   802.7000      7.7815      2.4617      0.0322     11.4100     55.8826     20.7292
   802.8000      7.7803      2.3951     -0.0939     15.4456     59.1256     21.1763
   802.9000      7.7803      2.3569     -0.0218     17.7654     60.6459     21.4056
   803.0000      7.7816      2.3529     -0.0535     18.0047     58.9455     21.5426
   803.1000      7.7816      2.3796      0.0337     16.3884     57.6136     22.0542
   803.2000      7.7816      2.4207      0.0489     13.8988     59.4522     22.9262
   803.3000      7.7849      2.4578      0.1052     11.6463     64.1456     23.7611
   803.4000      7.7849      2.4864      0.0989      9.9126     69.3274     23.9679
   803.5000      7.7881      2.5056      0.2053      8.7491     72.6179     23.6237
   803.6000      7.7881      2.5125      0.1754      8.3315     74.8003     23.7648
   803.7000      7.7881      2.5189      0.1613      7.9482     74.7181     24.5425
   803.8000      7.7894      2.5399      0.1161      6.6712     72.6039     25.0600
   803.9000      7.7894      2.5635      0.1489      5.2444     74.9592     25.0918
   804.0000      7.7886      2.5620      0.0925      5.3313     80.6550     25.0131
   804.1000      7.7886      2.5351      0.0389      6.9615     81.3498     24.7066
   804.2000      7.7886      2.5113      0.0432      8.4082     78.4336     23.8982
   804.3000      7.7874      2.5146      0.0457      8.2042     77.9718     22.8593
   804.4000      7.7874      2.5378      0.1014      6.7973     78.2565     22.0497
   804.5000      7.7867      2.5505      0.1192      6.0327     76.3214     21.5801
   804.6000      7.7867      2.5441      0.0642      6.4186     74.1537     21.4072
   804.7000      7.7867      2.5419      0.0931      6.5510     74.9660     21.4820
