~Version Information
 VERS.                                  2.0 : CWLS LAS VERSION
 WRAP.                                   NO : WRAPING MODE
 SWARE .                 MController 2.5.0N : SOFTWARE VERSION
~Well Information
 WELL.                       Blue Sky 44-17 : WELL
 COMP.     Pioneer Natural Resource USA Inc : COMPANY
 FLD.                      Purgatoire River : FIELD
 LOC.                 SE/SE SEC17 T33S R66W : LOCATION
 DATE.                             09/07/05 : DATE(S) LOGGED
 SRVC.       Blanco Geological Services LLC : SERVICE COMPANY
 STAT.                             Colorado : STATE
 CNTY.                           Las Animas : COUNTY
 CTRY.                                  USA : COUNTRY
 API.                       05-071-08511-00 : API NUMBER
 STRT.FT                             434.00 : START DEPTH
 STOP.FT                            1625.00 : STOP DEPTH
 STEP.FT                               1.00 : DEPTH INCREMENT
 NULL.                                -9999 : NULL VALUE
~Curve information
 DEPTH.FT                                   :
 ROP.MIN/FT                                 :
 GAS.UNITS                                  :
~ASCII Log data
       434.0     -9999.00         -0.6 
       435.0        11.32          0.5 
       436.0         0.75          0.0 
       437.0         0.50          0.3 
       438.0         1.43          0.2 
       439.0         0.63         -0.2 
       440.0         0.55          0.3 
       441.0         1.27          0.5 
       442.0         1.30          0.4 
       443.0         1.15          0.5 
       444.0         2.72          0.7 
       445.0         0.97          0.4 
       446.0         1.97          0.9 
       447.0         7.85          0.8 
       448.0         0.57          0.5 
       449.0         0.73          0.2 
       450.0         0.90          0.8 
       451.0         0.58          1.0 
       452.0         0.43          0.8 
       453.0         1.43          1.0 
       454.0         1.32          0.9 
       455.0         1.17          0.6 
       456.0         0.57          1.0 
       457.0         0.33          0.7 
       458.0         0.30          0.5 
       459.0         0.30          0.7 
       460.0         0.30          0.2 
       461.0         0.10          0.2 
       462.0         0.13          0.5 
       463.0         0.12          0.5 
       464.0         0.10          0.2 
       465.0         0.10          0.8 
       466.0         0.10          0.6 
       467.0         0.10          0.2 
       468.0         0.13          0.1 
       469.0         0.10          0.1 
       470.0         0.10          0.8 
       471.0         0.10          0.3 
       472.0         0.10          0.2 
       473.0         0.10          0.2 
       474.0         0.13          0.5 
       475.0         0.10          0.5 
       476.0         0.10          0.2 
       477.0         0.10          0.6 
       478.0         0.13          0.1 
       479.0         0.10          0.1 
       480.0         0.10          0.2 
       481.0         0.13          0.9 
       482.0         0.10          0.1 
       483.0         0.13          0.8 
       484.0         0.13          0.3 
       485.0         0.30          0.5 
       486.0         0.10          0.3 
       487.0         0.10          0.3 
       488.0         0.10          0.2 
       489.0         0.10          0.1 
       490.0         0.13          0.1 
       491.0         0.10          0.1 
       492.0         0.12          0.1 
       493.0         0.10          0.1 
       494.0         0.10          0.1 
       495.0         0.20          1.1 
       496.0         0.10          1.1 
       497.0         0.10          0.4 
       498.0         0.10          0.4 
       499.0         0.10          0.3 
       500.0         0.10          0.3 
       501.0         0.10          0.3 
       502.0         0.10          0.2 
       503.0         0.10          0.6 
       504.0         0.10          0.6 
       505.0         4.28          1.1 
       506.0         0.67          0.2 
       507.0         0.13          0.1 
       508.0         0.13          0.1 
       509.0         0.10          0.3 
       510.0         0.12          0.3 
       511.0         0.13          0.1 
       512.0         0.10          0.1 
       513.0         0.13          0.2 
       514.0         0.13          0.2 
       515.0         3.48          1.1 
       516.0         0.20          0.3 
       517.0         0.23          1.0 
       518.0         0.20          0.5 
       519.0         0.20          0.7 
       520.0         0.20          0.3 
       521.0         0.17          0.2 
       522.0         0.53          0.8 
       523.0         0.10          0.2 
       524.0         0.20          0.2 
       525.0         0.10          0.9 
       526.0         0.48          0.5 
       527.0         0.77          1.3 
       528.0         0.20          0.3 
       529.0         0.23          0.5 
       530.0         0.20          0.0 
       531.0         0.23          0.1 
       532.0         0.23          0.0 
       533.0         0.27          0.6 
       534.0         0.23          0.1 
       535.0         0.20          0.0 
       536.0         8.62          1.2 
       537.0         1.78          1.0 
       538.0         0.20          0.0 
       539.0         0.33          0.4 
       540.0         0.27         -0.3 
       541.0         0.27         -0.2 
       542.0         0.27          0.1 
       543.0         2.12          0.8 
       544.0         0.33         -0.1 
       545.0         0.37          0.2 
       546.0         0.30          0.4 
       547.0         0.27          0.0 
       548.0         0.27          0.5 
       549.0         0.27         -0.2 
       550.0         0.27          0.2 
       551.0         0.23          0.5 
       552.0         0.27         -0.1 
       553.0         0.23          0.0 
       554.0         0.27          0.1 
       555.0         0.25          0.3 
       556.0         0.27          0.5 
       557.0         0.20          0.0 
       558.0         0.23          0.2 
       559.0         0.20          0.3 
       560.0         0.27          0.7 
       561.0         0.17          0.0 
       562.0         0.13          0.3 
       563.0         0.50          0.6 
       564.0         0.60          0.5 
       565.0         0.50          0.9 
       566.0         4.70          1.3 
       567.0         0.17          0.9 
       568.0         0.27          0.8 
       569.0         0.30          0.3 
       570.0         0.27          0.5 
       571.0         0.30          1.0 
       572.0         0.33          0.7 
       573.0         0.17          0.4 
       574.0         0.17          1.3 
       575.0         0.22          1.0 
       576.0         0.17          0.4 
       577.0         0.13          1.0 
       578.0         0.23          0.8 
       579.0         0.20          0.9 
       580.0         0.23          0.2 
       581.0         0.27          0.7 
       582.0         0.23          0.7 
       583.0         0.23          0.9 
       584.0         0.23          0.9 
       585.0         0.23          1.0 
       586.0         0.23          0.4 
       587.0         0.23          0.2 
       588.0         0.27          0.8 
       589.0         0.27          0.4 
       590.0         0.32          0.7 
       591.0         0.27          1.2 
       592.0         0.27          0.5 
       593.0         0.27          0.4 
       594.0         0.27          0.8 
       595.0         0.27          0.8 
       596.0         2.88          1.2 
       597.0         1.33          1.1 
       598.0         0.30          0.8 
       599.0         0.23          0.7 
       600.0         0.33          1.4 
       601.0         0.32          0.6 
       602.0         0.30          0.5 
       603.0         0.30          0.4 
       604.0         0.23          0.4 
       605.0         0.23          0.5 
       606.0         0.27          1.1 
       607.0         0.33          1.1 
       608.0         0.23          1.7 
       609.0         0.17          0.6 
       610.0         0.20          0.3 
       611.0         0.23          0.5 
       612.0         0.30          0.2 
       613.0         0.27          0.2 
       614.0         0.25          0.8 
       615.0         0.30          0.9 
       616.0         0.23          0.3 
       617.0         0.27          0.1 
       618.0         0.23          0.7 
       619.0         0.47          0.3 
       620.0         0.40          2.8 
       621.0         0.20          2.8 
       622.0         0.20          6.3 
       623.0         0.20         32.1 
       624.0         0.27         53.4 
       625.0         0.17         25.3 
       626.0         5.40          9.3 
       627.0         0.27          1.3 
       628.0         0.33          0.7 
       629.0         0.43          1.0 
       630.0         0.30          0.2 
       631.0         0.32          0.9 
       632.0         0.23          0.1 
       633.0         0.27          1.0 
