~Version Information
 VERS.                                  2.0 : CWLS LAS VERSION
 WRAP.                                   NO : WRAPING MODE
 SWARE .                 MController 2.5.3A : SOFTWARE VERSION
~Well Information
 WELL.                           Ryan 41-17 : WELL
 COMP.  Pioneer Natural Resources USA, Inc. : COMPANY
 FLD.                      Purgatoire River : FIELD
 LOC.             NE/NE Sec. 17, T33S, R65W : LOCATION
 DATE.                           03/16/2006 : DATE(S) LOGGED
 SRVC.                  Entrada GeoSciences : SERVICE COMPANY
 STAT.                             Colorado : STATE
 CNTY.                           Las Animas : COUNTY
 CTRY.                        United States : COUNTRY
 API.                       05-071-08719-00 : API NUMBER
 STRT.FT                             250.00 : START DEPTH
 STOP.FT                            1155.00 : STOP DEPTH
 STEP.FT                               1.00 : DEPTH INCREMENT
 NULL.                                -9999 : NULL VALUE
~Curve information
 DEPTH.FT                                   :
 ROP.MIN/FT                                 :
 GAS.UNITS                                  :
~ASCII Log data
# ...
     1050.00         0.33        525.1 
     1051.00         0.23        520.7 
     1052.00         0.23        517.8 
     1053.00         0.30        503.2 
     1054.00         0.20        554.1 
     1055.00         0.17        554.1 
     1056.00         0.10        627.4 
     1057.00         0.13        717.9 
     1058.00         0.23       6122.6 
     1059.00         0.27       1233.2 
     1060.00         0.40       1056.3 
     1061.00         0.13       1033.4 
     1062.00         0.13        924.2 
     1063.00         0.27        902.2 
     1064.00         0.30        952.0 
     1065.00         0.23        987.4 
     1066.00         0.23        969.6 
     1067.00         0.27        961.1 
     1068.00         0.27        918.6 
     1069.00         0.28        865.9 
     1070.00         0.30        810.8 
     1071.00         0.30        796.7 
     1072.00         0.30        749.0 
     1073.00         0.27        717.6 
     1074.00         0.30        689.2 
     1075.00         0.30        666.4 
     1076.00         0.30        665.8 
     1077.00         0.30        649.9 
     1078.00         0.30        650.5 
     1079.00         0.30        654.6 
     1080.00         0.33        654.6 
     1081.00         0.32        651.4 
     1082.00         0.33        651.1 
     1083.00         0.30        644.7 
     1084.00         0.30        636.5 
     1085.00         0.30        638.5 
     1086.00         0.30        626.5 
     1087.00         0.27       3147.5 
     1088.00         0.20       2535.2 
     1089.00         0.13       1676.5 
     1090.00         0.27       1586.3 
     1091.00         0.27       1084.4 
     1092.00         0.63       1006.8 
     1093.00         0.33        928.3 
     1094.00         0.35        876.7 
     1095.00         0.30        871.7 
     1096.00         0.30        863.5 
     1097.00         0.27        829.8 
     1098.00         0.30        783.5 
     1099.00         0.30        719.7 
     1100.00         0.33        647.9 
     1101.00         0.27        644.7 
     1102.00         0.27        605.1 
     1103.00         0.27        609.2 
     1104.00         0.30        587.5 
     1105.00         0.28        576.7 
     1106.00         0.30        584.9 
     1107.00         0.27        586.7 
     1108.00         0.27        581.4 
     1109.00         0.27        581.4 
     1110.00         0.23        581.7 
     1111.00         0.27        576.7 
     1112.00         0.30        562.3 
     1113.00         0.30        561.5 
     1114.00         0.30        560.0 
     1115.00         0.30        558.5 
     1116.00         0.30        558.2 
     1117.00         0.32        553.0 
     1118.00         0.30        546.8 
     1119.00         0.33       2714.8 
     1120.00         0.30       1146.5 
     1121.00         0.67       1109.9 
     1122.00         0.33        804.3 
     1123.00         0.30        770.9 
     1124.00         0.27        798.5 
     1125.00         0.33        793.8 
     1126.00         0.35        753.9 
     1127.00         0.23        711.8 
     1128.00         0.27        642.3 
     1129.00         0.27        638.8 
     1130.00         0.23        592.2 
     1131.00         0.27        574.9 
     1132.00         0.27        571.7 
     1133.00         0.30        558.8 
     1134.00         0.27        561.2 
     1135.00         0.27        552.4 
     1136.00         0.27        543.9 
     1137.00         0.30        530.7 
     1138.00         0.32        541.0 
     1139.00         0.33        540.4 
     1140.00         0.37        536.6 
     1141.00         0.47        532.2 
     1142.00         0.63        506.1 
     1143.00         1.00        478.3 
     1144.00         1.02        462.7 
     1145.00         0.53        487.3 
     1146.00         0.57        494.1 
     1147.00         0.60        494.1 
     1148.00         0.27        488.8 
     1149.00         0.40       4837.1 
     1150.00         0.30        473.0 
     1151.00         1.12        478.9 
     1152.00         0.27        478.0 
     1153.00         0.58        476.5 
     1154.00         0.47        475.9 
     1155.00         0.27        473.3 
