~Version Information
VERS.                      2.0: CWLS Log ASCII Standard - VERSION 2.0
WRAP.                       NO: One line per depth step
~Well Information Block
STRT.FT               370.0000: 
STOP.FT              2831.7500: 
STEP.FT                 0.2500: 
NULL.                -999.2500: 
COMP.          Pioneer Natural Resources: COMPANY
WELL.          Black Cat 13-32: WELL
FLD.           Purgatoire River: FIELD
LOC.           1865' FSL & 1120' FWL--: LOCATION
PROV.                 Colorado: PROVINCE
CNTY.               Las Animas: COUNTRY
SRVC.                Patterson: SERVICE COMPANY
DATE.          Sun Jul 31 08:49:16 2005: LOG DATE
UWI.           05 071 08450 00: UNIQUE WELL ID
~Curve Information Block
DEPT.FT            0 000 00 00: Depth
DIR.Ohm-m                     : IEL Induction Resistivity
SN.Ohm-m                      : IEL Short Normal
SP.mV                         : IEL Spontaneous Potential
GR.GAPI                       : Gamma Ray
~Parameter Information Block
~A  Depth       DIR          SN          SP          GR     
# ...
  2614.5000     11.2565     14.7088    137.7451    120.2696
  2614.7500     10.8055     14.4378    136.7540    123.8767
  2615.0000     10.9925     14.2585    135.5979    128.7500
  2615.2500     12.2679     14.1523    134.2805    132.3668
  2615.5000     15.8950     14.0904    132.8088    139.2866
  2615.7500     27.5055     14.0434    131.1926    144.6290
  2616.0000    167.5362     13.9855    129.4426    151.8716
  2616.2500 100000.0000     13.8987    127.5700    154.6527
  2616.5000 100000.0000     13.7783    125.5849    153.5516
  2616.7500 100000.0000     13.6384    123.4947    149.2369
  2617.0000 100000.0000     13.5099    121.3018    139.9363
  2617.2500 100000.0000     13.4306    119.0007    133.9123
  2617.5000 100000.0000     13.4294    116.5736    127.5503
  2617.7500 100000.0000     13.5106    113.9874    125.6330
  2618.0000 100000.0000     13.6457    111.1898    125.9626
  2618.2500    168.9183     13.7793    108.1083    127.1632
  2618.5000     40.5254     13.8501    104.6506    126.8261
  2618.7500     16.3885     13.8167    100.7058    123.5844
  2619.0000      8.4687     13.6709     96.1486    115.7047
  2619.2500      5.2270     13.4344     90.8421    111.5549
  2619.5000      3.7307     13.1426     84.6417    111.2930
  2619.7500      3.0329     12.8287     77.3978    114.7305
  2620.0000      2.8047     12.5122     68.9575    120.8317
  2620.2500      2.9869     12.1969     59.1622    123.0529
  2620.5000      3.7693     11.8736     47.8451    122.3672
  2620.7500      5.9231     11.5242     34.8264    119.8979
  2621.0000     12.0518     11.1247     19.9105    114.6976
  2621.2500     19.3906     10.6451      2.8900    110.7939
  2621.5000      8.1576     10.0459    -16.4365    105.3671
  2621.7500      2.7306      9.2763    -38.2266    103.2759
  2622.0000      1.1377      8.2910    -62.5356    104.8656
  2622.2500      0.5554      7.0901    -89.2431    109.5608
  2622.5000      0.2934      5.7605   -117.9856    120.2849
  2622.7500      0.1652      4.4650   -148.1173    127.7541
  2623.0000      0.1068      3.3648   -178.7251    135.3916
  2623.2500      0.0861      2.5337   -208.7095    136.4009
  2623.5000      0.0883      1.9443   -236.9224    131.4490
  2623.7500      0.1087      1.5278   -262.3341    125.2102
  2624.0000      0.1427      1.2328   -284.1849    114.7192
  2624.2500      0.1776      1.0331   -302.0828    108.1546
  2624.5000      0.1994      0.9057   -316.0240     98.9151
  2624.7500      0.2113      0.8207   -326.3373     92.7317
  2625.0000      0.2337      0.7523   -333.5750     84.0393
  2625.2500      0.2938      0.6903   -338.3880     79.9050
  2625.5000      0.4317      0.6379   -341.4133     77.9248
  2625.7500      0.7409      0.6009   -343.1943     79.2161
  2626.0000      1.5844      0.5779   -344.1388     83.1136
  2626.2500      6.4559      0.5609   -344.5055     85.8477
  2626.5000 100000.0000      0.5413   -344.4054     89.1084
  2626.7500 100000.0000      0.5171   -343.8059     90.6763
  2627.0000 100000.0000      0.4937   -342.5306     92.1576
  2627.2500 100000.0000      0.4783   -340.2557     91.9792
  2627.5000 100000.0000      0.4789   -336.5115     87.9337
  2627.7500 100000.0000      0.5154   -330.7009     82.0333
  2628.0000      4.6699      0.6484   -322.1460     69.6929
  2628.2500      1.1711      1.0214   -310.1683     60.9080
  2628.5000      0.5487      1.8963   -294.1948     49.9528
  2628.7500      0.3265      3.6226   -273.8733     45.4897
  2629.0000      0.2441      6.4732   -249.1688     43.8937
  2629.2500      0.2422     10.3862   -220.4155     45.3308
  2629.5000      0.3210     14.8227   -188.3059     48.2133
  2629.7500      0.5443     18.9332   -153.8192     49.5507
  2630.0000      1.2182     21.9542   -118.1048     51.5588
  2630.2500      6.6997     23.5312    -82.3494     54.1350
  2630.5000 100000.0000     23.7595    -47.6597     60.8626
  2630.7500 100000.0000     23.0106    -14.9777     66.9649
  2631.0000 100000.0000     21.7276     14.9607     77.6726
  2631.2500 100000.0000     20.2958     41.6350     85.5977
  2631.5000 100000.0000     18.9882     64.7293     98.4571
  2631.7500 100000.0000     17.9543     84.1200    107.2671
  2632.0000 100000.0000     17.2343     99.8660    119.3445
  2632.2500     16.6149     16.7906    112.2027    125.6072
  2632.5000      8.0797     16.5452    121.5276    131.2045
  2632.7500      6.7442     16.4106    128.3679    132.3165
  2633.0000      6.9213     16.3086    133.3243    130.2213
  2633.2500      7.8326     16.1807    136.9948    126.3097
  2633.5000      9.1305     15.9927    139.8965    117.3730
  2633.7500     10.5016     15.7346    142.4017    110.8687
  2634.0000     11.8475     15.4149    144.7077    104.1081
  2634.2500     13.5936     15.0536    146.8494    103.1701
  2634.5000     17.0216     14.6739    148.7479    106.9413
  2634.7500     26.1882     14.2952    150.2790    111.5418
  2635.0000     71.1275     13.9318    151.3394    118.8106
  2635.2500 100000.0000     13.5931    151.8909    122.5704
  2635.5000 100000.0000     13.2838    151.9734    125.4722
  2635.7500 100000.0000     13.0036    151.6881    126.0651
  2636.0000 100000.0000     12.7519    151.1634    127.2279
  2636.2500     55.8067     12.5348    150.5189    129.2487
  2636.5000     20.5612     12.3656    149.8390    134.0414
  2636.7500     12.8564     12.2560    149.1627    137.4186
  2637.0000      9.9906     12.2060    148.4868    140.6910
  2637.2500      8.8115     12.2021    147.7784    140.9249
  2637.5000      8.4259     12.2238    146.9899    138.6810
  2637.7500      8.4795     12.2471    146.0705    136.3693
  2638.0000      8.7850     12.2443    144.9741    132.7305
  2638.2500      9.2107     12.1886    143.6625    129.9928
  2638.5000      9.6498     12.0673    142.1072    125.0259
  2638.7500     10.0250     11.8927    140.2905    121.7386
  2639.0000     10.3007     11.6986    138.2069    118.3403
  2639.2500     10.4810     11.5243    135.8649    117.0919
  2639.5000     10.5898     11.3991    133.2896    115.2245
  2639.7500     10.6496     11.3351    130.5235    113.3909
  2640.0000     10.6718     11.3270    127.6262    110.8688
  2640.2500     10.6582     11.3569    124.6716    110.8676
  2640.5000     10.6088     11.4034    121.7424    115.1729
  2640.7500     10.5278     11.4521    118.9241    120.5118
  2641.0000     10.4256     11.5020    116.2971    129.6357
  2641.2500     10.3167     11.5607    113.9311    134.8743
  2641.5000     10.2170     11.6309    111.8797    139.7578
  2641.7500     10.1416     11.7002    110.1784    140.7303
  2642.0000     10.1043     11.7437    108.8444    139.4239
  2642.2500     10.1174     11.7347    107.8792    137.5399
  2642.5000     10.1911     11.6521    107.2709    134.5501
  2642.7500     10.3318     11.4827    106.9984    132.9496
  2643.0000     10.5412     11.2202    107.0335    131.3124
  2643.2500     10.8165     10.8698    107.3424    130.4828
  2643.5000     11.1543     10.4636    107.8865    129.1385
  2643.7500     11.5541     10.0808    108.6217    128.0262
  2644.0000     12.0211      9.8577    109.4985    125.8189
  2644.2500     12.5646      9.9668    110.4631    123.9035
  2644.5000     13.1950     10.5545    111.4598    120.8402
  2644.7500     13.9171     11.6582    112.4351    119.3860
  2645.0000     14.7233     13.1543    113.3424    119.2531
  2645.2500     15.5845     14.7866    114.1466    120.6439
  2645.5000     16.4444     16.2727    114.8266    123.9575
  2645.7500     17.2248     17.4175    115.3766    126.1455
  2646.0000     17.8435     18.1624    115.8038    128.2966
  2646.2500     18.2380     18.5564    116.1245    128.5137
  2646.5000     18.3835     18.6927    116.3603    126.3532
  2646.7500     18.2989     18.6589    116.5326    123.2363
  2647.0000     18.0377     18.5204    116.6591    117.2155
  2647.2500     17.6708     18.3254    116.7522    113.3501
  2647.5000     17.2669     18.1123    116.8172    108.6354
  2647.7500     16.8800     17.9111    116.8538    105.8209
