~Version Information
VERS.                      2.0: CWLS Log ASCII Standard - VERSION 2.0
WRAP.                       NO: One line per depth step
~Well Information Block
STRT.FT               530.7500: 
STOP.FT              1325.2500: 
STEP.FT                 0.2500: 
NULL.                -999.2500: 
COMP.          Pioneer Natural Resources: COMPANY
WELL.            Erin 21-15 Tr: WELL
FLD.           Purgatoire River: FIELD
LOC.           1217' FNL & 2284' FWL--: LOCATION
CNTY.               Las Animas: COUNTY
SRVC.                Patterson: SERVICE COMPANY
DATE.          Fri Mar 03 23:07:06 2006: LOG DATE
UWI.           05 071 08712 00: UNIQUE WELL ID
STAT.                 Colorado: STATE
~Curve Information Block
DEPT.FT            0 000 00 00: Depth
SN.Ohm-m                      : IEL Short Normal
SP.mV                         : IEL Spontaneous Potential
DIR.Ohm-m                     : IEL Induction Resistivity
GR.GAPI                       : Gamma Ray
~Parameter Information Block
~A  Depth        SN          SP         DIR          GR     
# ...
   798.7500     29.9696     63.8548     27.6871     82.0155
   799.0000     29.4488     63.9710     27.4434     84.4500
   799.2500     28.9369     64.1386     27.1434     87.2897
   799.5000     28.4308     64.3501     26.8195     92.3223
   799.7500     27.9061     64.5921     26.4790     95.3026
   800.0000     27.3133     64.8476     26.1069     98.2382
   800.2500     26.5874     65.0985     25.6711     99.0981
   800.5000     25.6790     65.3288     25.1364     98.9369
   800.7500     24.5901     65.5267     24.4827     97.9773
   801.0000     23.3919     65.6863     23.7137     95.6833
   801.2500     22.2081     65.8075     22.8566     94.1273
   801.5000     21.1697     65.8949     21.9560     93.2695
   801.7500     20.3610     65.9560     21.0635     94.7190
   802.0000     19.7839     65.9992     20.2230    100.9931
   802.2500     19.3647     66.0323     19.4556    107.4711
   802.5000     19.0009     66.0607     18.7556    117.8240
   802.7500     18.6149     66.0879     18.0986    123.0206
   803.0000     18.1832     66.1146     17.4569    125.9931
   803.2500     17.7327     66.1402     16.8183    125.1010
   803.5000     17.3195     66.1633     16.1963    122.3499
   803.7500     17.0042     66.1819     15.6310    121.3785
   804.0000     16.8297     66.1937     15.1769    122.6898
   804.2500     16.8091     66.1960     14.8860    125.2794
   804.5000     16.9257     66.1851     14.7944    130.4049
   804.7500     17.1507     66.1565     14.9176    133.3940
   805.0000     17.4704     66.1042     15.2527    134.8975
   805.2500     17.9090     66.0223     15.7833    133.0923
   805.5000     18.5313     65.9051     16.4830    126.2898
   805.7500     19.4195     65.7487     17.3144    119.6984
   806.0000     20.6278     65.5528     18.2244    108.1414
   806.2500     22.1282     65.3216     19.1422    100.1321
   806.5000     23.7702     65.0651     19.9803     89.0370
   806.7500     25.2919     64.7999     20.6389     83.0504
   807.0000     26.3943     64.5487     21.0163     77.4025
   807.2500     26.8472     64.3394     21.0315     76.3240
   807.5000     26.5674     64.2020     20.6570     78.8435
   807.7500     25.6210     64.1639     19.9405     82.8804
   808.0000     24.1627     64.2442     18.9917     91.2131
   808.2500     22.3680     64.4479     17.9397     97.5113
   808.5000     20.4026     64.7629     16.8927    107.1517
   808.7500     18.4243     65.1601     15.9202    113.3598
   809.0000     16.5886     65.5987     15.0569    121.5983
   809.2500     15.0391     66.0340     14.3157    125.8551
   809.5000     13.8869     66.4274     13.6999    130.0807
   809.7500     13.1901     66.7539     13.2105    131.7976
   810.0000     12.9420     67.0051     12.8476    133.3848
   810.2500     13.0709     67.1880     12.6075    133.8417
   810.5000     13.4504     67.3189     12.4784    133.7353
   810.7500     13.9212     67.4177     12.4394    133.6064
   811.0000     14.3250     67.5008     12.4649    134.3123
   811.2500     14.5419     67.5790     12.5302    135.5025
   811.5000     14.5193     67.6563     12.6143    137.5641
   811.7500     14.2717     67.7314     12.6988    138.3943
   812.0000     13.8563     67.8009     12.7647    137.8218
   812.2500     13.3435     67.8605     12.7932    135.9570
   812.5000     12.7984     67.9063     12.7712    130.9483
   812.7500     12.2775     67.9352     12.6981    126.4648
   813.0000     11.8294     67.9448     12.5865    119.5075
   813.2500     11.4927     67.9322     12.4588    115.9819
   813.5000     11.2934     67.8947     12.3416    113.9219
   813.7500     11.2463     67.8298     12.2622    114.6536
   814.0000     11.3632     67.7363     12.2461    117.4346
   814.2500     11.6570     67.6146     12.3146    119.3639
   814.5000     12.1330     67.4684     12.4833    121.1277
   814.7500     12.7730     67.3040     12.7621    121.2070
   815.0000     13.5374     67.1301     13.1575    119.4353
   815.2500     14.4008     66.9567     13.6754    116.9583
   815.5000     15.3993     66.7931     14.3241    111.4391
   815.7500     16.6384     66.6473     15.1139    106.6846
   816.0000     18.2408     66.5250     16.0527     98.1087
   816.2500     20.2613     66.4303     17.1389     91.6927
   816.5000     22.6183     66.3670     18.3541     82.1826
   816.7500     25.0775     66.3397     19.6560     76.8453
   817.0000     27.3076     66.3544     20.9713     71.5371
   817.2500     28.9925     66.4187     22.1924     70.0462
   817.5000     29.9423     66.5392     23.1844     70.6634
   817.7500     30.1356     66.7192     23.8137     72.5361
   818.0000     29.6840     66.9564     23.9938     76.3623
   818.2500     28.7580     67.2414     23.7227     78.9199
   818.5000     27.5220     67.5580     23.0799     82.3182
   818.7500     26.1022     67.8862     22.1862     84.5991
   819.0000     24.5914     68.2056     21.1588     89.0935
   819.2500     23.0682     68.4991     20.0913     93.1516
   819.5000     21.6072     68.7556     19.0535    100.0581
   819.7500     20.2697     68.9711     18.0965    104.1279
   820.0000     19.0924     69.1470     17.2542    107.9641
   820.2500     18.0905     69.2886     16.5460    108.9923
   820.5000     17.2767     69.4023     15.9803    109.5035
   820.7500     16.6729     69.4936     15.5575    110.1376
   821.0000     16.2989     69.5665     15.2716    112.6562
   821.2500     16.1507     69.6237     15.1114    115.2734
   821.5000     16.1897     69.6680     15.0622    118.9493
   821.7500     16.3509     69.7021     15.1077    119.9470
   822.0000     16.5658     69.7298     15.2324    118.0801
   822.2500     16.7852     69.7544     15.4231    114.9540
   822.5000     16.9904     69.7783     15.6690    109.2950
   822.7500     17.1893     69.8015     15.9591    105.9390
   823.0000     17.4032     69.8211     16.2752    102.3328
   823.2500     17.6483     69.8322     16.5861    100.7914
   823.5000     17.9209     69.8287     16.8467     99.5252
   823.7500     18.1934     69.8049     17.0099     99.4945
   824.0000     18.4278     69.7574     17.0480    101.0139
   824.2500     18.6017     69.6856     16.9718    103.0374
   824.5000     18.7297     69.5924     16.8317    107.1043
   824.7500     18.8622     69.4836     16.7002    110.1798
   825.0000     19.0558     69.3665     16.6494    114.6362
   825.2500     19.3380     69.2493     16.7355    116.6869
   825.5000     19.6972     69.1389     16.9939    116.0101
   825.7500     20.1117     69.0400     17.4389    111.5940
   826.0000     20.6017     68.9547     18.0657     98.2586
   826.2500     21.2727     68.8825     18.8524     86.1786
   826.5000     22.3027     68.8215     19.7614     67.7862
   826.7500     23.8408     68.7707     20.7397     58.0813
   827.0000     25.8445     68.7312     21.7133     50.1109
   827.2500     27.9733     68.7080     22.5784     49.2930
   827.5000     29.6632     68.7100     23.2024     53.2002
   827.7500     30.3840     68.7489     23.4514     58.0713
   828.0000     29.9140     68.8362     23.2458     67.7815
   828.2500     28.4268     68.9799     22.6060     75.9328
   828.5000     26.3408     69.1817     21.6449     90.5699
   828.7500     24.0827     69.4344     20.5120    100.9122
   829.0000     21.9426     69.7231     19.3383    114.0406
   829.2500     20.0722     70.0269     18.2178    119.4214
   829.5000     18.5492     70.3230     17.2153    121.5975
   829.7500     17.4266     70.5911     16.3781    120.3547
   830.0000     16.7408     70.8163     15.7399    118.4996
   830.2500     16.4960     70.9909     15.3189    119.3725
   830.5000     16.6442     71.1133     15.1151    124.6556
   830.7500     17.0775     71.1871     15.1101    129.5772
   831.0000     17.6471     71.2183     15.2706    135.9034
   831.2500     18.2128     71.2143     15.5554    138.1160
   831.5000     18.6965     71.1828     15.9236    137.8980
   831.7500     19.1000     71.1313     16.3409    135.9162
   832.0000     19.4781     71.0679     16.7830    131.7831
