~Version Information
VERS.                      2.0: CWLS Log ASCII Standard - VERSION 2.0
WRAP.                       NO: One line per depth step
~Well Information Block
STRT.FT               370.0000: 
STOP.FT              2831.7500: 
STEP.FT                 0.2500: 
NULL.                -999.2500: 
COMP.          Pioneer Natural Resources: COMPANY
WELL.          Black Cat 13-32: WELL
FLD.           Purgatoire River: FIELD
LOC.           1865' FSL & 1120' FWL--: LOCATION
PROV.                 Colorado: PROVINCE
CNTY.               Las Animas: COUNTRY
SRVC.                Patterson: SERVICE COMPANY
DATE.          Sun Jul 31 08:49:16 2005: LOG DATE
UWI.           05 071 08450 00: UNIQUE WELL ID
~Curve Information Block
DEPT.FT            0 000 00 00: Depth
DIR.Ohm-m                     : IEL Induction Resistivity
SN.Ohm-m                      : IEL Short Normal
SP.mV                         : IEL Spontaneous Potential
GR.GAPI                       : Gamma Ray
~Parameter Information Block
~A  Depth       DIR          SN          SP          GR     
# ...
  2782.0000     21.0753     20.2729     91.4158    105.7095
  2782.2500     20.9743     20.1043     91.2808    109.9371
  2782.5000     20.7734     19.9285     91.1707    114.6872
  2782.7500     20.5074     19.7747     91.0721    115.9490
  2783.0000     20.2204     19.6620     90.9703    114.1411
  2783.2500     19.9494     19.5898     90.8513    110.5682
  2783.5000     19.7147     19.5378     90.7060    103.1804
  2783.7500     19.5210     19.4753     90.5333     98.2080
  2784.0000     19.3625     19.3724     90.3429     92.3327
  2784.2500     19.2273     19.2105     90.1559     89.8950
  2784.5000     19.0974     18.9896     90.0036     88.6838
  2784.7500     18.9493     18.7264     89.9238     89.3210
  2785.0000     18.7554     18.4382     89.9557     91.4749
  2785.2500     18.4864     18.1216     90.1343     93.1273
  2785.5000     18.1134     17.7445     90.4851     95.4272
  2785.7500     17.6124     17.2629     91.0218     96.6344
  2786.0000     16.9723     16.6518     91.7452     97.7113
  2786.2500     16.2057     15.9272     92.6448     98.3862
  2786.5000     15.3517     15.1421     93.7014    101.1118
  2786.7500     14.4654     14.3603     94.8898    104.6166
  2787.0000     13.6014     13.6273     96.1809    111.2657
  2787.2500     12.8004     12.9578     97.5422    115.7624
  2787.5000     12.0840     12.3442     98.9380    122.9694
  2787.7500     11.4572     11.7737    100.3295    128.8091
  2788.0000     10.9134     11.2423    101.6758    138.5921
  2788.2500     10.4406     10.7563    102.9369    144.3325
  2788.5000     10.0272     10.3278    104.0770    149.4849
  2788.7500      9.6657      9.9661    105.0693    150.4171
  2789.0000      9.3521      9.6720    105.8990    149.6832
  2789.2500      9.0832      9.4362    106.5647    149.1083
  2789.5000      8.8542      9.2439    107.0767    149.2027
  2789.7500      8.6591      9.0826    107.4535    149.3532
  2790.0000      8.4923      8.9452    107.7170    147.8879
  2790.2500      8.3502      8.8293    107.8879    145.4210
  2790.5000      8.2319      8.7308    107.9817    140.9202
  2790.7500      8.1381      8.6401    108.0075    138.6311
  2791.0000      8.0691      8.5446    107.9670    137.2702
  2791.2500      8.0226      8.4386    107.8561    137.5111
  2791.5000      7.9942      8.3299    107.6650    138.7711
  2791.7500      7.9806      8.2397    107.3800    139.8355
  2792.0000      7.9854      8.1974    106.9836    141.0983
  2792.2500      8.0216      8.2357    106.4547    141.1741
  2792.5000      8.1097      8.3869    105.7690    139.5676
  2792.7500      8.2715      8.6801    104.8998    137.7637
  2793.0000      8.5239      9.1301    103.8190    135.7450
  2793.2500      8.8751      9.7224    102.5004    135.6799
  2793.5000      9.3245     10.4136    100.9228    137.5730
  2793.7500      9.8648     11.1608     99.0736    139.5871
  2794.0000     10.4852     11.9638     96.9525    142.2899
  2794.2500     11.1730     12.8790     94.5738    142.9537
  2794.5000     11.9178     13.9880     91.9671    141.1592
  2794.7500     12.7183     15.3450     89.1775    138.1225
  2795.0000     13.5920     16.9387     86.2646    132.0921
  2795.2500     14.5783     18.6913     83.3014    128.1871
  2795.5000     15.7267     20.4893     80.3726    123.7797
  2795.7500     17.0697     22.2193     77.5724    121.7626
  2796.0000     18.5877     23.7772     75.0010    119.1476
  2796.2500     20.1807     25.0569     72.7591    117.3285
  2796.5000     21.6665     25.9566     70.9386    115.3291
  2796.7500     22.8282     26.4099     69.6118    115.5255
  2797.0000     23.4985     26.4155     68.8196    118.3437
  2797.2500     23.6303     26.0430     68.5611    120.3022
  2797.5000     23.3061     25.4189     68.7879    119.9408
  2797.7500     22.6923     24.6965     69.4057    117.2911
  2798.0000     21.9761     24.0049     70.2847    113.0491
  2798.2500     21.3127     23.3966     71.2771    112.3101
  2798.5000     20.7941     22.8396     72.2411    115.1342
  2798.7500     20.4433     22.2695     73.0645    118.0318
  2799.0000     20.2300     21.6610     73.6847    120.2952
  2799.2500     20.1018     21.0674     74.0993    119.4532
  2799.5000     20.0215     20.6060     74.3656    115.5448
  2799.7500     19.9893     20.4108     74.5882    112.3410
  2800.0000     20.0413     20.5813     74.8983    108.1805
  2800.2500     20.2258     21.1387     75.4266    106.1595
  2800.5000     20.5715     21.9970     76.2784    104.3587
  2800.7500     21.0635     22.9753     77.5131    104.1772
  2801.0000     21.6348     23.8659     79.1335    105.6333
  2801.2500     22.1798     24.5213     81.0862    107.1535
  2801.5000     22.5897     24.8934     83.2725    108.0290
  2801.7500     22.7934     25.0093     85.5674    106.5545
  2802.0000     22.7805     24.9242     87.8410    101.0960
  2802.2500     22.5934     24.6931     89.9789     96.2017
  2802.5000     22.3037     24.3662     91.8968     89.1721
  2802.7500     21.9873     23.9914     93.5471     85.7626
  2803.0000     21.7066     23.6133     94.9166     83.4693
  2803.2500     21.4986     23.2682     96.0195     83.8642
  2803.5000     21.3697     22.9794     96.8854     87.0699
  2803.7500     21.2977     22.7514     97.5495     90.7070
  2804.0000     21.2454     22.5673     98.0433     97.4472
  2804.2500     21.1796     22.3947     98.3899    101.8296
  2804.5000     21.0836     22.1966     98.6024    106.6100
  2804.7500     20.9559     21.9460     98.6849    108.1474
  2805.0000     20.7983     21.6398     98.6354    108.2007
  2805.2500     20.6096     21.3062     98.4490    107.2485
  2805.5000     20.3923     20.9972     98.1213    105.7564
  2805.7500     20.1643     20.7655     97.6522    105.7488
  2806.0000     19.9590     20.6366     97.0479    108.2441
  2806.2500     19.8097     20.5978     96.3241    111.0963
  2806.5000     19.7308     20.6109     95.5068    115.0985
  2806.7500     19.7136     20.6381     94.6326    116.7861
  2807.0000     19.7387     20.6637     93.7473    117.8600
  2807.2500     19.7972     20.7002     92.9031    117.6689
  2807.5000     19.9012     20.7800     92.1532    115.4209
  2807.7500     20.0746     20.9376     91.5463    112.4644
  2808.0000     20.3306     21.1822     91.1204    107.0270
  2808.2500     20.6493     21.4744     90.8977    103.9448
  2808.5000     20.9707     21.7269     90.8810    101.6883
  2808.7500     21.2033     21.8374     91.0529    101.8888
  2809.0000     21.2524     21.7371     91.3769    103.5563
  2809.2500     21.0586     21.4232     91.8008    104.5584
  2809.5000     20.6291     20.9603     92.2616    105.2684
  2809.7500     20.0373     20.4516     92.6909    105.9150
  2810.0000     19.3869     19.9950     93.0211    108.9372
  2810.2500     18.7686     19.6466     93.1912    112.8805
  2810.5000     18.2344     19.4090     93.1526    121.7522
  2810.7500     17.7997     19.2458     92.8743    129.2180
  2811.0000     17.4613     19.1142     92.3467    140.4356
  2811.2500     17.2179     18.9976     91.5841    145.6368
  2811.5000     17.0809     18.9230     90.6251    146.2674
  2811.7500     17.0744     18.9517     89.5305    140.5954
  2812.0000     17.2257     19.1419     88.3795    122.1808
  2812.2500     17.5532     19.5003     87.2634    103.8631
  2812.5000     18.0525     19.9560     86.2792     71.1792
  2812.7500     18.6826     20.3798     85.5213     49.6747
  2813.0000     19.3532     20.6379     85.0742     23.9477
  2813.2500     19.9222     20.6452     85.0055     12.7857
  2813.5000     20.2214     20.3926     85.3598      3.9528
  2813.7500     20.1166     19.9414     86.1542      1.5325
  2814.0000     19.5744     19.3885     87.3753      0.2831
  2814.2500     18.6800     18.8134     88.9790      0.0750
  2814.5000     17.5885     18.2431     90.8925      0.0067
  2814.7500     16.4530     17.6576     93.0199      0.0000
  2815.0000     15.3814     17.0284     95.2506   -999.2500
  2815.2500     14.4319     16.3517     97.4718   -999.2500
