~Version Information
VERS.                      2.0: CWLS Log ASCII Standard - VERSION 2.0
WRAP.                       NO: One line per depth step
~Well Information Block
STRT.FT               485.0000: 
STOP.FT              1030.5000: 
STEP.FT                 0.1000: 
NULL.                -999.2500: 
COMP.          Pioneer Natural Resources: COMPANY
WELL.          Red Raider 22-15: WELL
FLD.           Purgatoire River: FIELD
LOC.           1809' FNL & 2107' FWL: LOCATION
CNTY.               Las Animas: COUNTY
SRVC.                Patterson: SERVICE COMPANY
DATE.          Tue Apr 11 10:06:17 2006: LOG DATE
UWI.           05 071 08718 00: UNIQUE WELL ID
STAT.                 Colorado: STATE
~Curve Information Block
DEPT.FT            0 000 00 00: Depth
DCAL.in                       : CDL Caliper
RHOB.g/cc                     : CDL Bulk Density
RHOC.g/cc                     : CDL Density Correction
DPOR.pu                       : CDL Density Porosity
GR.GAPI                       : Gamma Ray
NPOR.pu                       : Neutron Porosity
~Parameter Information Block
~A  Depth       DCAL        RHOB        RHOC        DPOR         GR         NPOR    
# ...
   734.6000      7.9439      2.5913      0.0388      3.5550     55.9061     19.2287
   734.7000      7.9439      2.5782      0.0065      4.3529     58.2032     18.7983
   734.8000      7.9435      2.5700      0.0258      4.8465     62.6441     18.4808
   734.9000      7.9435      2.5608      0.0401      5.4069     68.1183     18.7932
   735.0000      7.9442      2.5500     -0.0019      6.0625     75.8274     19.4204
   735.1000      7.9442      2.5488      0.0057      6.1359     83.8166     19.8089
   735.2000      7.9442      2.5541      0.0056      5.8115     87.2499     19.9581
   735.3000      7.9450      2.5518      0.0408      5.9523     83.7477     20.0548
   735.4000      7.9450      2.5425      0.0068      6.5151     76.9489     20.2182
   735.5000      7.9437      2.5337      0.0613      7.0482     73.5593     20.3820
   735.6000      7.9437      2.5220      0.0408      7.7593     77.3292     20.4282
   735.7000      7.9437      2.5160      0.0454      8.1193     83.1585     20.5422
   735.8000      7.9407      2.5300      0.0370      7.2731     83.5855     20.6965
   735.9000      7.9407      2.5522      0.0444      5.9298     77.2405     20.6051
   736.0000      7.9393      2.5667      0.0754      5.0457     67.2093     20.3483
   736.1000      7.9393      2.5868      0.0480      3.8305     59.1703     20.0982
   736.2000      7.9393      2.6229      0.1427      1.6400     57.5024     19.8851
   736.3000      7.9406      2.6485      0.1586      0.0909     59.5009     19.7529
   736.4000      7.9406      2.6419      0.1042      0.4917     62.3804     19.7710
   736.5000      7.9411      2.6204      0.0731      1.7947     67.4031     19.9336
   736.6000      7.9411      2.6067      0.1117      2.6249     72.0769     20.2785
   736.7000      7.9411      2.6010      0.0562      2.9670     73.4141     20.5670
   736.8000      7.9409      2.5945      0.0710      3.3634     73.9862     20.6736
   736.9000      7.9409      2.5760      0.0925      4.4864     75.6553     20.6085
   737.0000      7.9418      2.5401      0.0368      6.6626     79.0866     20.1687
   737.1000      7.9418      2.5026     -0.0194      8.9304     85.9658     19.6161
   737.2000      7.9418      2.4910     -0.0442      9.6381     90.9091     19.4830
   737.3000      7.9418      2.5109      0.0110      8.4280     85.9435     19.9012
   737.4000      7.9418      2.5412      0.0269      6.5933     75.0831     20.7986
   737.5000      7.9409      2.5684      0.0129      4.9451     68.7050     21.8432
   737.6000      7.9409      2.5913      0.0344      3.5562     67.8198     22.3065
   737.7000      7.9409      2.5989      0.0721      3.0993     67.0702     22.1037
   737.8000      7.9413      2.5869      0.0598      3.8258     64.7817     21.9819
   737.9000      7.9413      2.5729      0.0598      4.6741     63.0129     22.4350
   738.0000      7.9427      2.5745      0.0581      4.5786     63.4374     23.0717
   738.1000      7.9427      2.5867      0.0894      3.8376     64.7897     23.3027
   738.2000      7.9427      2.5871      0.0858      3.8108     66.0016     23.0522
   738.3000      7.9430      2.5680      0.0677      4.9673     68.3358     22.5681
   738.4000      7.9430      2.5501      0.0418      6.0520     72.0877     22.0292
   738.5000      7.9428      2.5501      0.0570      6.0540     75.3010     21.4622
   738.6000      7.9428      2.5566      0.0699      5.6591     78.0951     20.9860
   738.7000      7.9428      2.5570      0.0249      5.6335     81.0069     20.7890
   738.8000      7.9434      2.5590      0.0253      5.5159     82.3195     20.9199
   738.9000      7.9434      2.5667      0.0273      5.0465     81.1344     21.0542
   739.0000      7.9448      2.5738      0.0272      4.6189     76.7698     20.9983
   739.1000      7.9448      2.5822     -0.0161      4.1108     70.6351     21.1228
   739.2000      7.9448      2.5907      0.0539      3.5918     65.9653     21.2828
   739.3000      7.9457      2.5866      0.0364      3.8413     64.7348     20.9486
   739.4000      7.9457      2.5750      0.0160      4.5455     66.9776     20.5963
   739.5000      7.9466      2.5736      0.0217      4.6292     71.8202     21.2112
   739.6000      7.9466      2.5831      0.0320      4.0529     76.4589     22.3801
   739.7000      7.9466      2.5915      0.0449      3.5433     78.0010     22.8305
   739.8000      7.9481      2.5934      0.0215      3.4318     78.7005     22.6752
   739.9000      7.9481      2.5918      0.0490      3.5299     81.4734     22.4336
   740.0000      7.9468      2.5917      0.0258      3.5344     82.5832     22.0240
   740.1000      7.9468      2.5998      0.0523      3.0430     79.7842     21.3977
   740.2000      7.9468      2.6152      0.0509      2.1074     78.3124     20.7843
   740.3000      7.9443      2.6263      0.0591      1.4363     77.4002     20.5769
   740.4000      7.9443      2.6270      0.0528      1.3966     72.5938     20.7584
   740.5000      7.9438      2.6243      0.0752      1.5554     68.7147     21.2204
   740.6000      7.9438      2.6173      0.0977      1.9803     71.3187     22.0573
   740.7000      7.9438      2.5949      0.0714      3.3369     76.9652     22.7952
   740.8000      7.9445      2.5629      0.0179      5.2814     79.4447     22.5723
   740.9000      7.9445      2.5370      0.0260      6.8511     78.3466     21.5903
   741.0000      7.9447      2.5160      0.0172      8.1216     76.7490     21.0398
   741.1000      7.9447      2.4984     -0.0214      9.1866     76.7878     21.3506
   741.2000      7.9447      2.4989     -0.0170      9.1585     76.8028     21.8322
   741.3000      7.9435      2.5224     -0.0202      7.7354     74.8245     21.8318
   741.4000      7.9435      2.5477      0.0373      6.2028     73.7387     21.3782
   741.5000      7.9419      2.5523      0.0430      5.9241     76.1311     20.9043
   741.6000      7.9419      2.5444      0.0060      6.4025     79.7269     20.4324
   741.7000      7.9419      2.5469      0.0343      6.2464     83.3029     19.1351
   741.8000      7.9409      2.5544      0.0104      5.7932     87.3341     16.9531
   741.9000      7.9409      2.5286      0.0465      7.3558     90.0952     15.2123
   742.0000      7.9388      2.4486     -0.0280     12.2088     90.0929     14.8389
   742.1000      7.9388      2.3429     -0.0700     18.6092     88.7245     15.5538
   742.2000      7.9388      2.2446     -0.0427     24.5684     87.4091     16.4530
   742.3000      7.9379      2.1547     -0.0724     30.0190     84.3488     17.2328
   742.4000      7.9379      2.0704     -0.0883     35.1260     78.7548     17.9705
   742.5000      7.9420      2.0077     -0.1624     38.9287     76.2993     18.5073
   742.6000      7.9420      1.9817     -0.1047     40.5003     81.0215     19.1113
   742.7000      7.9420      1.9920     -0.0621     39.8793     90.7758     20.2375
   742.8000      7.9452      2.0371      0.0253     37.1476    101.2848     21.7470
   742.9000      7.9452      2.1167      0.1297     32.3202    108.8084     22.9274
   743.0000      7.9451      2.2159      0.2682     26.3079    112.6659     23.2334
   743.1000      7.9451      2.3048      0.2845     20.9236    116.0236     22.8102
   743.2000      7.9451      2.3675      0.2052     17.1231    124.8448     22.4883
   743.3000      7.9438      2.4166      0.1680     14.1461    140.0096     23.0929
   743.4000      7.9438      2.4604      0.2181     11.4930    153.1230     24.3084
   743.5000      7.9423      2.4859      0.1936      9.9469    155.0828     25.2350
   743.6000      7.9423      2.4906      0.1384      9.6589    147.5507     25.7394
   743.7000      7.9423      2.4948      0.1156      9.4079    141.6061     26.1755
   743.8000      7.9414      2.5080      0.1270      8.6042    142.6030     26.5187
   743.9000      7.9414      2.5191      0.1107      7.9362    148.5656     26.5190
   744.0000      7.9416      2.5207      0.1379      7.8357    152.8367     26.5070
   744.1000      7.9416      2.5142      0.1039      8.2284    146.0334     26.8972
