~Version Information
VERS.                      2.0: CWLS Log ASCII Standard - VERSION 2.0
WRAP.                       NO: One line per depth step
~Well Information Block
STRT.FT               840.0000: 
STOP.FT              1913.5000: 
STEP.FT                 0.2500: 
NULL.                -999.2500: 
COMP.          Petrogulf Corporation: COMPANY
WELL.             Kraft 17-23R: WELL
FLD.           Purgatorie River: FIELD
LOC.           1509' FSL & 1673' FWL: LOCATION
PROV.                 Colorado: PROVINCE
CNTY.               Las Animas: COUNTRY
SRVC.                Patterson: SERVICE COMPANY
DATE.          Tue Oct 11 13:03:25 2005: LOG DATE
UWI.                          : UNIQUE WELL ID
~Curve Information Block
DEPT.FT            0 000 00 00: Depth
SP.mV                         : DIL Spontaneous Potential
RILD.Ohm-m                    : DIL Deep Resistivity
RILM.Ohm-m                    : DIL Medium Resistivity
RLL3.Ohm-m                    : DIL Shallow Resistivity
GR.GAPI                       : Gamma Ray
~Parameter Information Block
~A  Depth        SP         RILD        RILM        RLL3         GR     
# ...
  1120.0000    188.6028     18.4383     18.6307     21.6616     82.6040
  1120.2500    189.2285     17.3422     16.8840     16.6353     87.3722
  1120.5000    189.6810     16.3955     15.5380     14.2604     95.3402
  1120.7500    189.9991     15.5668     14.5064     13.4821    101.3943
  1121.0000    190.2295     14.8351     13.7180     13.5316    112.2547
  1121.2500    190.4133     14.1911     13.1160     13.9680    120.6357
  1121.5000    190.5788     13.6366     12.6567     14.5255    133.1561
  1121.7500    190.7446     13.1794     12.3077     15.0162    139.8188
  1122.0000    190.9282     12.8276     12.0472     15.3114    145.3601
  1122.2500    191.1495     12.5859     11.8622     15.3540    146.1758
  1122.5000    191.4254     12.4537     11.7471     15.1739    144.6514
  1122.7500    191.7593     12.4257     11.7010     14.8819    142.7260
  1123.0000    192.1325     12.4923     11.7263     14.6271    139.4208
  1123.2500    192.5026     12.6396     11.8252     14.5403    137.1988
  1123.5000    192.8115     12.8494     11.9989     14.7051    133.8535
  1123.7500    192.9996     13.0998     12.2450     15.1604    131.4631
  1124.0000    193.0213     13.3671     12.5567     15.9085    127.8249
  1124.2500    192.8540     13.6279     12.9214     16.9136    125.9186
  1124.5000    192.4957     13.8633     13.3199     18.0990    124.5690
  1124.7500    191.9551     14.0597     13.7270     19.3465    124.2683
  1125.0000    191.2437     14.2095     14.1124     20.4947    122.9625
  1125.2500    190.3760     14.3080     14.4442     21.3490    120.9382
  1125.5000    189.3767     14.3527     14.6926     21.7303    117.0327
  1125.7500    188.2846     14.3429     14.8356     21.5688    114.8223
  1126.0000    187.1479     14.2805     14.8618     20.9635    112.9812
  1126.2500    186.0147     14.1679     14.7722     20.1235    112.7689
  1126.5000    184.9276     14.0073     14.5780     19.2295    114.0433
  1126.7500    183.9249     13.8006     14.2975     18.3558    116.0176
  1127.0000    183.0407     13.5523     13.9527     17.4986    119.9878
  1127.2500    182.2998     13.2705     13.5661     16.6407    122.2585
  1127.5000    181.7082     12.9664     13.1593     15.7912    123.1700
  1127.7500    181.2469     12.6518     12.7522     14.9935    121.8086
  1128.0000    180.8740     12.3379     12.3615     14.3102    118.5826
  1128.2500    180.5382     12.0350     12.0006     13.7969    117.5260
  1128.5000    180.1948     11.7519     11.6787     13.4879    120.1217
  1128.7500    179.8181     11.4943     11.4009     13.4004    124.7687
  1129.0000    179.4036     11.2641     11.1676     13.5379    133.8104
  1129.2500    178.9630     11.0600     10.9757     13.8691    139.0868
  1129.5000    178.5152     10.8791     10.8190     14.2956    142.9684
  1129.7500    178.0784     10.7190     10.6891     14.6593    142.6126
  1130.0000    177.6633     10.5770     10.5767     14.8244    139.7730
  1130.2500    177.2723     10.4494     10.4723     14.7716    137.9345
  1130.5000    176.9043     10.3308     10.3678     14.6076    136.1933
  1130.7500    176.5614     10.2151     10.2564     14.4729    134.9643
  1131.0000    176.2527     10.0990     10.1335     14.4434    131.4633
  1131.2500    175.9924      9.9846      9.9970     14.5012    128.2127
  1131.5000    175.7948      9.8802      9.8478     14.5594    124.3014
  1131.7500    175.6662      9.7981      9.6897     14.5049    123.6820
  1132.0000    175.5981      9.7517      9.5307     14.2521    125.9314
  1132.2500    175.5652      9.7529      9.3820     13.7932    128.4931
  1132.5000    175.5325      9.8111      9.2582     13.2014    131.7964
  1132.7500    175.4677      9.9331      9.1761     12.5845    133.0028
  1133.0000    175.3565     10.1215      9.1538     12.0524    133.5892
  1133.2500    175.2118     10.3736      9.2097     11.7610    133.7648
  1133.5000    175.0755     10.6800      9.3620     12.0665    134.3068
  1133.7500    175.0075     11.0251      9.6275     13.8116    134.3817
  1134.0000    175.0705     11.3889     10.0211     18.6891    132.0618
  1134.2500    175.3163     11.7497     10.5532     29.3329    127.9332
  1134.5000    175.7791     12.0876     11.2252     48.4518    117.8885
  1134.7500    176.4744     12.3883     12.0224     76.6131    109.3652
  1135.0000    177.3960     12.6460     12.9055    109.6651     95.1332
  1135.2500    178.5155     12.8653     13.8037    138.3289     85.2840
  1135.5000    179.7859     13.0595     14.6169    151.9191     71.2272
  1135.7500    181.1513     13.2448     15.2356    144.6468     63.3395
  1136.0000    182.5556     13.4320     15.5754    119.6043     55.5241
  1136.2500    183.9426     13.6199     15.6088     86.7441     53.6294
  1136.5000    185.2489     13.7920     15.3732     56.5906     55.5601
  1136.7500    186.4027     13.9211     14.9494     35.0558     59.3426
  1137.0000    187.3365     13.9772     14.4274     22.6503     67.6495
  1137.2500    188.0064     13.9376     13.8818     16.8665     74.5535
  1137.5000    188.4033     13.7947     13.3621     14.7704     86.0354
  1137.7500    188.5519     13.5589     12.8950     14.2693     93.4986
  1138.0000    188.4994     13.2576     12.4919     14.2579    102.9541
  1138.2500    188.3009     12.9284     12.1557     14.3202    107.9934
  1138.5000    188.0054     12.6101     11.8864     14.3938    114.5868
  1138.7500    187.6472     12.3357     11.6835     14.5389    118.8590
  1139.0000    187.2460     12.1296     11.5471     14.8217    125.1539
  1139.2500    186.8154     12.0077     11.4780     15.2765    128.8575
  1139.5000    186.3708     11.9794     11.4766     15.8942    132.5371
  1139.7500    185.9308     12.0496     11.5438     16.6164    133.1302
  1140.0000    185.5140     12.2194     11.6801     17.3411    131.0796
  1140.2500    185.1368     12.4869     11.8868     17.9592    128.3874
  1140.5000    184.8126     12.8479     12.1660     18.4115    123.9722
  1140.7500    184.5473     13.2964     12.5221     18.7194    121.3604
  1141.0000    184.3302     13.8252     12.9613     18.9688    118.0572
  1141.2500    184.1280     14.4253     13.4919     19.2974    116.2647
  1141.5000    183.8855     15.0860     14.1235     19.9198    114.5297
  1141.7500    183.5337     15.7949     14.8653     21.1270    114.0791
  1142.0000    183.0052     16.5415     15.7247     23.1528    113.6910
  1142.2500    182.2565     17.3204     16.7055     25.9221    112.8713
  1142.5000    181.2875     18.1354     17.8065     28.8984    110.0706
  1142.7500    180.1419     18.9988     19.0219     31.3211    107.3353
  1143.0000    178.8854     19.9246     20.3418     32.7945    102.8131
  1143.2500    177.5756     20.9197     21.7543     33.6866     99.9986
  1143.5000    176.2469     21.9761     23.2459     34.8410     96.4948
  1143.7500    174.9165     23.0705     24.8008     36.8699     94.5058
  1144.0000    173.5982     24.1715     26.3977     39.7927     91.1144
  1144.2500    172.3118     25.2478     28.0049     43.2865     87.9747
  1144.5000    171.0844     26.2730     29.5769     47.0278     81.7388
  1144.7500    169.9467     27.2247     31.0543     50.6348     77.1454
  1145.0000    168.9274     28.0835     32.3695     53.4808     71.4428
  1145.2500    168.0461     28.8346     33.4588     54.9386     69.4889
  1145.5000    167.3049     29.4703     34.2747     54.9442     69.8862
  1145.7500    166.6860     29.9920     34.7965     54.1142     71.5932
  1146.0000    166.1549     30.4098     35.0327     53.0599     73.8808
  1146.2500    165.6694     30.7412     35.0178     51.6045     74.1905
  1146.5000    165.1882     31.0055     34.8039     48.9142     73.2267
  1146.7500    164.6788     31.2153     34.4515     44.5528     73.0213
  1147.0000    164.1228     31.3688     34.0205     39.2927     75.8586
  1147.2500    163.5205     31.4498     33.5630     34.7285     80.1710
  1147.5000    162.8905     31.4382     33.1187     32.1423     88.0495
  1147.7500    162.2645     31.3273     32.7125     31.7938     92.0299
