~Version Information
VERS.                      2.0: CWLS Log ASCII Standard - VERSION 2.0
WRAP.                       NO: One line per depth step
~Well Information Block
STRT.FT                -1.5000: 
STOP.FT              2898.5000: 
STEP.FT                 0.2500: 
NULL.                -999.2500: 
COMP.          Pioneer Natural Resources: COMPANY
WELL.          Hanginstone 21-27: WELL
FLD.           Purgatoire River: FIELD
LOC.           1186' FNL & 1606' FWL--: LOCATION
PROV.                 Colorado: PROVINCE
CNTY.               Las Animas: COUNTRY
SRVC.                Patterson: SERVICE COMPANY
DATE.          Mon Jan 23 11:03:53 2006: LOG DATE
UWI.           05 071 08632 00: UNIQUE WELL ID
~Curve Information Block
DEPT.FT            0 000 00 00: Depth
CCL.                          : Casing Collar Locator
TT3.usec                      : CBL 3' Travel Time
AMP3.mV                       : CBL 3' Amplitude
GR.GAPI                       : Gamma Ray
~Parameter Information Block
~A  Depth       CCL         TT3         AMP3         GR     
# ...
  2109.0000      0.0000    639.4945      4.5627    156.9956
  2109.2500      0.0000    656.9539      4.5375    155.8038
  2109.5000      0.0000    656.0096      4.5215    152.2704
  2109.7500      0.0000    642.0857      4.5090    148.7324
  2110.0000      0.0000    630.9449      4.5015    148.2143
  2110.2500      0.0000    636.5533      4.5030    151.3855
  2110.5000      0.0000    657.9498      4.5115    156.0347
  2110.7500      0.0000    678.7222      4.5184    159.4778
  2111.0000      0.0000    681.0426      4.5124    160.4811
  2111.2500      0.0000    660.5953      4.4860    158.8058
  2111.5000      0.0000    627.7405      4.4420    154.3482
  2111.7500      0.0000    595.1225      4.3909    147.6496
  2112.0000      0.0000    567.0042      4.3454    140.5871
  2112.2500      0.0000    542.0278      4.3207    135.5421
  2112.5000      0.0000    522.8270      4.3297    133.5803
  2112.7500      0.0000    518.3713      4.3679    133.6151
  2113.0000      0.0000    536.5554      4.4086    133.4032
  2113.2500      0.0000    575.3709      4.4269    131.2501
  2113.5000      0.0000    621.5569      4.4238    127.0453
  2113.7500      0.0000    659.5592      4.4225    122.4113
  2114.0000      0.0000    683.4886      4.4466    120.1148
  2114.2500      0.0000    699.3807      4.5033    122.7720
  2114.5000      0.0000    715.4700      4.5825    131.3716
  2114.7500      0.0000    732.7975      4.6662    144.5930
  2115.0000      0.0000    746.1656      4.7381    159.3505
  2115.2500      0.0000    751.1683      4.7894    172.2063
  2115.5000      0.0000    748.2915      4.8157    180.9494
  2115.7500      0.0000    741.4903      4.8150    185.2348
  2116.0000      0.0000    734.2794      4.7880    185.9248
  2116.2500      0.0000    727.2461      4.7421    184.3626
  2116.5000      0.0000    718.7007      4.6885    182.3221
  2116.7500      0.0000    706.1103      4.6369    181.6501
  2117.0000      0.0000    686.1352      4.5932    183.0573
  2117.2500      0.0000    655.5687      4.5620    185.2722
  2117.5000      0.0000    615.9222      4.5465    185.8101
  2117.7500      0.0000    577.7410      4.5466    182.7911
  2118.0000      0.0000    557.8315      4.5578    176.1822
  2118.2500      0.0000    569.1082      4.5746    167.4787
  2118.5000      0.0000    611.0518      4.5941    158.2501
  2118.7500      0.0000    669.1993      4.6166    149.1928
  2119.0000      0.0000    724.6874      4.6444    140.7984
  2119.2500      0.0000    765.6401      4.6811    134.3529
  2119.5000      0.0000    790.5461      4.7323    131.2778
  2119.7500      0.0000    803.3248      4.8017    131.3976
  2120.0000      0.0000    808.1227      4.8836    132.7853
  2120.2500      0.0000    808.1011      4.9603    133.6349
  2120.5000      0.0000    805.2269      5.0073    133.7479
  2120.7500      0.0000    798.7020      5.0043    134.0997
  2121.0000      0.0000    784.8989      4.9490    135.3383
  2121.2500      0.0000    761.4907      4.8711    136.8412
  2121.5000      0.0000    732.4040      4.8256    137.4069
  2121.7500      0.0000    707.1295      4.8517    136.9866
  2122.0000      0.0000    694.0776      4.9272    137.1233
  2122.2500      0.0000    695.1150      4.9812    139.1494
  2122.5000      0.0000    705.7830      4.9637    142.5412
  2122.7500      0.0000    717.6406      4.8915    145.6809
  2123.0000      0.0000    719.5923      4.8173    147.9272
  2123.2500      0.0000    701.4990      4.7719    150.3945
  2123.5000      0.0000    662.1041      4.7470    154.5783
  2123.7500      0.0000    614.7338      4.7204    160.2773
  2124.0000      0.0000    582.2626      4.6831    164.9425
  2124.2500      0.0000    582.6919      4.6435    165.2037
  2124.5000      0.0000    616.7371      4.6158    159.5970
  2124.7500      0.0000    667.3534      4.6071    150.4019
  2125.0000      0.0000    710.8439      4.6159    142.7296
  2125.2500      0.0000    729.8914      4.6366    141.1017
  2125.5000      0.0000    719.2875      4.6650    146.2287
  2125.7500      0.0000    684.0955      4.6981    154.6506
  2126.0000      0.0000    635.9610      4.7295    161.4859
  2126.2500      0.0000    590.2433      4.7480    163.9972
  2126.5000      0.0000    561.9742      4.7443    162.9349
  2126.7500      0.0000    559.8679      4.7197    160.6133
  2127.0000      0.0000    581.7282      4.6845    158.2397
  2127.2500      0.0000    615.6114      4.6455    155.5359
  2127.5000      0.0000    647.6084      4.5978    152.3745
  2127.7500      0.0000    671.1512      4.5275    149.7964
  2128.0000      0.0000    689.3602      4.4216    149.1006
  2128.2500      0.0000    708.2104      4.2798    150.2566
  2128.5000      0.0000    729.0325      4.1262    151.7944
  2128.7500      0.0000    749.0104      4.0003    152.6019
  2129.0000      0.0000    766.3802      3.9275    153.4020
  2129.2500     -2.0000    781.3339      3.9027    155.7319
  2129.5000      2.0000    792.7597      3.9068    159.8685
  2129.7500      2.0000    797.7750      3.9331    164.6603
  2130.0000     -2.0000    794.6708      3.9977    169.0672
  2130.2500      0.0000    784.0615      4.1251    172.8853
  2130.5000      0.0000    767.3605      4.3159    176.1401
  2130.7500      0.0000    746.3573      4.5213    178.6817
  2131.0000      0.0000    724.2751      4.6628    180.4161
  2131.2500      0.0000    704.7785      4.6946    181.1542
  2131.5000      0.0000    688.2222      4.6392    180.0615
  2131.7500      0.0000    669.5195      4.5549    175.9838
  2132.0000      0.0000    641.3090      4.4834    168.7967
  2132.2500      0.0000    600.5593      4.4328    160.1544
  2132.5000      0.0000    552.5068      4.3938    152.5618
  2132.7500      0.0000    507.6328      4.3592    147.7105
  2133.0000      0.0000    474.3481      4.3298    145.6264
  2133.2500      0.0000    454.4896      4.3094    145.0049
  2133.5000      0.0000    444.7563      4.2958    144.2589
  2133.7500      0.0000    440.7118      4.2817    142.8362
  2134.0000      0.0000    439.2155      4.2657    142.0916
  2134.2500      0.0000    438.6431      4.2605    144.3349
  2134.5000      0.0000    438.2842      4.2893    150.0884
  2134.7500      0.0000    437.8662      4.3662    156.5745
  2135.0000      0.0000    437.3276      4.4756    159.8342
  2135.2500      0.0000    436.7354      4.5765    158.3242
  2135.5000      0.0000    436.2222      4.6344    153.7485
  2135.7500      0.0000    435.9069      4.6441    148.6641
  2136.0000      0.0000    435.8170      4.6194    144.0845
  2136.2500      0.0000    435.8699      4.5730    139.4111
  2136.5000      0.0000    435.9286      4.5150    134.1431
  2136.7500      0.0000    435.8915      4.4615    129.3703
  2137.0000      0.0000    435.7616      4.4286    127.6070
  2137.2500      0.0000    435.6523      4.4194    130.9678
  2137.5000      0.0000    435.7086      4.4234    139.0195
  2137.7500      0.0000    435.9902      4.4290    148.1149
  2138.0000      0.0000    436.4297      4.4310    153.2120
  2138.2500      0.0000    436.9163      4.4290    151.2832
  2138.5000      0.0000    437.4483      4.4222    143.5712
  2138.7500      0.0000    438.2616      4.4092    134.5270
  2139.0000      0.0000    439.9306      4.3903    128.5322
  2139.2500      0.0000    443.3423      4.3688    127.5930
  2139.5000      0.0000    449.4316      4.3492    131.3248
  2139.7500      0.0000    458.8469      4.3354    137.9249
  2140.0000      0.0000    472.4372      4.3300    144.9175
  2140.2500      0.0000    492.7000      4.3317    149.9530
  2140.5000      0.0000    523.9373      4.3324    151.6218
  2140.7500      0.0000    568.8148      4.3232    149.4739
  2141.0000      0.0000    623.5715      4.3046    143.7182
  2141.2500      0.0000    677.5107      4.2879    135.5230
  2141.5000      0.0000    718.0397      4.2837    126.9129
  2141.7500      0.0000    737.1165      4.2927    119.2416
  2142.0000      0.0000    735.3748      4.3074    112.0912
  2142.2500      0.0000    722.3033      4.3174    104.5713
