~Version Information
VERS.                      2.0: CWLS Log ASCII Standard - VERSION 2.0
WRAP.                       NO: One line per depth step
~Well Information Block
STRT.FT                 2.0000: 
STOP.FT               698.7500: 
STEP.FT                 0.2500: 
NULL.                -999.2500: 
COMP.          XTO Energy Inc.: COMPANY
WELL.          Golden Eagle 20-14: WELL
FLD.           Purgatrorie River: FIELD
LOC.           587' FSL & 2478' FWL--: LOCATION
STAT.                       CO: State
CNTY.               Las Animas: COUNTY
CTRY. USA : Country
SECT. 20 : Section
TOWN. 33S : Township
RANG. 67W : Range
SRVC.          Patterson Wireline: SERVICE COMPANY
DATE.          Sat Dec 10 16:49:08 2005: LOG DATE
API.           05 071 08614 00: UNIQUE WELL ID
~Curve Information Block
DEPT.FT            0 000 00 00: Depth
MINMK.                        : Magnetic Mark Ticks
TEMP.degF                     : Downhole Temperature
DTMP.degF                     : Delta Temperature
~Parameter Information Block
~A  Depth      MINMK        TEMP        DTMP    
# ...
   544.7500      0.0000     68.1559      0.0511
   545.0000      0.0000     68.1683      0.0513
   545.2500      0.0000     68.1808      0.0514
   545.5000      0.0000     68.1933      0.0500
   545.7500      0.0000     68.2058      0.0500
   546.0000      0.0000     68.2184      0.0502
   546.2500      0.0000     68.2309      0.0501
   546.5000      0.0000     68.2435      0.0502
   546.7500      0.0000     68.2560      0.0502
   547.0000      0.0000     68.2686      0.0502
   547.2500      0.0000     68.2811      0.0518
   547.5000      0.0000     68.2936      0.0519
   547.7500      0.0000     68.3061      0.0521
   548.0000      0.0000     68.3188      0.0522
   548.2500      0.0000     68.3346      0.0525
   548.5000      0.0000     68.3474      0.0527
   548.7500      0.0000     68.3602      0.0548
   549.0000      0.0000     68.3730      0.0534
   549.2500      0.0000     68.3860      0.0539
   549.5000      0.0000     68.3991      0.0543
   549.7500      0.0000     68.4157      0.0547
   550.0000      0.0000     68.4256      0.0551
   550.2500      0.0000     68.4425      0.0555
   550.5000      0.0000     68.4560      0.0559
   550.7500      0.0000     68.4696      0.0563
   551.0000      0.0000     68.4833      0.0583
   551.2500      0.0000     68.4970      0.0570
   551.5000      0.0000     68.5108      0.0555
   551.7500      0.0000     68.5283      0.0558
   552.0000      0.0000     68.5423      0.0561
   552.2500      0.0000     68.5564      0.0564
   552.5000      0.0000     68.5669      0.0586
   552.7500      0.0000     68.5812      0.0571
   553.0000      0.0000     68.5954      0.0575
   553.2500      0.0000     68.6099      0.0597
   553.5000      0.0000     68.6280      0.0619
   553.7500      0.0000     68.6425      0.0624
   554.0000      0.0000     68.6572      0.0609
   554.2500      0.0000     68.6758      0.0632
   554.5000      0.0000     68.6908      0.0619
   554.7500      0.0000     68.7059      0.0624
   555.0000      0.0000     68.7173      0.0628
   555.2500      0.0000     68.7363      0.0614
   555.5000      0.0000     68.7518      0.0638
   555.7500      0.0000     68.7673      0.0642
   556.0000      0.0000     68.7829      0.0665
   556.2500      0.0000     68.7986      0.0649
   556.5000      0.0000     68.8184      0.0652
   556.7500      0.0000     68.8343      0.0655
   557.0000      0.0000     68.8502      0.0658
   557.2500      0.0000     68.8662      0.0660
   557.5000      0.0000     68.8822      0.0641
   557.7500      0.0000     68.8982      0.0642
   558.0000      0.0000     68.9144      0.0661
   558.2500      0.0000     68.9305      0.0658
   558.5000      0.0000     68.9466      0.0652
   558.7500      0.0000     68.9626      0.0643
   559.0000      0.0000     68.9823      0.0630
   559.2500      0.0000     68.9978      0.0614
   559.5000      0.0000     69.0127      0.0594
   559.7500      0.0000     69.0269      0.0571
   560.0000      0.0000     69.0404      0.0525
   560.2500      0.0000     69.0533      0.0496
   560.5000      0.0000     69.0655      0.0466
   560.7500      0.0000     69.0767      0.0444
   561.0000      0.0000     69.0872      0.0413
   561.2500      0.0000     69.0969      0.0382
   561.5000      0.0000     69.1058      0.0357
   561.7500      0.0000     69.1158      0.0327
   562.0000      0.0000     69.1231      0.0298
   562.2500      0.0000     69.1297      0.0270
   562.5000      0.0000     69.1369      0.0243
   562.7500      0.0000     69.1421      0.0208
   563.0000      0.0000     69.1468      0.0184
   563.2500      0.0000     69.1508      0.0162
   563.5000      0.0000     69.1544      0.0134
   563.7500      0.0000     69.1574      0.0114
   564.0000      0.0000     69.1600      0.0095
   564.2500      0.0000     69.1620      0.0077
   564.5000      0.0000     69.1637      0.0059
   564.7500      0.0000     69.1649      0.0043
   565.0000      0.0000     69.1657      0.0027
   565.2500      0.0000     69.1662      0.0012
   565.5000      0.0000     69.1662     -0.0003
   565.7500      0.0000     69.1660     -0.0017
   566.0000      0.0000     69.1654     -0.0029
   566.2500      0.0000     69.1645     -0.0041
   566.5000      0.0000     69.1630     -0.0053
   566.7500      0.0000     69.1615     -0.0063
   567.0000      0.0000     69.1598     -0.0073
   567.2500      0.0000     69.1579     -0.0083
   567.5000      0.0000     69.1557     -0.0094
   567.7500      0.0000     69.1533     -0.0102
   568.0000      0.0000     69.1507     -0.0111
   568.2500      0.0000     69.1480     -0.0119
   568.5000      0.0000     69.1442     -0.0126
   568.7500      0.0000     69.1411     -0.0138
   569.0000      0.0000     69.1377     -0.0140
   569.2500      0.0000     69.1342     -0.0147
   569.5000      0.0000     69.1305     -0.0149
   569.7500      0.0000     69.1257     -0.0155
   570.0000      0.0000     69.1227     -0.0167
   570.2500      0.0000     69.1186     -0.0167
   570.5000      0.0000     69.1143     -0.0178
   570.7500      0.0000     69.1100     -0.0178
   571.0000      0.0000     69.1043     -0.0188
   571.2500      0.0000     69.1008     -0.0192
   571.5000      0.0000     69.0949     -0.0196
   571.7500      0.0000     69.0901     -0.0200
   572.0000      0.0000     69.0851     -0.0197
   572.2500      0.0000     69.0802     -0.0206
   572.5000      0.0000     69.0751     -0.0202
   572.7500      0.0000     69.0700     -0.0204
   573.0000      0.0000     69.0649     -0.0205
   573.2500      0.0000     69.0597     -0.0214
   573.5000      0.0000     69.0545     -0.0215
   573.7500      0.0000     69.0493     -0.0216
   574.0000      0.0000     69.0441     -0.0217
   574.2500      0.0000     69.0374     -0.0224
   574.5000      0.0000     69.0321     -0.0225
   574.7500      0.0000     69.0268     -0.0226
   575.0000      0.0000     69.0215     -0.0226
   575.2500      0.0000     69.0149     -0.0220
   575.5000      0.0000     69.0095     -0.0220
   575.7500      0.0000     69.0042     -0.0220
   576.0000      0.0000     68.9988     -0.0220
   576.2500      0.0000     68.9935     -0.0213
   576.5000      0.0000     68.9882     -0.0213
   576.7500      0.0000     68.9829     -0.0212
   577.0000      0.0000     68.9776     -0.0212
   577.2500      0.0000     68.9723     -0.0211
   577.5000      0.0000     68.9670     -0.0211
   577.7500      0.0000     68.9618     -0.0211
   578.0000      0.0000     68.9565     -0.0217
   578.2500      0.0000     68.9513     -0.0216
   578.5000      0.0000     68.9460     -0.0216
   578.7500      0.0000     68.9408     -0.0216
   579.0000      0.0000     68.9342     -0.0216
   579.2500      0.0000     68.9290     -0.0215
   579.5000      0.0000     68.9238     -0.0221
   579.7500      0.0000     68.9186     -0.0221
   580.0000      0.0000     68.9134     -0.0213
   580.2500      0.0000     68.9082     -0.0212
   580.5000      0.0000     68.9017     -0.0210
   580.7500      0.0000     68.8966     -0.0207
   581.0000      0.0000     68.8917     -0.0204
   581.2500      0.0000     68.8867     -0.0200
   581.5000      0.0000     68.8819     -0.0189
   581.7500      0.0000     68.8772     -0.0185
   582.0000      0.0000     68.8726     -0.0180
   582.2500      0.0000     68.8682     -0.0175
   582.5000      0.0000     68.8639     -0.0170
   582.7500      0.0000     68.8597     -0.0165
   583.0000      0.0000     68.8557     -0.0160
   583.2500      0.0000     68.8518     -0.0155
   583.5000      0.0000     68.8480     -0.0150
   583.7500      0.0000     68.8443     -0.0149
   584.0000      0.0000     68.8407     -0.0145
   584.2500      0.0000     68.8372     -0.0140
   584.5000      0.0000     68.8339     -0.0136
   584.7500      0.0000     68.8299     -0.0132
   585.0000      0.0000     68.8268     -0.0128
   585.2500      0.0000     68.8237     -0.0124
   585.5000      0.0000     68.8208     -0.0123
   585.7500      0.0000     68.8180     -0.0116
   586.0000      1.0000     68.8152     -0.0113
   586.2500      1.0000     68.8125     -0.0110
