~Version Information
VERS.                      2.0: CWLS Log ASCII Standard - VERSION 2.0
WRAP.                       NO: One line per depth step
~Well Information Block
STRT.FT               380.0000: 
STOP.FT              1887.5000: 
STEP.FT                 0.1000: 
NULL.                -999.2500: 
COMP.          Pioneer Natural Resources: COMPANY
WELL.          Cortina 23-25 Tr: WELL
FLD.           Purgatoire River: FIELD
LOC.           2521' FSL & 2345' FWL: LOCATION
STAT.                 Colorado: State
CNTY.               Las Animas: COUNTY
CTRY. USA : Country
SECT. 25 : Section
TOWN. 32S : Township
RANG. 67W : Range
SRVC.                Patterson: SERVICE COMPANY
DATE.          Mon Sep 26 06:09:01 2005: LOG DATE
API.           05 071 08534 00: UNIQUE WELL ID
~Curve Information Block
DEPT.FT            0 000 00 00: Depth
DCAL.in                       : CDL Caliper
RHOB.g/cc                     : CDL Bulk Density
RHOC.g/cc                     : CDL Density Correction
DPOR.pu                       : CDL Density Porosity
GR.GAPI                       : Gamma Ray
NPOR.pu                       : Neutron Porosity
~Parameter Information Block
~A  Depth       DCAL        RHOB        RHOC        DPOR         GR         NPOR    
# ...
  1474.4000      7.9784      2.3814      0.0362     16.2775    107.3625     25.5239
  1474.5000      7.9743      2.4364      0.1025     12.9439     90.3060     26.7945
  1474.6000      7.9687      2.4958      0.1402      9.3474     76.0376     27.7854
  1474.7000      7.9614      2.5450      0.1190      6.3635     68.0443     28.1134
  1474.8000      7.9524      2.5751      0.1419      4.5390     62.1745     28.2536
  1474.9000      7.9419      2.5745      0.1233      4.5755     56.1464     28.4346
  1475.0000      7.9305      2.5482      0.0542      6.1698     51.7872     28.7755
  1475.1000      7.9186      2.5150      0.0175      8.1836     50.1055     28.9638
  1475.2000      7.9073      2.4804      0.0001     10.2810     50.6753     28.5099
  1475.3000      7.8972      2.4418     -0.0321     12.6152     54.6013     27.8305
  1475.4000      7.8889      2.4012     -0.0166     15.0774     61.1399     27.8238
  1475.5000      7.8828      2.3659     -0.0626     17.2182     65.0068     28.4576
  1475.6000      7.8786      2.3522     -0.1006     18.0461     62.6376     28.6920
  1475.7000      7.8761      2.3652      0.0223     17.2582     57.3378     28.0951
  1475.8000      7.8746      2.3845      0.0459     16.0890     55.4229     27.6973
  1475.9000      7.8738      2.3860      0.0799     16.0000     59.7082     28.1432
  1476.0000      7.8731      2.3518      0.1044     18.0697     67.3440     28.0328
  1476.1000      7.8726      2.2808      0.0871     22.3771     72.2080     27.0061
  1476.2000      7.8722      2.1904      0.1048     27.8549     71.3268     26.7941
  1476.3000      7.8723      2.0872      0.0813     34.1092     67.9822     27.8097
  1476.4000      7.8734      1.9681     -0.0042     41.3292     67.3784     29.1041
  1476.5000      7.8759      1.8504     -0.0509     48.4578     70.2105     30.1740
  1476.6000      7.8802      1.7638     -0.0506     53.7119     73.3549     30.8093
  1476.7000      7.8862      1.7188     -0.0342     56.4359     76.0858     31.0310
  1476.8000      7.8940      1.7012      0.0108     57.5040     79.2897     31.3093
  1476.9000      7.9032      1.6917      0.0390     58.0798     83.2374     31.7183
  1477.0000      7.9134      1.6893      0.0145     58.2214     87.3809     31.5883
  1477.1000      7.9240      1.7051      0.0481     57.2694     91.9944     30.6200
  1477.2000      7.9345      1.7439      0.1003     54.9150     96.9790     29.4868
  1477.3000      7.9444      1.8126      0.0633     50.7512     98.0451     28.9052
  1477.4000      7.9531      1.9161      0.0620     44.4807     92.6667     28.9160
  1477.5000      7.9603      2.0248      0.1918     37.8937     85.7743     29.2190
  1477.6000      7.9658      2.1033      0.1006     33.1323     86.3834     29.6500
  1477.7000      7.9694      2.1648      0.0856     29.4038     96.7575     30.1760
  1477.8000      7.9711      2.2282      0.1721     25.5660    109.0659     30.6062
  1477.9000      7.9711      2.2785      0.1630     22.5159    120.6900     30.3772
  1478.0000      7.9696      2.3057      0.0875     20.8668    132.3387     29.7562
  1478.1000      7.9671      2.3117      0.1103     20.5056    138.5238     29.6309
  1478.2000      7.9642      2.2943      0.0340     21.5553    138.0632     30.2069
  1478.3000      7.9615      2.2646     -0.0041     23.3567    135.3846     31.0828
  1478.4000      7.9595      2.2345      0.0621     25.1834    131.3983     31.5650
  1478.5000      7.9586      2.2091     -0.0057     26.7231    127.6683     31.2477
  1478.6000      7.9591      2.2044     -0.0008     27.0062    123.6212     31.0366
  1478.7000      7.9608      2.2261      0.0601     25.6887    116.8579     31.7235
  1478.8000      7.9634      2.2573      0.0817     23.8024    113.7329     32.4060
  1478.9000      7.9666      2.2828      0.1426     22.2526    122.6073     32.3041
  1479.0000      7.9699      2.3033      0.1249     21.0138    138.8067     31.8145
  1479.1000      7.9730      2.3290      0.0909     19.4535    148.4086     31.4821
  1479.2000      7.9757      2.3614      0.0851     17.4920    147.7931     31.2810
  1479.3000      7.9781      2.3818      0.1224     16.2521    147.9051     30.6435
  1479.4000      7.9802      2.3797      0.0576     16.3792    154.2480     29.5220
  1479.5000      7.9821      2.3669      0.0570     17.1571    160.6662     28.8079
  1479.6000      7.9840      2.3480      0.0907     18.3014    161.4584     29.0666
  1479.7000      7.9859      2.3210      0.0403     19.9376    156.1683     29.8937
  1479.8000      7.9879      2.3036      0.0466     20.9913    146.2342     30.7222
  1479.9000      7.9896      2.3077      0.1062     20.7479    135.8886     31.2416
  1480.0000      7.9909      2.3145      0.1559     20.3320    129.3655     31.1525
  1480.1000      7.9913      2.3128      0.1018     20.4366    128.4781     30.4989
  1480.2000      7.9905      2.3146      0.0993     20.3258    132.1948     29.8100
  1480.3000      7.9882      2.3235      0.1198     19.7851    136.3879     29.4832
  1480.4000      7.9842      2.3375      0.0760     18.9394    135.9100     29.6906
  1480.5000      7.9785      2.3634      0.1017     17.3677    130.5288     30.1753
  1480.6000      7.9713      2.3946      0.1245     15.4764    125.9911     29.9621
  1480.7000      7.9628      2.4087      0.1432     14.6216    123.5314     29.0651
  1480.8000      7.9539      2.3941      0.0663     15.5098    122.8783     28.8917
  1480.9000      7.9450      2.3591      0.0264     17.6274    127.7443     30.0165
  1481.0000      7.9371      2.3132      0.0365     20.4097    135.2549     31.4004
  1481.1000      7.9310      2.2579      0.0472     23.7640    139.8550     31.9068
  1481.2000      7.9271      2.1952      0.0092     27.5610    142.3898     31.5141
  1481.3000      7.9259      2.1408     -0.0569     30.8598    143.1681     30.6983
  1481.4000      7.9274      2.1163     -0.0150     32.3484    141.4222     29.8381
  1481.5000      7.9314      2.1176      0.0519     32.2653    139.7511     29.4131
  1481.6000      7.9377      2.1249      0.0553     31.8223    141.1880     29.6919
  1481.7000      7.9458      2.1297      0.0866     31.5331    143.4442     30.2694
  1481.8000      7.9554      2.1247      0.1152     31.8368    140.1280     30.7604
  1481.9000      7.9661      2.1019      0.1113     33.2196    130.6498     31.0935
  1482.0000      7.9778      2.0742      0.0466     34.8976    121.5153     31.2825
  1482.1000      7.9902      2.0655      0.0821     35.4247    118.2274     31.3357
  1482.2000      8.0029      2.0844      0.0408     34.2795    119.3204     31.0963
  1482.3000      8.0157      2.1338      0.0331     31.2844    121.3976     30.7301
  1482.4000      8.0281      2.2172      0.0372     26.2280    125.5351     30.4006
  1482.5000      8.0396      2.3122      0.1930     20.4733    129.7633     29.7063
  1482.6000      8.0496      2.3655      0.2189     17.2405    130.6393     28.7224
  1482.7000      8.0576      2.3508      0.2752     18.1361    131.1777     27.9244
  1482.8000      8.0632      2.3244      0.1599     19.7314    130.7675     27.4489
  1482.9000      8.0663      2.3722      0.1815     16.8381    124.9150     27.4711
  1483.0000      8.0667      2.4824      0.1584     10.1556    117.7281     27.6217
  1483.1000      8.0647      2.5693      0.1832      4.8894    115.5141     26.9762
  1483.2000      8.0603      2.6027      0.0983      2.8687    119.8510     25.6684
  1483.3000      8.0540      2.6277      0.0876      1.3536    125.0930     24.6761
  1483.4000      8.0463      2.6657      0.2193     -0.9530    121.0462     24.1567
  1483.5000      8.0375      2.6780      0.2573     -1.6950    108.3380     23.2182
  1483.6000      8.0285      2.6415      0.0907      0.5179     97.8262     21.6341
  1483.7000      8.0199      2.5858      0.0446      3.8914     92.6129     20.6110
  1483.8000      8.0123      2.5481      0.0095      6.1766     86.6745     20.7977
  1483.9000      8.0065      2.5383      0.0748      6.7718     82.2618     21.3890
