~Version Information
VERS.                      2.0: CWLS Log ASCII Standard - VERSION 2.0
WRAP.                       NO: One line per depth step
~Well Information Block
STRT.FT               830.0000: 
STOP.FT              1792.5000: 
STEP.FT                 0.1000: 
NULL.                -999.2500: 
COMP.          Pioneer Natural Resources: COMPANY
WELL.           Rolls 14-14 Tr: WELL
FLD.           Purgatoire River: FIELD
LOC.           473' FSL & 817' FWL: LOCATION
PROV.                 Colorado: PROVINCE
CNTY.               Las Animas: COUNTRY
SRVC.                Patterson: SERVICE COMPANY
DATE.          Wed Aug 03 07:11:37 2005: LOG DATE
UWI.           05 071 08454 00: UNIQUE WELL ID
~Curve Information Block
DEPT.FT            0 000 00 00: Depth
DCAL.in                       : CDL Caliper
RHOB.g/cc                     : CDL Bulk Density
RHOC.g/cc                     : CDL Density Correction
DPOR.pu                       : CDL Density Porosity
GR.GAPI                       : Gamma Ray
NPOR.pu                       : Neutron Porosity
~Parameter Information Block
~A  Depth       DCAL        RHOB        RHOC        DPOR         GR         NPOR    
# ...
  1463.6000      8.0231      2.5485      0.0480      6.1512    127.5217     22.5897
  1463.7000      8.0231      2.5463      0.0498      6.2837    133.0632     22.6311
  1463.8000      8.0289      2.5513      0.0319      5.9803    137.9683     23.0601
  1463.9000      8.0289      2.5535      0.1088      5.8489    140.0653     24.0338
  1464.0000      8.0539      2.5427      0.0613      6.5045    139.2471     24.9036
  1464.1000      8.0539      2.5380      0.0023      6.7895    141.4309     25.2420
  1464.2000      8.0539      2.5597      0.0530      5.4715    147.5399     25.7092
  1464.3000      8.0593      2.5915      0.1443      3.5476    152.7325     26.2598
  1464.4000      8.0593      2.6094      0.0780      2.4596    156.4589     25.9596
  1464.5000      8.0900      2.6154      0.1183      2.0990    160.5118     25.0797
  1464.6000      8.0900      2.6198      0.1420      1.8320    162.6863     24.4278
  1464.7000      8.0900      2.6306      0.1036      1.1756    159.8100     23.7761
  1464.8000      8.1169      2.6502      0.1168     -0.0101    155.1253     22.9760
  1464.9000      8.1169      2.6651      0.1328     -0.9139    151.2053     22.6466
  1465.0000      8.1325      2.6629      0.1359     -0.7800    146.8352     23.1623
  1465.1000      8.1325      2.6553      0.0907     -0.3199    143.3791     24.0630
  1465.2000      8.1325      2.6620      0.0919     -0.7259    142.8390     24.8738
  1465.3000      8.0927      2.6712      0.1416     -1.2849    144.4203     25.5155
  1465.4000      8.0927      2.6540      0.0889     -0.2451    146.7589     25.7664
  1465.5000      8.0457      2.6196      0.0100      1.8412    149.6175     25.6085
  1465.6000      8.0457      2.5978     -0.0190      3.1633    152.8026     25.2367
  1465.7000      8.0457      2.5875      0.0510      3.7851    154.5511     24.6741
  1465.8000      8.0386      2.5830      0.0076      4.0616    150.9874     23.7314
  1465.9000      8.0386      2.5933      0.0735      3.4356    143.0314     22.4297
  1466.0000      8.0405      2.6065      0.0461      2.6392    138.3831     21.3756
  1466.1000      8.0405      2.5970      0.0917      3.2132    139.2083     21.1405
  1466.2000      8.0405      2.5699      0.0290      4.8519    140.8497     21.7783
  1466.3000      8.0374      2.5620      0.0076      5.3330    141.4877     22.5507
  1466.4000      8.0374      2.5879      0.0650      3.7658    143.5945     22.5226
  1466.5000      8.0405      2.6289      0.0552      1.2789    148.9596     22.1256
  1466.6000      8.0405      2.6620      0.1345     -0.7249    155.5680     22.5543
  1466.7000      8.0405      2.6727      0.0968     -1.3771    158.7101     23.5328
  1466.8000      8.0304      2.6725      0.0513     -1.3620    155.2760     23.9209
  1466.9000      8.0304      2.6795      0.1025     -1.7897    147.2635     24.2198
  1467.0000      8.0325      2.6840      0.1399     -2.0602    140.8581     25.3065
  1467.1000      8.0325      2.6716      0.0890     -1.3110    138.9584     26.0862
  1467.2000      8.0325      2.6482      0.1017      0.1112    137.3730     25.4564
  1467.3000      8.0554      2.6158      0.0696      2.0724    134.4913     23.6156
  1467.4000      8.0554      2.5732      0.0165      4.6563    132.9048     21.3574
  1467.5000      8.0340      2.5320     -0.0326      7.1540    133.3336     19.9818
  1467.6000      8.0340      2.5063      0.0187      8.7105    135.0210     20.1790
  1467.7000      8.0340      2.5021      0.0366      8.9654    136.4523     21.2962
  1467.8000      8.0225      2.5335     -0.0262      7.0627    138.4272     21.9448
  1467.9000      8.0225      2.6178      0.0340      1.9510    140.8009     21.8482
  1468.0000      7.9669      2.7455      0.0957     -5.7867    139.7937     21.7701
  1468.1000      7.9669      2.8946      0.2136    -14.8260    135.6649     22.0237
  1468.2000      7.9669      3.0482      0.3043    -24.1341    130.4207     22.5464
  1468.3000      7.9406      3.1713      0.3453    -31.5926    124.8681     23.0121
  1468.4000      7.9406      3.2225      0.3524    -34.6955    123.6892     22.6189
  1468.5000      7.9229      3.1943      0.3248    -32.9890    127.9832     21.5758
  1468.6000      7.9229      3.1043      0.1873    -27.5333    129.3436     21.1362
  1468.7000      7.9229      2.9760      0.0565    -19.7588    121.6150     21.5196
  1468.8000      7.8789      2.8602     -0.1006    -12.7371    110.2368     22.0666
  1468.9000      7.8789      2.8105     -0.1108     -9.7269    104.3000     22.2817
  1469.0000      7.8961      2.8179     -0.0456    -10.1787    103.9801     22.2026
  1469.1000      7.8961      2.8158      0.0842    -10.0476    107.4280     22.3590
  1469.2000      7.8961      2.7525      0.0763     -6.2135    115.4084     22.6907
  1469.3000      8.0035      2.6598      0.0217     -0.5913    124.7516     22.2622
  1469.4000      8.0035      2.6045      0.0115      2.7599    133.0236     20.9945
  1469.5000      8.0989      2.5843      0.1049      3.9810    138.4784     19.9441
  1469.6000      8.0989      2.5539      0.0103      5.8267    139.7273     20.0530
  1469.7000      8.0989      2.5096      0.0166      8.5063    139.4405     21.1682
  1469.8000      8.0783      2.4716     -0.0074     10.8094    138.8683     21.9697
  1469.9000      8.0783      2.4501     -0.0336     12.1158    139.6570     21.8212
  1470.0000      8.0901      2.4490      0.0086     12.1825    144.2711     21.6184
  1470.1000      8.0901      2.4607      0.0097     11.4726    150.0012     21.8257
  1470.2000      8.0901      2.4678      0.0348     11.0440    152.6855     22.3015
  1470.3000      8.0905      2.4574      0.0465     11.6706    152.5882     23.1588
  1470.4000      8.0905      2.4385      0.0454     12.8168    152.9266     24.2076
  1470.5000      8.0912      2.4319      0.0370     13.2180    155.2330     25.1638
  1470.6000      8.0912      2.4411      0.0842     12.6635    158.0230     26.0341
  1470.7000      8.0912      2.4440      0.1386     12.4839    157.6633     26.2256
  1470.8000      8.0495      2.4259      0.1050     13.5789    151.2249     25.4301
  1470.9000      8.0495      2.4092      0.0788     14.5921    143.9922     24.5949
  1471.0000      8.0583      2.4156      0.1348     14.2061    145.5176     24.5549
  1471.1000      8.0583      2.4359      0.0976     12.9751    154.8726     25.5362
  1471.2000      8.0583      2.4612      0.1262     11.4416    163.8618     26.7798
  1471.3000      8.0560      2.4899      0.1585      9.7048    164.7108     27.2303
  1471.4000      8.0560      2.5130      0.1671      8.3018    155.5123     26.8711
  1471.5000      8.0158      2.5252      0.1549      7.5618    145.7011     26.2955
  1471.6000      8.0158      2.5315      0.1770      7.1823    144.4747     26.4250
  1471.7000      8.0158      2.5327      0.2260      7.1091    150.0959     27.1544
  1471.8000      8.0601      2.5262      0.1859      7.5010    154.9698     27.3574
  1471.9000      8.0601      2.5169      0.1454      8.0667    152.4697     27.0845
  1472.0000      8.1620      2.5108      0.1035      8.4367    146.2014     26.6874
  1472.1000      8.1620      2.5067      0.1027      8.6878    147.2967     26.1923
  1472.2000      8.1620      2.4997      0.0817      9.1094    157.6270     26.4066
  1472.3000      8.1541      2.4899      0.0830      9.7004    168.3095     27.3724
  1472.4000      8.1541      2.4837      0.0892     10.0809    172.0275     27.2512
  1472.5000      8.1074      2.4875      0.1127      9.8513    171.7262     25.5297
  1472.6000      8.1074      2.4970      0.1683      9.2712    171.0063     24.0339
  1472.7000      8.1074      2.5040      0.1375      8.8475    164.3980     24.2103
  1472.8000      8.1162      2.5064      0.1799      8.7055    151.4522     25.5391
  1472.9000      8.1162      2.5006      0.1708      9.0574    143.2186     26.6056
  1473.0000      8.1107      2.4881      0.1332      9.8143    146.8373     27.0410
  1473.1000      8.1107      2.4857      0.0995      9.9559    156.1496     27.4562
