~Version Information
VERS.                      2.0: CWLS Log ASCII Standard - VERSION 2.0
WRAP.                       NO: One line per depth step
~Well Information Block
STRT.FT               233.8000: 
STOP.FT              1692.5000: 
STEP.FT                 0.1000: 
NULL.                -999.2500: 
COMP.          Pioneer Natural Resources: COMPANY
WELL.            Relay 12-7 Tr: WELL
FLD.           Purgatoire River: FIELD
LOC.           2025' FNL & 790' FWL: LOCATION
PROV.                 Colorado: PROVINCE
CNTY.               Las Animas: COUNTRY
SRVC.                Patterson: SERVICE COMPANY
DATE.          Mon Jan 16 13:23:17 2006: LOG DATE
UWI.           05 071 08603 00: UNIQUE WELL ID
~Curve Information Block
DEPT.FT            0 000 00 00: Depth
DCAL.in                       : CDL Caliper
RHOB.g/cc                     : CDL Bulk Density
RHOC.g/cc                     : CDL Density Correction
DPOR.pu                       : CDL Density Porosity
GR.GAPI                       : Gamma Ray
~Parameter Information Block
~A  Depth       DCAL        RHOB        RHOC        DPOR         GR     
# ...
  1017.8000      7.8151      2.5471      0.0696      6.2336     72.3044
  1017.9000      7.8151      2.5456      0.0760      6.3289     71.7892
  1018.0000      7.8262      2.5579      0.0199      5.5794     71.3474
  1018.1000      7.8262      2.5892      0.0958      3.6865     71.0785
  1018.2000      7.8262      2.6157      0.1065      2.0811     71.7670
  1018.3000      7.8352      2.6219      0.1018      1.7004     71.5000
  1018.4000      7.8352      2.6153      0.0908      2.1009     69.7800
  1018.5000      7.8454      2.6052      0.0804      2.7180     69.0812
  1018.6000      7.8454      2.5880      0.1282      3.7553     67.4000
  1018.7000      7.8454      2.5549      0.0245      5.7639     61.5221
  1018.8000      7.8603      2.5194     -0.0253      7.9164     57.2942
  1018.9000      7.8603      2.4983     -0.0114      9.1930     61.6465
  1019.0000      7.8948      2.4941     -0.0413      9.4513     71.4410
  1019.1000      7.8948      2.5108      0.0145      8.4361     79.1189
  1019.2000      7.8948      2.5359      0.0642      6.9159     81.8936
  1019.3000      7.9121      2.5387      0.0976      6.7455     82.5216
  1019.4000      7.9121      2.5119      0.0463      8.3715     84.0283
  1019.5000      7.9140      2.4824     -0.0279     10.1587     85.8114
  1019.6000      7.9140      2.4773     -0.0154     10.4686     85.7736
  1019.7000      7.9140      2.4962     -0.0164      9.3223     84.6385
  1019.8000      7.9045      2.5199      0.0193      7.8824     86.1234
  1019.9000      7.9045      2.5266      0.0560      7.4807     91.0621
  1020.0000      7.9040      2.5075      0.0405      8.6348     94.8641
  1020.1000      7.9040      2.4760     -0.0119     10.5428     95.4609
  1020.2000      7.9040      2.4511      0.0250     12.0534     96.0742
  1020.3000      7.9188      2.4387     -0.0361     12.8045     96.5211
  1020.4000      7.9188      2.4378     -0.0074     12.8621     94.3702
  1020.5000      7.9377      2.4506     -0.0297     12.0831     92.3425
  1020.6000      7.9377      2.4827      0.0132     10.1378     93.5231
  1020.7000      7.9377      2.5278      0.0356      7.4062     93.9479
  1020.8000      7.9554      2.5624      0.0886      5.3069     88.0128
  1020.9000      7.9554      2.5648      0.0885      5.1649     79.1797
  1021.0000      7.9438      2.5402      0.0465      6.6521     75.3555
  1021.1000      7.9438      2.5193      0.0136      7.9225     78.0449
  1021.2000      7.9438      2.5231      0.0297      7.6891     83.6551
  1021.3000      7.9442      2.5421      0.0790      6.5401     87.6683
  1021.4000      7.9442      2.5466      0.1070      6.2680     87.6208
  1021.5000      7.9449      2.5234      0.0736      7.6756     83.4003
  1021.6000      7.9449      2.4998     -0.0071      9.1038     78.4957
  1021.7000      7.9449      2.5059      0.0430      8.7316     75.6391
  1021.8000      7.9513      2.5330      0.0621      7.0934     74.5605
  1021.9000      7.9513      2.5546      0.0746      5.7811     73.9086
  1022.0000      7.9507      2.5580      0.0839      5.5779     71.1253
  1022.1000      7.9507      2.5554      0.0514      5.7317     67.6639
  1022.2000      7.9507      2.5616      0.0691      5.3555     68.8295
  1022.3000      7.9540      2.5664      0.0959      5.0688     72.6965
  1022.4000      7.9540      2.5544      0.0894      5.7948     73.6522
  1022.5000      7.9558      2.5301      0.0537      7.2654     73.4049
  1022.6000      7.9558      2.5118      0.0301      8.3733     74.9265
  1022.7000      7.9558      2.5072      0.0194      8.6523     76.3092
  1022.8000      7.9510      2.5074      0.0584      8.6411     74.1109
  1022.9000      7.9510      2.5061      0.0350      8.7233     67.7905
  1023.0000      7.9437      2.5150      0.0499      8.1806     63.1467
  1023.1000      7.9437      2.5468      0.0299      6.2568     66.4129
  1023.2000      7.9437      2.5913      0.0952      3.5582     73.5401
  1023.3000      7.9355      2.6255      0.1012      1.4838     75.4221
  1023.4000      7.9355      2.6425      0.0610      0.4534     71.5869
  1023.5000      7.9332      2.6392      0.1215      0.6551     66.7534
  1023.6000      7.9332      2.6108      0.0462      2.3751     62.7096
  1023.7000      7.9332      2.5739      0.0294      4.6116     59.4180
  1023.8000      7.9087      2.5516      0.0394      5.9627     56.7697
  1023.9000      7.9087      2.5525      0.0386      5.9078     56.1387
  1024.0000      7.9025      2.5639      0.0786      5.2181     59.1990
  1024.1000      7.9025      2.5639      0.0195      5.2182     64.2169
  1024.2000      7.9025      2.5546      0.0071      5.7820     66.2377
  1024.3000      7.9265      2.5557      0.0288      5.7158     63.0824
  1024.4000      7.9265      2.5708      0.0448      4.7987     59.4728
  1024.5000      7.9084      2.5821      0.0375      4.1122     60.7803
  1024.6000      7.9084      2.5781     -0.0073      4.3589     66.2438
  1024.7000      7.9084      2.5658      0.0295      5.1045     71.5984
  1024.8000      7.8963      2.5560     -0.0071      5.6991     75.0715
  1024.9000      7.8963      2.5577      0.0231      5.5957     76.8932
  1025.0000      7.9006      2.5650      0.0596      5.1528     75.5597
  1025.1000      7.9006      2.5588      0.0595      5.5290     70.4768
  1025.2000      7.9006      2.5367      0.0508      6.8689     66.3203
  1025.3000      7.9047      2.5173      0.0284      8.0443     66.9063
  1025.4000      7.9047      2.5129      0.0563      8.3118     71.0081
  1025.5000      7.9091      2.5178      0.0567      8.0139     74.2076
  1025.6000      7.9091      2.5226      0.0289      7.7211     73.4509
  1025.7000      7.9091      2.5286      0.0209      7.3600     70.9478
  1025.8000      7.9078      2.5387      0.0653      6.7431     69.9467
  1025.9000      7.9078      2.5506      0.0554      6.0272     70.5457
  1026.0000      7.9114      2.5677      0.0570      4.9854     71.7075
  1026.1000      7.9114      2.5894      0.0674      3.6723     72.3258
  1026.2000      7.9114      2.6036      0.0861      2.8120     71.6819
  1026.3000      7.9131      2.6078      0.0255      2.5598     71.9377
  1026.4000      7.9131      2.6064      0.0736      2.6407     75.0963
  1026.5000      7.9135      2.5960      0.0803      3.2702     78.5248
  1026.6000      7.9135      2.5807      0.0352      4.1999     79.9521
  1026.7000      7.9135      2.5671      0.0979      5.0217     79.3048
  1026.8000      7.9071      2.5492      0.0576      6.1062     75.9698
  1026.9000      7.9071      2.5289      0.0288      7.3380     72.4551
  1027.0000      7.9237      2.5177      0.0625      8.0198     71.3950
  1027.1000      7.9237      2.5156      0.0630      8.1476     70.5107
  1027.2000      7.9237      2.5163      0.0193      8.1050     68.8748
  1027.3000      7.9501      2.5202      0.0355      7.8680     69.9045
  1027.4000      7.9501      2.5271      0.0497      7.4485     74.1047
  1027.5000      7.9434      2.5306      0.0815      7.2362     77.2459
  1027.6000      7.9434      2.5292      0.0341      7.3235     76.9030
  1027.7000      7.9434      2.5331      0.0091      7.0859     76.1280
  1027.8000      7.9371      2.5450      0.0370      6.3657     78.0342
  1027.9000      7.9371      2.5490      0.0484      6.1213     81.9720
  1028.0000      7.9350      2.5319      0.0368      7.1599     84.4743
  1028.1000      7.9350      2.4983      0.0631      9.1923     83.8638
  1028.2000      7.9350      2.4700      0.0212     10.9098     81.8451
  1028.3000      7.9361      2.4654      0.0119     11.1888     81.1601
  1028.4000      7.9361      2.4731      0.0122     10.7235     81.1621
  1028.5000      7.9456      2.4708      0.0290     10.8617     79.5675
  1028.6000      7.9456      2.4613     -0.0066     11.4362     75.1028
  1028.7000      7.9456      2.4587      0.0302     11.5945     67.9469
  1028.8000      7.9464      2.4641      0.0393     11.2668     60.9048
  1028.9000      7.9464      2.4715      0.0772     10.8153     56.2019
