~Version Information
VERS.                      2.0: CWLS Log ASCII Standard - VERSION 2.0
WRAP.                       NO: One line per depth step
~Well Information Block
STRT.FT               570.0000: 
STOP.FT              1954.5000: 
STEP.FT                 0.1000: 
NULL.                -999.2500: 
COMP.          Petrogulf Corporation: COMPANY
WELL.            Montoya 7-14R: WELL
FLD.           Purgatorie River: FIELD
LOC.           628' FSL & 454' FWL: LOCATION
PROV.                 Colorado: PROVINCE
CNTY.               Las Animas: COUNTRY
SRVC.                Patterson: SERVICE COMPANY
DATE.          Mon Oct 10 07:31:15 2005: LOG DATE
UWI.                          : UNIQUE WELL ID
~Curve Information Block
DEPT.FT            0 000 00 00: Depth
DCAL.in                       : CDL Caliper
RHOB.g/cc                     : CDL Bulk Density
RHOC.g/cc                     : CDL Density Correction
DPOR.pu                       : CDL Density Porosity
GR.GAPI                       : Gamma Ray
NPOR.pu                       : Neutron Porosity
~Parameter Information Block
~A  Depth       DCAL        RHOB        RHOC        DPOR         GR         NPOR    
# ...
  1846.8000      7.9401      2.4310      0.0633     13.2723     61.6211     22.2734
  1846.9000      7.9401      2.4442      0.0954     12.4749     59.3659     21.5446
  1847.0000      7.9376      2.4529      0.0492     11.9461     56.2835     20.1282
  1847.1000      7.9376      2.4660      0.0930     11.1508     53.8164     18.6982
  1847.2000      7.9376      2.4815      0.1290     10.2115     52.4418     18.0156
  1847.3000      7.9356      2.4851      0.1029      9.9968     53.0395     18.2741
  1847.4000      7.9356      2.4723      0.0872     10.7698     55.1968     19.0267
  1847.5000      7.9439      2.4548      0.0668     11.8333     56.0272     19.7765
  1847.6000      7.9439      2.4401      0.0931     12.7220     54.8431     20.3746
  1847.7000      7.9439      2.4242      0.0845     13.6847     53.1417     20.6167
  1847.8000      7.9410      2.4098      0.0217     14.5579     52.3718     20.2365
  1847.9000      7.9410      2.4035      0.0455     14.9389     54.3070     19.3407
  1848.0000      7.9396      2.3999      0.0503     15.1597     58.9081     18.3686
  1848.1000      7.9396      2.3947      0.0350     15.4730     62.5850     18.0040
  1848.2000      7.9396      2.3947      0.0537     15.4722     62.0378     18.7902
  1848.3000      7.9341      2.4068      0.0763     14.7390     58.9850     20.2738
  1848.4000      7.9341      2.4306      0.1007     13.2950     56.8981     21.4403
  1848.5000      7.9380      2.4541      0.1241     11.8718     56.3760     21.8760
  1848.6000      7.9380      2.4651      0.0778     11.2076     56.6726     21.6856
  1848.7000      7.9380      2.4634      0.0866     11.3107     57.1808     21.2092
  1848.8000      7.9358      2.4496      0.0847     12.1458     56.7820     20.8832
  1848.9000      7.9358      2.4237      0.0727     13.7182     54.5055     20.6668
  1849.0000      7.9376      2.4010      0.0218     15.0932     51.5156     20.3144
  1849.1000      7.9376      2.4012      0.0340     15.0816     49.4587     20.0715
  1849.2000      7.9376      2.4176      0.0760     14.0839     49.7408     20.3308
  1849.3000      7.9461      2.4303      0.0744     13.3181     51.6420     20.9830
  1849.4000      7.9461      2.4331      0.0468     13.1441     51.7698     21.4008
  1849.5000      7.9386      2.4303      0.0549     13.3157     49.6573     21.2319
  1849.6000      7.9386      2.4290      0.0475     13.3931     48.2460     20.5430
  1849.7000      7.9386      2.4373      0.0440     12.8893     48.4476     19.4964
  1849.8000      7.9262      2.4555      0.0500     11.7882     48.5079     18.2324
  1849.9000      7.9262      2.4736      0.1064     10.6908     48.0506     17.0345
  1850.0000      7.9244      2.4803      0.0746     10.2837     47.4957     16.4092
  1850.1000      7.9244      2.4749      0.0603     10.6096     46.7751     16.3682
  1850.2000      7.9244      2.4646      0.0652     11.2345     46.7697     16.5675
  1850.3000      7.9181      2.4581      0.0630     11.6297     47.2475     17.0550
  1850.4000      7.9181      2.4664      0.0223     11.1292     47.1324     17.6338
  1850.5000      7.8864      2.4894      0.0868      9.7303     46.8589     17.6906
  1850.6000      7.8864      2.5089      0.0920      8.5537     46.6586     17.1827
  1850.7000      7.8864      2.5111      0.0796      8.4165     45.1456     16.5268
  1850.8000      7.8728      2.5009      0.0778      9.0370     42.9176     16.3768
  1850.9000      7.8728      2.4887      0.0715      9.7777     42.9378     17.1049
  1851.0000      7.8238      2.4843      0.0692     10.0429     46.6174     17.9260
  1851.1000      7.8238      2.4937      0.0578      9.4715     53.6637     18.1348
  1851.2000      7.8238      2.5170      0.0809      8.0603     62.2767     18.4619
  1851.3000      7.8026      2.5434      0.1190      6.4592     70.2972     19.6122
  1851.4000      7.8026      2.5604      0.0761      5.4314     79.1518     21.0497
  1851.5000      7.7978      2.5725      0.0832      4.6980     91.3974     21.9244
  1851.6000      7.7978      2.5820      0.1465      4.1208    106.0043     22.0636
  1851.7000      7.7978      2.5813      0.1104      4.1660    118.8426     22.0714
  1851.8000      7.8121      2.5717      0.1138      4.7448    126.7115     22.5175
  1851.9000      7.8121      2.5548      0.0979      5.7682    131.5578     23.4027
  1852.0000      7.9086      2.5338      0.0522      7.0401    137.6816     24.4391
  1852.1000      7.9086      2.5203      0.0311      7.8614    143.1700     25.2081
  1852.2000      7.9086      2.5135      0.0722      8.2726    142.9856     25.3840
  1852.3000      7.9420      2.5052      0.0297      8.7747    140.6971     25.1023
  1852.4000      7.9420      2.5007      0.0243      9.0498    144.0459     24.6249
  1852.5000      7.9304      2.5115     -0.0152      8.3945    153.1946     24.1809
  1852.6000      7.9304      2.5392      0.0504      6.7135    162.2328     24.0944
  1852.7000      7.9304      2.5688      0.0929      4.9189    166.6582     24.5042
  1852.8000      7.9276      2.5906      0.0628      3.5982    166.5942     25.0858
  1852.9000      7.9276      2.6018      0.1614      2.9231    165.7260     25.2963
  1853.0000      7.9291      2.5925      0.1133      3.4820    167.2592     24.9828
  1853.1000      7.9291      2.5725      0.0565      4.6950    168.8809     24.4961
  1853.2000      7.9291      2.5660      0.0729      5.0884    166.7418     24.3109
  1853.3000      7.9356      2.5780      0.0752      4.3640    165.3218     24.4315
  1853.4000      7.9356      2.5911      0.1357      3.5726    167.1044     24.4456
  1853.5000      7.9541      2.5880      0.1057      3.7562    165.9010     24.3983
  1853.6000      7.9541      2.5719      0.0608      4.7311    161.5215     24.6722
  1853.7000      7.9541      2.5524      0.0687      5.9130    158.3805     25.1481
  1853.8000      7.9589      2.5330      0.0607      7.0923    155.5760     25.5526
  1853.9000      7.9589      2.5215      0.0283      7.7897    153.1571     25.8164
  1854.0000      7.9026      2.5287      0.0385      7.3490    153.6067     25.8010
  1854.1000      7.9026      2.5496      0.0270      6.0867    156.2224     25.4826
  1854.2000      7.9026      2.5609      0.1036      5.3981    158.7741     25.0106
  1854.3000      7.8880      2.5522      0.0604      5.9291    159.6642     24.5432
  1854.4000      7.8880      2.5382      0.0708      6.7770    157.5530     24.2904
  1854.5000      7.8854      2.5327      0.0680      7.1101    153.4151     24.2911
  1854.6000      7.8854      2.5405      0.0445      6.6348    148.9443     24.4088
  1854.7000      7.8854      2.5559      0.0946      5.7035    144.4928     24.6585
  1854.8000      7.9114      2.5628      0.0702      5.2828    140.7870     24.9298
  1854.9000      7.9114      2.5587      0.0447      5.5357    139.9959     25.0914
  1855.0000      7.9245      2.5525      0.0263      5.9094    144.1108     25.0675
  1855.1000      7.9245      2.5556      0.0710      5.7209    148.8272     24.8347
  1855.2000      7.9245      2.5720      0.0978      4.7299    148.2375     24.7320
  1855.3000      7.8927      2.5821      0.1330      4.1150    144.7510     24.9527
  1855.4000      7.8927      2.5694      0.0342      4.8819    143.8481     25.3134
  1855.5000      7.8983      2.5487      0.0580      6.1393    147.5809     25.4716
  1855.6000      7.8983      2.5382      0.0413      6.7770    152.8056     25.1950
  1855.7000      7.8983      2.5374      0.0138      6.8221    153.0828     24.7366
  1855.8000      7.9009      2.5326      0.0519      7.1159    146.9699     24.5288
  1855.9000      7.9009      2.5117      0.0391      8.3808    139.2497     24.6218
  1856.0000      7.9055      2.4836      0.0109     10.0849    133.8812     24.6695
  1856.1000      7.9055      2.4690     -0.0194     10.9678    132.3567     24.5616
  1856.2000      7.9055      2.4728      0.0084     10.7365    136.3375     24.5921
  1856.3000      7.8716      2.4814      0.0138     10.2171    145.4022     24.7163
