~Version Information
VERS.                      2.0: CWLS Log ASCII Standard - VERSION 2.0
WRAP.                       NO: One line per depth step
~Well Information Block
STRT.FT                -2.0000: 
STOP.FT              2017.5000: 
STEP.FT                 0.2500: 
NULL.                -999.2500: 
COMP.          Pioneer Natural Resources: COMPANY
WELL.            Zink 44-10 Tr: WELL
FLD.           Purgatoire River: FIELD
LOC.           486' FSL & 554' FEL--: LOCATION
PROV.                 Colorado: PROVINCE
CNTY.               Las Animas: COUNTRY
SRVC.                Patterson: SERVICE COMPANY
DATE.          Mon Aug 01 14:01:23 2005: LOG DATE
UWI.           05 071 08446 00: UNIQUE WELL ID
~Curve Information Block
DEPT.FT            0 000 00 00: Depth
CCL.                          : Casing Collar Locator
TT3.usec                      : CBL 3' Travel Time
AMP3.mV                       : CBL 3' Amplitude
GR.GAPI                       : Gamma Ray
~Parameter Information Block
~A  Depth       CCL         TT3         AMP3         GR     
# ...
  1304.5000      0.0000    798.4373      9.6384    128.2803
  1304.7500      0.0000    798.1893      9.5435    125.4209
  1305.0000      0.0000    797.7518      9.4522    124.8577
  1305.2500      0.0000    796.8364      9.3737    126.1862
  1305.5000      0.0000    795.0986      9.3077    127.9654
  1305.7500      0.0000    792.6195      9.2532    128.8620
  1306.0000      0.0000    790.3237      9.2147    128.5771
  1306.2500      0.0000    789.5963      9.2001    128.0639
  1306.5000      0.0000    791.0847      9.2140    128.7082
  1306.7500      0.0000    794.0162      9.2520    130.9194
  1307.0000      0.0000    796.9397      9.3013    133.4471
  1307.2500      0.0000    798.9332      9.3461    134.3913
  1307.5000      0.0000    799.9899      9.3767    133.0281
  1307.7500      0.0000    800.6361      9.3945    130.3920
  1308.0000      0.0000    801.5402      9.4070    128.0461
  1308.2500      0.0000    803.2653      9.4181    126.8137
  1308.5000      0.0000    805.8899      9.4246    126.7471
  1308.7500      0.0000    808.7197      9.4215    127.6309
  1309.0000      0.0000    810.7364      9.4093    129.1463
  1309.2500      0.0000    811.5939      9.3966    130.8491
  1309.5000      0.0000    811.6780      9.3979    132.3223
  1309.7500      0.0000    811.0047      9.4305    133.2103
  1310.0000      0.0000    809.2182      9.5099    132.9962
  1310.2500      0.0000    807.5303      9.6432    131.1770
  1310.5000      0.0000    809.2035      9.8241    128.0353
  1310.7500      0.0000    816.3380     10.0297    124.8447
  1311.0000      0.0000    826.9694     10.2274    122.8549
  1311.2500      0.0000    836.7471     10.3927    122.3252
  1311.5000      0.0000    842.7085     10.5210    122.7939
  1311.7500      0.0000    844.4235     10.6174    123.7602
  1312.0000      0.0000    842.4622     10.6800    124.6441
  1312.2500      0.0000    837.1240     10.7035    124.5845
  1312.5000      0.0000    828.4819     10.6979    122.7680
  1312.7500      0.0000    816.6363     10.6916    118.7770
  1313.0000      0.0000    801.6818     10.7134    112.6018
  1313.2500      0.0000    784.5348     10.7737    104.8078
  1313.5000      0.0000    768.3572     10.8625     96.7966
  1313.7500      0.0000    757.9352     10.9572     90.4157
  1314.0000      0.0000    756.2521     11.0348     86.7291
  1314.2500      0.0000    762.1207     11.0815     85.2108
  1314.5000      0.0000    771.8127     11.0970     84.5694
  1314.7500      0.0000    782.1889     11.0865     84.1903
  1315.0000      0.0000    791.6125     11.0509     84.2752
  1315.2500      0.0000    799.0721     10.9862     84.8989
  1315.5000      0.0000    804.1620     10.8938     85.6949
  1315.7500      0.0000    807.9635     10.7889     86.5845
  1316.0000      0.0000    812.6638     10.6978     88.2990
  1316.2500      0.0000    819.6222     10.6442     91.8962
  1316.5000      0.0000    828.0099     10.6347     97.8611
  1316.7500      0.0000    835.5289     10.6549    105.7273
  1317.0000      0.0000    840.1878     10.6810    114.3827
  1317.2500      0.0000    841.2636     10.6949    122.4145
  1317.5000      0.0000    838.9924     10.6780    128.1668
  1317.7500      0.0000    833.7620     10.5923    130.2478
  1318.0000      0.0000    825.6306     10.3851    128.7668
  1318.2500      0.0000    814.9348     10.0283    125.7958
  1318.5000      0.0000    803.9504      9.5485    123.7579
  1318.7500      0.0000    797.2717      9.0161    123.3230
  1319.0000      0.0000    799.0567      8.5179    123.3183
  1319.2500      0.0000    809.7461      8.1385    122.5400
  1319.5000      0.0000    826.3354      7.9285    121.1546
  1319.7500      0.0000    845.1683      7.8727    120.3898
  1320.0000      2.0000    863.5037      7.9029    121.2626
  1320.2500     -2.0000    879.4078      7.9505    123.7901
  1320.5000      0.0000    891.4984      7.9841    127.2609
  1320.7500      0.0000    898.1738      8.0196    130.8508
  1321.0000      0.0000    896.4701      8.1154    133.7471
  1321.2500      0.0000    883.6345      8.3393    135.1199
  1321.5000      0.0000    861.4191      8.7072    134.6363
  1321.7500      0.0000    836.9526      9.1507    132.9316
  1322.0000      0.0000    817.6728      9.5526    130.9792
  1322.2500      0.0000    806.3347      9.8065    128.6967
  1322.5000      0.0000    801.2349      9.8507    124.4571
  1322.7500      0.0000    799.4387      9.6801    116.5028
  1323.0000      0.0000    798.9243      9.3417    105.0416
  1323.2500      0.0000    798.7811      8.9127     92.7043
  1323.5000      0.0000    798.7969      8.4713     82.6637
  1323.7500      0.0000    799.1898      8.0802     76.2049
  1324.0000      0.0000    800.3862      7.7842     72.1543
  1324.2500      0.0000    802.4864      7.6052     68.6668
  1324.5000      0.0000    804.7083      7.5294     65.3011
  1324.7500      0.0000    805.6851      7.5115     63.0591
  1325.0000      0.0000    804.6667      7.5033     62.6315
  1325.2500      0.0000    802.2822      7.4844     63.1587
  1325.5000      0.0000    799.8959      7.4674     63.0459
  1325.7500      0.0000    798.4393      7.4823     61.9330
  1326.0000      0.0000    798.0165      7.5555     61.5268
  1326.2500      0.0000    798.2770      7.6904     64.2027
  1326.5000      0.0000    798.8245      7.8631     70.8897
  1326.7500      0.0000    799.3669      8.0399     80.5317
  1327.0000      0.0000    799.7487      8.2021     91.2740
  1327.2500      0.0000    799.9536      8.3571    101.5696
  1327.5000      0.0000    800.0541      8.5308    110.2394
  1327.7500      0.0000    800.1016      8.7429    116.3487
  1328.0000      0.0000    799.9882      8.9776    119.5896
  1328.2500      0.0000    799.3536      9.1789    120.4482
  1328.5000      0.0000    797.7242      9.2869    119.6419
  1328.7500      0.0000    795.0066      9.2814    117.5922
  1329.0000      0.0000    791.9221      9.1898    114.6709
  1329.2500      0.0000    789.5807      9.0581    111.6833
  1329.5000      0.0000    788.3798      8.9241    109.5622
  1329.7500      0.0000    787.7433      8.8159    108.2530
  1330.0000      0.0000    787.2636      8.7650    106.3535
  1330.2500      0.0000    787.5004      8.8056    102.5715
  1330.5000      0.0000    789.1127      8.9520     97.2883
  1330.7500      0.0000    791.6816      9.1793     92.0817
  1331.0000      0.0000    793.9304      9.4358     88.1664
  1331.2500      0.0000    794.7545      9.6783     85.9275
  1331.5000      0.0000    793.7593      9.8886     85.4279
  1331.7500      0.0000    791.3367     10.0606     86.5262
  1332.0000      0.0000    788.6747     10.1824     88.5538
  1332.2500      0.0000    787.1661     10.2400     90.3203
  1332.5000      0.0000    787.0388     10.2351     90.6925
  1332.7500      0.0000    786.6179     10.1903     89.4172
  1333.0000      0.0000    783.5415     10.1306     87.5511
  1333.2500      0.0000    776.9781     10.0630     86.8168
  1333.5000      0.0000    768.6429      9.9756     88.1955
  1333.7500      0.0000    761.7460      9.8572     91.0162
  1334.0000      0.0000    759.0233      9.7128     93.4063
  1334.2500      0.0000    761.3427      9.5610     93.7368
  1334.5000      0.0000    767.2552      9.4216     91.9635
  1334.7500      0.0000    773.4266      9.3097     89.8256
  1335.0000      0.0000    776.2802      9.2363     89.6803
  1335.2500      0.0000    774.3667      9.2039     92.8895
  1335.5000      0.0000    769.5849      9.1962     98.9565
  1335.7500      0.0000    765.9053      9.1759    105.9125
  1336.0000      0.0000    766.6321      9.1057    111.7666
  1336.2500      0.0000    772.5013      8.9793    115.9566
  1336.5000      0.0000    781.9240      8.8324    119.1202
  1336.7500      0.0000    792.7935      8.7182    121.4525
  1337.0000      0.0000    803.9793      8.6710    122.2577
  1337.2500      0.0000    815.0987      8.6879    121.2786
  1337.5000      0.0000    825.3071      8.7365    119.1691
  1337.7500      0.0000    833.0004      8.7797    116.3240
