~Version Information
VERS.                      2.0: CWLS Log ASCII Standard - VERSION 2.0
WRAP.                       NO: One line per depth step
~Well Information Block
STRT.FT               530.7500: 
STOP.FT              1325.2500: 
STEP.FT                 0.2500: 
NULL.                -999.2500: 
COMP.          Pioneer Natural Resources: COMPANY
WELL.            Erin 21-15 Tr: WELL
FLD.           Purgatoire River: FIELD
LOC.           1217' FNL & 2284' FWL--: LOCATION
CNTY.               Las Animas: COUNTY
SRVC.                Patterson: SERVICE COMPANY
DATE.          Fri Mar 03 23:07:06 2006: LOG DATE
UWI.           05 071 08712 00: UNIQUE WELL ID
STAT.                 Colorado: STATE
~Curve Information Block
DEPT.FT            0 000 00 00: Depth
SN.Ohm-m                      : IEL Short Normal
SP.mV                         : IEL Spontaneous Potential
DIR.Ohm-m                     : IEL Induction Resistivity
GR.GAPI                       : Gamma Ray
~Parameter Information Block
~A  Depth        SN          SP         DIR          GR     
# ...
   664.7500     15.9888     46.3852     17.8224    114.7334
   665.0000     16.0697     46.5245     17.8753    114.0158
   665.2500     16.1590     46.6577     17.8936    114.1056
   665.5000     16.2395     46.7861     17.8874    114.6831
   665.7500     16.2935     46.9103     17.8689    115.4674
   666.0000     16.3099     47.0303     17.8468    118.1046
   666.2500     16.2892     47.1451     17.8223    121.2600
   666.5000     16.2465     47.2542     17.7900    127.3416
   666.7500     16.2082     47.3584     17.7444    130.9529
   667.0000     16.1996     47.4606     17.6875    133.6014
   667.2500     16.2343     47.5661     17.6308    133.3699
   667.5000     16.3130     47.6821     17.5944    131.5429
   667.7500     16.4318     47.8166     17.6030    130.3877
   668.0000     16.5918     47.9757     17.6795    129.3378
   668.2500     16.8029     48.1632     17.8411    128.6030
   668.5000     17.0803     48.3783     18.0978    126.2748
   668.7500     17.4367     48.6166     18.4549    123.7438
   669.0000     17.8746     48.8702     18.9142    119.2733
   669.2500     18.3803     49.1296     19.4723    116.3761
   669.5000     18.9235     49.3850     20.1147    112.2728
   669.7500     19.4658     49.6280     20.8134    109.3469
   670.0000     19.9759     49.8522     21.5285    104.1118
   670.2500     20.4398     50.0547     22.2145    100.1653
   670.5000     20.8620     50.2353     22.8268     94.6705
   670.7500     21.2633     50.3975     23.3299     92.1564
   671.0000     21.6736     50.5466     23.7091     91.0398
   671.2500     22.1127     50.6896     23.9799     92.0142
   671.5000     22.5657     50.8330     24.1826     95.1782
   671.7500     22.9803     50.9816     24.3602     97.8324
   672.0000     23.2965     51.1377     24.5302    101.9604
   672.2500     23.4869     51.3009     24.6743    104.5055
   672.5000     23.5691     51.4680     24.7563    107.1458
   672.7500     23.5833     51.6347     24.7569    107.5347
   673.0000     23.5618     51.7963     24.6981    105.9851
   673.2500     23.5193     51.9488     24.6325    104.3902
   673.5000     23.4635     52.0896     24.6109    103.4058
   673.7500     23.4033     52.2173     24.6572    104.5673
   674.0000     23.3439     52.3320     24.7667    108.8307
   674.2500     23.2783     52.4343     24.9188    112.4050
   674.5000     23.1886     52.5256     25.0873    116.9724
   674.7500     23.0592     52.6070     25.2391    118.9197
   675.0000     22.8892     52.6791     25.3345    120.6272
   675.2500     22.6945     52.7418     25.3379    121.5603
   675.5000     22.4989     52.7931     25.2339    122.9659
   675.7500     22.3241     52.8291     25.0336    123.5684
   676.0000     22.1809     52.8440     24.7662    123.5062
   676.2500     22.0684     52.8296     24.4630    122.9872
   676.5000     21.9814     52.7768     24.1491    122.1699
   676.7500     21.9201     52.6755     23.8433    121.8868
   677.0000     21.8923     52.5157     23.5616    121.9220
   677.2500     21.9066     52.2871     23.3176    122.0004
   677.5000     21.9668     51.9788     23.1197    121.3412
   677.7500     22.0750     51.5785     22.9658    119.9526
   678.0000     22.2396     51.0712     22.8417    116.6194
   678.2500     22.4781     50.4382     22.7269    114.3118
   678.5000     22.8067     49.6566     22.6061    112.3125
   678.7500     23.2209     48.6995     22.4742    112.3823
   679.0000     23.6794     47.5363     22.3270    113.9273
   679.2500     24.1034     46.1339     22.1401    115.0987
   679.5000     24.3937     44.4580     21.8536    116.0324
   679.7500     24.4575     42.4740     21.3733    115.9603
   680.0000     24.2355     40.1482     20.5925    115.1112
   680.2500     23.7178     37.4475     19.4280    114.3311
   680.5000     22.9416     34.3409     17.8665    113.1828
   680.7500     21.9646     30.8005     16.0007    112.5157
   681.0000     20.8342     26.8069     14.0208    111.9711
   681.2500     19.5772     22.3568     12.1444    112.3070
   681.5000     18.2160     17.4759     10.5351    114.2133
   681.7500     16.7923     12.2338      9.2674    115.9534
   682.0000     15.3722      6.7579      8.3507    117.8352
   682.2500     14.0272      1.2401      7.7750    118.2461
   682.5000     12.8125     -4.0709      7.5628    118.2081
   682.7500     11.7591     -8.8941      7.8320    118.1692
   683.0000     10.8797    -12.9583      8.9449    118.0951
   683.2500     10.1783    -16.0543     12.1281    117.8535
   683.5000      9.6571    -18.0836     24.6110    117.0485
   683.7500      9.3183    -19.0901 100000.0000    116.1259
   684.0000      9.1604    -19.2624 100000.0000    114.0930
   684.2500      9.1671    -18.9024 100000.0000    112.6152
   684.5000      9.2960    -18.3647 100000.0000    111.1154
   684.7500      9.4827    -17.9810 100000.0000    110.7973
   685.0000      9.6635    -17.9878 100000.0000    110.9682
   685.2500      9.7971    -18.4749 100000.0000    111.3696
   685.5000      9.8658    -19.3689 100000.0000    112.6573
   685.7500      9.8622    -20.4560 100000.0000    113.9883
   686.0000      9.7828    -21.4399 100000.0000    116.0048
   686.2500      9.6352    -22.0208 100000.0000    116.9364
   686.5000      9.4489    -21.9771     37.5822    117.8788
   686.7500      9.2759    -21.2273     13.1534    118.7602
   687.0000      9.1727    -19.8593      8.6174    121.1904
   687.2500      9.1637    -18.1191      7.3772    123.4334
   687.5000      9.2088    -16.3648      8.0648    126.9062
   687.7500      9.2102    -15.0008     12.9082    128.9197
   688.0000      9.0613    -14.4121    241.9344    131.4175
   688.2500      8.6965    -14.9154 100000.0000    132.8179
   688.5000      8.1029    -16.7360 100000.0000    134.3418
   688.7500      7.3066    -20.0135 100000.0000    134.6414
   689.0000      6.3650    -24.8251 100000.0000    133.7034
   689.2500      5.3676    -31.2149 100000.0000    132.6284
   689.5000      4.4235    -39.2104     11.2639    132.2194
   689.7500      3.6301    -48.8185      1.3863    133.6604
   690.0000      3.0397    -59.9957      0.4798    138.1142
   690.2500      2.6485    -72.6029      0.1871    141.3319
   690.5000      2.4129    -86.3603      0.0732    143.6000
   690.7500      2.2815   -100.8258      0.0328    142.0719
   691.0000      2.2245   -115.4139      0.0187    134.6637
   691.2500      2.2618   -129.4585      0.0138    127.0644
   691.5000      2.5063   -142.3094      0.0129    113.9210
   691.7500      3.2143   -153.4378      0.0153    105.2944
   692.0000      4.7580   -162.5244      0.0227     94.2171
   692.2500      7.3844   -169.5057      0.0416     88.5804
   692.5000     10.8013   -174.5695      0.0897     82.6321
   692.7500     13.9818   -178.1062      0.2049     79.8004
   693.0000     15.6231   -180.6293      0.4510     76.3546
   693.2500     15.0476   -182.6850      0.9959     74.5826
   693.5000     12.6930   -184.7669      2.5441     73.7541
   693.7500      9.6872   -187.2490     10.2970     75.1738
   694.0000      7.0090   -190.3435 100000.0000     80.6960
   694.2500      5.0521   -194.0884 100000.0000     86.2121
   694.5000      3.7649   -198.3664 100000.0000     95.8512
   694.7500      2.9614   -202.9490     12.2891    102.2738
   695.0000      2.4832   -207.5575      3.0988    110.2368
   695.2500      2.2174   -211.9261      1.3011    113.5032
   695.5000      2.0793   -215.8499      0.6599    114.5353
   695.7500      2.0093   -219.2091      0.3682    112.9768
   696.0000      1.9732   -221.9629      0.2209    108.8272
   696.2500      1.9541   -224.1192      0.1503    105.6660
   696.5000      1.9435   -225.6948      0.1263    100.6366
   696.7500      1.9367   -226.6820      0.1389     96.7806
   697.0000      1.9330   -227.0310      0.2013     89.8059
   697.2500      1.9335   -226.6588      0.3653     84.4741
   697.5000      1.9370   -225.4741      0.8238     76.1934
   697.7500      1.9382   -223.4103      3.6374     71.0839
   698.0000      1.9312   -220.4513 100000.0000     65.0128
