~Version Information
VERS.                      2.0: CWLS Log ASCII Standard - VERSION 2.0
WRAP.                       NO: One line per depth step
~Well Information Block
STRT.FT                10.0000: 
STOP.FT              1360.0000: 
STEP.FT                 0.1000: 
NULL.                -999.2500: 
COMP.          Pioneer Natural Resources: COMPANY
WELL.              Geyser 41-2: WELL
FLD.           Purgatorie River: FIELD
LOC.           506' FNL & 1127' FEL: LOCATION
PROV.                 Colorado: PROVINCE
CNTY.               Las Animas: COUNTRY
SRVC.                Patterson: SERVICE COMPANY
DATE.          Thu Dec 01 07:38:14 2005: LOG DATE
UWI.                          : UNIQUE WELL ID
~Curve Information Block
DEPT.FT            0 000 00 00: Depth
DCAL.in                       : CDL Caliper
RHOB.g/cc                     : CDL Bulk Density
RHOC.g/cc                     : CDL Density Correction
DPOR.pu                       : CDL Density Porosity
GR.GAPI                       : Gamma Ray
NPOR.pu                       : Neutron Porosity
~Parameter Information Block
~A  Depth       DCAL        RHOB        RHOC        DPOR         GR         NPOR    
    10.0000      2.7444      1.3631      2.2111     -0.0258    109.1349     28.3838
    10.1000      2.7444      1.3836      2.2682     -0.0253    105.8765     27.5165
    10.2000      2.7444      1.4108      2.2908     -0.0248    105.2210     26.7776
    10.3000      2.7444      1.4321      2.2690     -0.0244    103.2206     26.6387
    10.4000      2.7444      1.4539      2.2583     -0.0239    100.1167     27.1617
    10.5000      2.7444      1.4823      2.2968     -0.0234     98.7564     27.6763
    10.6000      2.7444      1.5122      2.3173     -0.0228     99.4044     27.7079
    10.7000      2.7444      1.5395      2.3245     -0.0222     99.7496     27.3406
    10.8000      2.7444      1.5653      2.3354     -0.0217     98.6914     26.9491
    10.9000      2.7444      1.5929      2.3299     -0.0212     97.4837     26.7751
    11.0000      2.7444      1.6259      2.3583     -0.0205     98.3500     26.5847
    11.1000      2.7444      1.6598      2.3996     -0.0198    101.1644     26.2160
    11.2000      2.7444      1.6866      2.4011     -0.0193    102.6844     25.9849
    11.3000      2.7444      1.7060      2.4081     -0.0189    101.3334     25.9456
    11.4000      2.7444      1.7195      2.4688     -0.0186    101.4796     25.7181
    11.5000      2.7444      1.7257      2.4445     -0.0185    105.7991     25.3289
    11.6000      2.7444      1.7207      2.4909     -0.0186    108.7652     25.1049
    11.7000      2.7444      1.6992      2.4539     -0.0190    106.5635     25.2578
    11.8000      2.7444      1.6689      2.4287     -0.0196    103.0267     25.8324
    11.9000      2.7444      1.6443      2.4309     -0.0201    102.4686     26.3538
    12.0000      2.7444      1.6247      2.4585     -0.0205    104.2351     26.4225
    12.1000      2.7444      1.6021      2.4336     -0.0210    106.3825     26.3117
    12.2000      2.7444      1.5762      2.4273     -0.0215    108.8739     26.2273
    12.3000      2.7444      1.5520      2.3897     -0.0220    109.9114     25.9936
    12.4000      2.7444      1.5300      2.4235     -0.0224    109.2166     25.7008
    12.5000      2.7444      1.5089      2.3682     -0.0228    109.7856     25.7523
    12.6000      2.7444      1.4994      2.3209     -0.0230    109.5833     25.9928
    12.7000      2.7444      1.5117      2.3564     -0.0228    105.2553     25.9575
    12.8000      2.7444      1.5329      2.3755     -0.0224    101.0375     25.9717
    12.9000      2.7444      1.5446      2.3526     -0.0221    102.3971     26.2693
    13.0000      2.7444      1.5490      2.3177     -0.0220    107.9495     26.4222
    13.1000      2.7444      1.5582      2.3405     -0.0218    113.6798     26.1903
    13.2000      2.7444      1.5701      2.3651     -0.0216    116.7388     25.6130
    13.3000      2.7444      1.5759      2.3534     -0.0215    115.4975     25.0255
    13.4000      2.7444      1.5762      2.3623     -0.0215    112.5517     24.8068
    13.5000      2.7444      1.5718      2.4015     -0.0216    111.7594     25.0378
    13.6000      2.7444      1.5587      2.3927     -0.0218    113.0313     25.4682
    13.7000      2.7444      1.5350      2.4108     -0.0223    113.1538     25.6633
    13.8000      2.7444      1.5020      2.3984     -0.0230    110.9222     25.5968
    13.9000      2.7444      1.4638      2.3473     -0.0237    108.0723     25.6983
    14.0000      2.7444      1.4232      2.3663     -0.0245    107.3973     26.0719
    14.1000      2.7444      1.3791      2.3200     -0.0254    109.0590     26.4081
    14.2000      2.7444      1.3336      2.3036     -0.0263    110.1374     26.5810
    14.3000      2.7444      1.2918      2.2619     -0.0272    109.8918     26.6300
    14.4000      2.7444      1.2617      2.2237     -0.0278    110.5972     26.4542
    14.5000      2.7444      1.2521      2.2073     -0.0280    111.9307     26.0859
    14.6000      2.7444      1.2588      2.2309     -0.0278    111.9121     25.9561
    14.7000      2.7444      1.2623      2.2309     -0.0278    111.0144     26.2914
    14.8000      2.7444      1.2509      2.1803     -0.0280    109.9468     26.9770
    14.9000      2.7444      1.2381      2.1441     -0.0283    108.8553     27.6613
    15.0000      2.7444      1.2482      2.0888     -0.0281    108.2086     27.9773
    15.1000      2.7444      1.2813      2.2030     -0.0274    109.8024     27.8946
    15.2000      2.7444      1.3108      2.2158     -0.0268    115.0894     27.4939
    15.3000      2.7444      1.3229      2.2126     -0.0266    119.5652     27.1471
    15.4000      2.7444      1.3234      2.2313     -0.0265    118.8364     27.1002
    15.5000      2.7444      1.3172      2.2215     -0.0267    115.2061     26.8337
    15.6000      2.7444      1.3079      2.2169     -0.0269    113.8524     26.3971
    15.7000      2.7444      1.3019      2.2355     -0.0270    115.5908     26.3139
    15.8000      2.7444      1.2962      2.2819     -0.0271    119.0305     26.3541
    15.9000      2.7444      1.2777      2.2751     -0.0275    124.6771     26.4639
    16.0000      2.7444      1.2438      2.2332     -0.0281    129.5034     26.9394
    16.1000      2.7444      1.2057      2.2198     -0.0289    128.4803     27.5039
    16.2000      2.7444      1.1760      2.1761     -0.0295    121.7127     27.9213
    16.3000      2.7444      1.1592      2.1901     -0.0298    113.3110     28.1879
    16.4000      2.7444      1.1493      2.1832     -0.0300    107.5554     28.1343
    16.5000      2.7444      1.1418      2.1399     -0.0302    106.0783     27.9015
    16.6000      2.7444      1.1402      2.1317     -0.0302    107.5108     27.7617
    16.7000      2.7444      1.1458      2.1228     -0.0301    111.7882     27.6228
    16.8000      2.7444      1.1557      2.1074     -0.0299    118.2442     27.2721
    16.9000      2.7444      1.1672      2.1032     -0.0297    121.4560     26.8565
    17.0000      2.7444      1.1805      2.0959     -0.0294    118.2902     26.8149
    17.1000      2.7444      1.1981      2.0995     -0.0291    112.6664     27.1735
    17.2000      2.7444      1.2204      2.1250     -0.0286    111.3575     27.3606
    17.3000      2.7444      1.2459      2.1498     -0.0281    115.3930     27.0945
    17.4000      2.7444      1.2697      2.2208     -0.0276    120.2085     26.6260
    17.5000      2.7444      1.2829      2.2211     -0.0274    121.7106     26.2830
    17.6000      2.7444      1.2805      2.2444     -0.0274    119.9076     26.2404
    17.7000      2.7444      1.2651      2.2240     -0.0277    118.9798     26.3898
    17.8000      2.7444      1.2452      2.2145     -0.0281    120.1821     26.6127
    17.9000      2.7444      1.2229      2.2445     -0.0286    120.5467     26.7728
    18.0000      2.7444      1.1938      2.1970     -0.0291    119.9909     26.7393
    18.1000      2.7444      1.1622      2.1741     -0.0298    118.5201     26.6618
    18.2000      2.7444      1.1354      2.1561     -0.0303    115.4031     26.6795
    18.3000      2.7444      1.1160      2.1511     -0.0307    111.9391     26.7462
    18.4000      2.7444      1.1012      2.1431     -0.0310    110.0986     26.7132
    18.5000      2.7444      1.0875      2.1293     -0.0313    111.7646     26.5657
    18.6000      2.7444      1.0785      2.0810     -0.0314    115.5791     26.4744
    18.7000      2.7444      1.0845      2.0571     -0.0313    118.6605     26.5897
    18.8000      2.7444      1.1024      2.0849     -0.0310    122.0536     26.7416
    18.9000      2.7444      1.1154      2.0771     -0.0307    124.3533     26.8638
    19.0000      2.7444      1.1216      2.0490     -0.0306    120.8519     27.1760
    19.1000      2.7444      1.1325      2.0980     -0.0304    114.9705     27.6237
    19.2000      2.7444      1.1536      2.0796     -0.0299    114.0271     27.8488
    19.3000      2.7444      1.1858      2.1082     -0.0293    117.8171     27.6841
    19.4000      2.7444      1.2244      2.1650     -0.0285    122.1064     27.3974
    19.5000      2.7444      1.2595      2.1977     -0.0278    124.2946     27.1514
