~Version Information
VERS.                      2.0: CWLS Log ASCII Standard - VERSION 2.0
WRAP.                       NO: One line per depth step
~Well Information Block
STRT.FT               875.0000: 
STOP.FT              2053.0000: 
STEP.FT                 0.1000: 
NULL.                -999.2500: 
COMP.          Pioneer Natural Resources: COMPANY
WELL.          Woodstock 43-19: WELL
FLD.           Purgatoire River: FIELD
LOC.           2195' FSL & 250' FEL: LOCATION
CNTY.               Las Animas: COUNTY
SRVC.                Patterson: SERVICE COMPANY
DATE.          Thu Feb 02 12:45:04 2006: LOG DATE
UWI.           05 071 08677 00: UNIQUE WELL ID
STAT.                 Colorado: STATE
~Curve Information Block
DEPT.FT            0 000 00 00: Depth
DCAL.in                       : CDL Caliper
RHOB.g/cc                     : CDL Bulk Density
RHOC.g/cc                     : CDL Density Correction
DPOR.pu                       : CDL Density Porosity
GR.GAPI                       : Gamma Ray
NPOR.pu                       : Neutron Porosity
~Parameter Information Block
~A  Depth       DCAL        RHOB        RHOC        DPOR         GR         NPOR    
# ...
  1729.4000      7.9307      2.5064      0.0280      8.7010    101.8605     24.8154
  1729.5000      7.9069      2.4989      0.0684      9.1588    102.6076     25.1000
  1729.6000      7.9069      2.4862      0.0792      9.9273    100.9520     25.8065
  1729.7000      7.9069      2.4661      0.0373     11.1452    101.3457     26.9199
  1729.8000      7.9067      2.4473      0.0615     12.2856    104.2087     27.6320
  1729.9000      7.9067      2.4287      0.0442     13.4137    106.2681     27.8021
  1730.0000      7.9115      2.4102      0.0398     14.5315    104.5236     27.9241
  1730.1000      7.9115      2.4030      0.0072     14.9719    101.9650     27.8094
  1730.2000      7.9115      2.4088      0.0451     14.6154    105.0213     27.5044
  1730.3000      7.9026      2.4162      0.0814     14.1712    111.9852     27.5425
  1730.4000      7.9026      2.4168      0.1076     14.1323    114.5502     27.6821
  1730.5000      7.9162      2.4199      0.0848     13.9468    110.9875     27.8232
  1730.6000      7.9162      2.4365      0.1161     12.9399    108.9991     28.3880
  1730.7000      7.9162      2.4519      0.1391     12.0088    110.8732     28.6240
  1730.8000      7.9172      2.4504      0.0656     12.0979    112.1436     27.9059
  1730.9000      7.9172      2.4463      0.0684     12.3478    110.3732     27.1354
  1731.0000      7.9196      2.4545      0.0556     11.8500    106.3208     26.6071
  1731.1000      7.9196      2.4735      0.0687     10.6999    105.0037     26.0106
  1731.2000      7.9196      2.4980      0.0526      9.2121    108.8976     25.8090
  1731.3000      7.9051      2.5251      0.1078      7.5680    112.6760     25.9806
  1731.4000      7.9051      2.5487      0.0766      6.1408    111.5901     25.8398
  1731.5000      7.9114      2.5568      0.1083      5.6457    105.6766     25.5004
  1731.6000      7.9114      2.5464      0.0393      6.2814     99.6027     25.3589
  1731.7000      7.9114      2.5361      0.0296      6.9011    100.2898     25.6371
  1731.8000      7.9079      2.5405      0.0622      6.6371    107.3312     26.2745
  1731.9000      7.9079      2.5492      0.0498      6.1108    113.5073     26.8389
  1732.0000      7.9145      2.5476      0.0196      6.2078    113.2800     26.9557
  1732.1000      7.9145      2.5349      0.0238      6.9775    108.3206     26.8378
  1732.2000      7.9145      2.5261      0.0300      7.5098    105.7063     26.7910
  1732.3000      7.9154      2.5402      0.0518      6.6573    107.8203     26.6295
  1732.4000      7.9154      2.5789      0.0664      4.3079    109.6686     26.4528
  1732.5000      7.9005      2.6238      0.1177      1.5870    108.3954     26.0865
  1732.6000      7.9005      2.6533      0.0769     -0.2024    104.9482     25.5048
  1732.7000      7.9005      2.6658      0.0784     -0.9573     99.8088     25.4682
  1732.8000      7.9078      2.6743      0.0951     -1.4744     94.5594     26.0681
  1732.9000      7.9078      2.6768      0.1192     -1.6251     92.2860     26.7492
  1733.0000      7.8937      2.6598      0.0541     -0.5928     92.3729     26.6833
  1733.1000      7.8937      2.6310      0.0416      1.1498     92.6330     25.6632
  1733.2000      7.8937      2.6053      0.0165      2.7082     95.4690     24.6181
  1733.3000      7.9067      2.5818      0.0185      4.1338    100.3185     23.9111
  1733.4000      7.9067      2.5622      0.0156      5.3198    101.8829     23.1902
  1733.5000      7.9116      2.5570      0.0269      5.6387    100.0564     22.9894
  1733.6000      7.9116      2.5674      0.0782      5.0090     97.9549     23.2189
  1733.7000      7.9116      2.5808      0.0706      4.1919     96.2956     22.9724
  1733.8000      7.9160      2.5871      0.0675      3.8126     92.3594     22.7382
  1733.9000      7.9160      2.5856      0.0799      3.9009     84.2753     23.3019
  1734.0000      7.9079      2.5821      0.0299      4.1144     73.6988     23.9807
  1734.1000      7.9079      2.5821      0.0357      4.1162     64.9198     23.7602
  1734.2000      7.9079      2.5818      0.0647      4.1342     61.9094     23.4361
  1734.3000      7.9078      2.5787      0.0250      4.3231     64.9912     24.4085
  1734.4000      7.9078      2.5774      0.0352      4.3991     71.3638     25.9380
  1734.5000      7.9139      2.5814     -0.0476      4.1578     77.1662     26.4753
  1734.6000      7.9139      2.5868     -0.0125      3.8332     80.2465     25.8435
  1734.7000      7.9139      2.5871     -0.0171      3.8132     80.7403     25.1677
  1734.8000      7.8726      2.5844      0.0948      3.9782     80.3439     25.3059
  1734.9000      7.8726      2.5832      0.0408      4.0496     80.9983     25.4553
  1735.0000      7.8708      2.5914      0.0221      3.5507     83.5869     25.0554
  1735.1000      7.8708      2.6106      0.0680      2.3900     85.9516     24.5073
  1735.2000      7.8708      2.6212      0.1230      1.7476     85.3092     23.8415
  1735.3000      7.9003      2.6013      0.1104      2.9520     83.7327     23.4431
  1735.4000      7.9003      2.5550      0.0632      5.7569     86.5450     23.6051
  1735.5000      7.9036      2.5171     -0.0386      8.0527     94.6600     23.8645
  1735.6000      7.9036      2.5168      0.0051      8.0754    100.6901     24.3058
  1735.7000      7.9036      2.5401      0.0737      6.6600     98.4390     25.0224
  1735.8000      7.9080      2.5597      0.1063      5.4733     90.9746     25.2225
  1735.9000      7.9080      2.5692      0.0596      4.8950     86.8220     24.8435
  1736.0000      7.9281      2.5694      0.0601      4.8823     90.1759     24.9232
  1736.1000      7.9281      2.5570      0.0831      5.6391     96.3931     25.6064
  1736.2000      7.9281      2.5388      0.0676      6.7390     98.6464     25.6690
  1736.3000      7.9086      2.5328      0.0114      7.1048     96.6206     24.6578
  1736.4000      7.9086      2.5444      0.0111      6.3984     96.3302     23.8279
  1736.5000      7.9060      2.5605      0.0617      5.4271     99.1574     23.8981
  1736.6000      7.9060      2.5668      0.0663      5.0428     98.7740     24.0626
  1736.7000      7.9060      2.5599      0.0416      5.4579     94.4307     23.8147
  1736.8000      7.9135      2.5448      0.0316      6.3780     92.5032     23.3382
  1736.9000      7.9135      2.5297      0.0619      7.2889     93.2743     22.8929
  1737.0000      7.9192      2.5229      0.0648      7.7020     93.2299     22.8886
  1737.1000      7.9192      2.5248      0.0615      7.5852     92.8069     23.0186
  1737.2000      7.9192      2.5344      0.0007      7.0035     95.3694     22.7934
  1737.3000      7.9029      2.5532      0.0777      5.8677    102.9744     22.6581
  1737.4000      7.9029      2.5727      0.0662      4.6824    109.4855     22.7413
  1737.5000      7.8981      2.5868      0.0882      3.8289    106.1804     22.7539
  1737.6000      7.8981      2.6028      0.0663      2.8620     96.7991     23.1113
  1737.7000      7.8981      2.6259      0.0668      1.4614     94.1382     23.9435
  1737.8000      7.9059      2.6379      0.1559      0.7332     98.5573     24.8272
  1737.9000      7.9059      2.6161      0.0943      2.0526    100.2483     25.4531
  1738.0000      7.9348      2.5696      0.0435      4.8733     96.1414     25.4449
  1738.1000      7.9348      2.5259      0.0204      7.5195     91.2142     24.9488
  1738.2000      7.9348      2.5017     -0.0181      8.9855     91.8677     24.5890
  1738.3000      7.9159      2.4973      0.0037      9.2515     99.0432     24.1802
  1738.4000      7.9159      2.5060     -0.0241      8.7286    105.4868     23.0937
  1738.5000      7.9092      2.5175      0.0549      8.0277    103.7986     21.9664
  1738.6000      7.9092      2.5239      0.0500      7.6414     95.2339     22.0934
  1738.7000      7.9092      2.5291      0.0435      7.3257     88.0231     23.3764
  1738.8000      7.9137      2.5344      0.0646      7.0068     87.5014     24.3912
  1738.9000      7.9137      2.5290      0.0536      7.3344     91.7194     24.1510
