~Version Information
VERS.                      2.0: CWLS Log ASCII Standard - VERSION 2.0
WRAP.                       NO: One line per depth step
~Well Information Block
STRT.FT                 0.0000: 
STOP.FT               878.0000: 
STEP.FT                 0.2500: 
NULL.                -999.2500: 
COMP.          Pioneer Natural Resources: COMPANY
WELL.           Hartford 31-18: WELL
FLD.           Purgatorie River: FIELD
LOC.           375' FNL & 1660' FEL: LOCATION
PROV.                 Colorado: PROVINCE
CNTY.               Las Animas: COUNTRY
SRVC.                Patterson: SERVICE COMPANY
DATE.          Mon Nov 28 12:10:49 2005: LOG DATE
UWI.             05-071-08555             : UNIQUE WELL ID
~Curve Information Block
DEPT.FT            0 000 00 00: Depth
CCL.                          : Casing Collar Locator
TT3.usec                      : CBL 3' Travel Time
AMP3.mV                       : CBL 3' Amplitude
GR.GAPI                       : Gamma Ray
~Parameter Information Block
~A  Depth       CCL         TT3         AMP3         GR     
# ...
   335.0000      0.0000    334.1465     10.4556    103.3533
   335.2500      0.0000    333.9712     10.5885    102.0999
   335.5000      0.0000    333.6849     10.6629    101.0332
   335.7500      0.0000    333.3655     10.6479    101.8122
   336.0000      0.0000    333.1000     10.5770    103.7356
   336.2500      0.0000    332.9249     10.4817    104.7711
   336.5000      0.0000    332.8246     10.3660    103.3850
   336.7500      0.0000    332.7804     10.2430     99.8095
   337.0000      0.0000    332.7772     10.1402     95.8694
   337.2500      0.0000    332.7906     10.0719     93.4135
   337.5000      0.0000    332.8034     10.0216     92.7672
   337.7500      0.0000    332.8149      9.9598     92.7447
   338.0000      0.0000    332.8732      9.8710     91.8927
   338.2500      0.0000    333.3986      9.7308     89.4077
   338.5000      0.0000    336.5897      9.4423     85.1285
   338.7500      0.0000    349.2176      8.8215     79.2715
   339.0000      0.0000    382.3293      7.7860     72.4830
   339.2500      0.0000    439.5207      6.6421     65.9620
   339.5000      0.0000    502.3571      5.8321     61.1011
   339.7500      0.0000    539.7620      5.2850     58.6735
   340.0000      0.0000    535.8892      4.6418     58.4363
   340.2500      0.0000    500.4315      3.9689     59.8481
   340.5000      0.0000    455.4184      3.5535     63.0473
   340.7500     -2.0000    417.8133      3.4164     68.6434
   341.0000      2.0000    393.2872      3.3956     76.5440
   341.2500      0.0000    383.4589      3.3894     85.4415
   341.5000      0.0000    396.4200      3.4228     93.4946
   341.7500      0.0000    447.3478      3.6389     99.3251
   342.0000      0.0000    532.9479      4.3141    102.5867
   342.2500      0.0000    610.1187      5.6330    103.9810
   342.5000      0.0000    640.5736      7.2544    104.8736
   342.7500      0.0000    634.4952      8.5425    106.7423
   343.0000      0.0000    615.0191      9.2626    110.3768
   343.2500      0.0000    591.9639      9.5679    114.8740
   343.5000      0.0000    575.2428      9.6196    117.6434
   343.7500      0.0000    577.7545      9.5222    116.4191
   344.0000      0.0000    609.9696      9.3773    111.4870
   344.2500      0.0000    664.8745      9.2752    105.3152
   344.5000      0.0000    715.4482      9.2799     99.9756
   344.7500      0.0000    744.1494      9.4231     95.5449
   345.0000      0.0000    761.5999      9.6619     90.8698
   345.2500      0.0000    790.9223      9.8794     85.0769
   345.5000      0.0000    836.8808      9.9739     78.1721
   345.7500      0.0000    868.9233      9.9113     70.8600
   346.0000      0.0000    853.5126      9.7025     64.2016
   346.2500      0.0000    802.2529      9.3728     59.1641
   346.5000      0.0000    755.0626      8.9535     56.1711
   346.7500      0.0000    731.0737      8.5121     55.0231
   347.0000      0.0000    723.5800      8.1325     55.2035
   347.2500      0.0000    722.1431      7.8371     56.1769
   347.5000      0.0000    722.0159      7.5651     57.4397
   347.7500      0.0000    721.7208      7.2231     58.4160
   348.0000      0.0000    720.0272      6.7571     58.5288
   348.2500      0.0000    715.2263      6.1809     57.6567
   348.5000      0.0000    707.1509      5.5890     56.4541
   348.7500      0.0000    700.0045      5.1760     55.8144
   349.0000      0.0000    699.0723      5.0948     56.0068
   349.2500      0.0000    703.0093      5.2935     56.7197
   349.5000      0.0000    705.5157      5.6020     57.8741
   349.7500      0.0000    704.5859      5.8862     59.8728
   350.0000      0.0000    703.2935      6.1021     62.8163
   350.2500      0.0000    703.9993      6.2701     65.7703
   350.5000      0.0000    705.7214      6.3940     67.1877
   350.7500      0.0000    705.6953      6.4633     66.1433
   351.0000      0.0000    703.7459      6.5017     63.0049
   351.2500      0.0000    702.5969      6.5348     59.0021
   351.5000      0.0000    703.6085      6.5786     55.4704
   351.7500      0.0000    704.6682      6.6516     53.4624
   352.0000      0.0000    702.6055      6.7216     53.5623
   352.2500      0.0000    699.2896      6.6996     55.6180
   352.5000      0.0000    700.9472      6.5402     58.6527
   352.7500      0.0000    708.9464      6.3011     61.3624
   353.0000      0.0000    718.7091      6.0909     62.9879
   353.2500      0.0000    727.8831      5.9838     63.7193
   353.5000      0.0000    737.4500      5.9871     64.1272
   353.7500      0.0000    745.3004      6.0543     64.3474
   354.0000      0.0000    747.1722      6.1058     64.1033
   354.2500      0.0000    745.2348      6.0832     63.2782
   354.5000      0.0000    747.2075      6.0105     62.0108
   354.7500      0.0000    755.2938      5.9706     60.3685
   355.0000      0.0000    763.6469      6.0240     58.3667
   355.2500      0.0000    766.0082      6.1589     56.3305
   355.5000      0.0000    759.5035      6.3160     54.9198
   355.7500      0.0000    745.2017      6.4751     54.5839
   356.0000      0.0000    730.0322      6.6768     55.0949
   356.2500      0.0000    721.5164      6.9210     55.8366
   356.5000      0.0000    718.7880      7.1248     56.4437
   356.7500      0.0000    715.2161      7.2254     56.8138
   357.0000      0.0000    708.0490      7.2387     56.6359
   357.2500      0.0000    702.9316      7.2060     55.5324
   357.5000      0.0000    709.5363      7.1466     53.7691
   357.7500      0.0000    732.0225      7.0634     52.3429
   358.0000      0.0000    767.3417      6.9682     52.2157
   358.2500      0.0000    811.8934      6.8908     53.6373
   358.5000      0.0000    856.4171      6.8723     56.0711
   358.7500      0.0000    877.2596      6.9204     58.4961
   359.0000      0.0000    859.4169      6.9432     60.0029
   359.2500      0.0000    819.3955      6.8370     60.3821
   359.5000      0.0000    781.1818      6.6456     60.0118
   359.7500      0.0000    753.4447      6.4932     59.1861
   360.0000      0.0000    737.8164      6.4212     58.0750
   360.2500      0.0000    734.7579      6.3912     57.4406
   360.5000      0.0000    739.5955      6.3685     58.5919
   360.7500      0.0000    742.8020      6.3642     62.1273
   361.0000      0.0000    738.6368      6.4179     67.0953
   361.2500      0.0000    730.8312      6.5331     71.6054
   361.5000      0.0000    725.4023      6.6592     73.9188
   361.7500      0.0000    723.5018      6.7401     73.1418
   362.0000      0.0000    723.3563      6.7687     69.7510
   362.2500      0.0000    723.5799      6.7954     65.7099
   362.5000      0.0000    723.6799      6.8624     63.3170
   362.7500      0.0000    723.5844      6.9550     63.3622
   363.0000      0.0000    723.3417      7.0499     64.6870
   363.2500      0.0000    723.1008      7.1610     65.7412
   363.5000      0.0000    723.0169      7.3083     66.0739
   363.7500      0.0000    722.9940      7.4749     65.9776
   364.0000      0.0000    722.7725      7.6051     65.4464
   364.2500      0.0000    722.3088      7.6538     64.3652
   364.5000      0.0000    721.8232      7.6391     63.3053
   364.7500      0.0000    721.5409      7.6420     63.2433
   365.0000      0.0000    721.5334      7.7696     64.5450
   365.2500      0.0000    721.6748      8.0825     66.7237
   365.5000      0.0000    721.5695      8.5076     69.0777
   365.7500      0.0000    720.4130      8.8915     71.3774
   366.0000      0.0000    717.2080      9.1559     74.0513
   366.2500      0.0000    712.3701      9.3157     77.5704
   366.5000      0.0000    708.4387      9.3889     81.3620
   366.7500      0.0000    705.9101      9.3816     83.6882
   367.0000      0.0000    701.1617      9.3199     83.2085
   367.2500      0.0000    692.8958      9.2505     80.4681
   367.5000      0.0000    684.9701      9.2161     77.3550
   367.7500      0.0000    680.4279      9.2351     75.2431
   368.0000      0.0000    678.6149      9.3200     73.9585
   368.2500      0.0000    677.9630      9.4994     72.4193
