~Version Information
VERS.                      2.0: CWLS Log ASCII Standard - VERSION 2.0
WRAP.                       NO: One line per depth step
~Well Information Block
STRT.FT               315.0000: 
STOP.FT              1292.5000: 
STEP.FT                 0.1000: 
NULL.                -999.2500: 
COMP.          Pioneer Natural Resources: COMPANY
WELL.          Hot Tomatoes 22-20: WELL
FLD.           Purgatoire River: FIELD
LOC.           2120' FNL & 2585' FWL: LOCATION
CNTY.               Las Animas: COUNTY
SRVC.                Patterson: SERVICE COMPANY
DATE.          Mon Feb 27 07:06:41 2006: LOG DATE
UWI.           05 071 08701 00: UNIQUE WELL ID
STAT.                 Colorado: STATE
~Curve Information Block
DEPT.FT            0 000 00 00: Depth
DCAL.in                       : CDL Caliper
RHOB.g/cc                     : CDL Bulk Density
RHOC.g/cc                     : CDL Density Correction
DPOR.pu                       : CDL Density Porosity
GR.GAPI                       : Gamma Ray
NPOR.pu                       : Neutron Porosity
~Parameter Information Block
~A  Depth       DCAL        RHOB        RHOC        DPOR         GR         NPOR    
   315.0000      4.7729      0.3396      2.0000     -0.0462    124.5569     20.8689
   315.1000      4.7729      0.3667      2.0000     -0.0457    126.0003     20.3980
   315.2000      4.7729      0.3894      2.0000     -0.0452    128.8214     20.4579
   315.3000      4.7686      0.4044      2.0000     -0.0449    126.8839     21.2210
   315.4000      4.7686      0.4083      2.0000     -0.0449    122.2238     22.0600
   315.5000      4.7750      0.4091      2.0000     -0.0448    119.6878     22.3174
   315.6000      4.7750      0.4198      2.0000     -0.0446    117.2132     22.4208
   315.7000      4.7750      0.4487      2.0000     -0.0440    111.1408     22.8489
   315.8000      4.7743      0.4885      2.0000     -0.0433    104.9793     23.1928
   315.9000      4.7743      0.5254      2.0000     -0.0425    103.4606     22.9419
   316.0000      4.7698      0.5588      2.0000     -0.0418    105.0622     22.1484
   316.1000      4.7698      0.6027      2.0000     -0.0410    108.7958     21.3726
   316.2000      4.7698      0.6641      2.0000     -0.0397    115.0760     21.2047
   316.3000      4.7787      0.7360      2.0000     -0.0383    119.0406     21.4323
   316.4000      4.7787      0.8182      2.0000     -0.0367    117.2428     21.5652
   316.5000      4.7749      0.9190      2.0000     -0.0346    112.3747     21.6410
   316.6000      4.7749      1.0435      2.0000     -0.0321    110.4322     21.7287
   316.7000      4.7749      1.1978      2.0000     -0.0291    115.4232     22.0577
   316.8000      4.7833      1.3913      2.0000     -0.0252    123.3602     22.5868
   316.9000      4.7833      1.6253      0.1908     -0.0205    128.7840     22.6435
   317.0000      4.7996      1.8904      0.3177     -0.0152    133.5330     22.3650
   317.1000      4.7996      2.1635      0.4504     -0.0097    139.5999     22.2611
   317.2000      4.7996      2.4133      0.5603     -0.0047    137.8742     22.3035
   317.3000      4.8003      2.6168      0.6706     -0.0007    134.5821     22.7119
   317.4000      4.8003      2.7670      0.7069     -7.0921    128.0749     23.2586
   317.5000      4.8105      2.8628      0.8083    -12.8955    123.7885     22.9578
   317.6000      4.8105      2.9054      0.7788    -15.4817    122.4581     22.0096
   317.7000      4.8105      2.9153      0.6855    -16.0804    121.4825     21.7126
   317.8000      4.8148      2.9271      0.6092    -16.7934    120.8346     22.3994
   317.9000      4.8148      2.9658      0.5378    -19.1410    119.8086     23.2055
   318.0000      3.7162      3.0213      0.5319    -22.5052    119.0830     23.2117
   318.1000      3.7162      3.0468      0.4207    -24.0512    121.7773     22.4566
   318.2000      3.7162      3.0197      0.3570    -22.4046    110.7785     21.8091
   318.3000     -3.0128      2.9615      0.2478    -18.8781    107.4896     21.8469
   318.4000     -3.0128      2.8740      0.2126    -13.5735    101.2899     22.3855
   318.5000      6.7285      2.7243      0.1112     -4.5031     94.7302     22.9258
   318.6000      6.7285      2.5189     -0.1888      7.9483     91.3056     23.1712
   318.7000      6.7285      2.3347     -0.4481     19.1090     90.2981     23.1645
   318.8000      8.1915      2.2476     -0.5427     24.3855     87.9899     22.7857
   318.9000      8.1915      2.2442     -0.4129     24.5911     83.2848     21.9313
   319.0000      8.1950      2.2631     -0.4340     23.4492     77.1239     21.0070
   319.1000      8.1950      2.2891     -0.4420     21.8698     72.7487     20.3908
   319.2000      8.1950      2.3188     -0.3509     20.0749     62.3458     19.7803
   319.3000      8.1968      2.3338     -0.4264     19.1648     58.8081     18.7711
   319.4000      8.1968      2.3407     -0.4200     18.7432     51.8548     17.9105
   319.5000      8.1957      2.3488     -0.3986     18.2529     43.4703     18.0015
   319.6000      8.1957      2.3518     -0.4506     18.0718     36.9989     18.9418
   319.7000      8.1957      2.3556     -0.4550     17.8424     33.8536     19.9206
   319.8000      8.1928      2.3759     -0.4400     16.6130     32.4212     20.1325
   319.9000      8.1928      2.4094     -0.3954     14.5816     30.5062     19.4291
   320.0000      8.1929      2.4421     -0.4134     12.6009     27.7800     18.6729
   320.1000      8.1929      2.4735     -0.4460     10.6973     24.8322     18.7092
   320.2000      8.1929      2.5008     -0.3426      9.0400     19.4256     18.9730
   320.3000      8.1939      2.5152     -0.3810      8.1712     19.4357     18.4709
   320.4000      8.1939      2.5202     -0.3664      7.8639     22.0192     17.5337
   320.5000      8.1974      2.5212     -0.3943      7.8059     24.7841     17.0636
   320.6000      8.1974      2.5134     -0.3825      8.2760     26.5584     17.2149
   320.7000      8.1974      2.4961     -0.3932      9.3255     28.0342     17.5353
   320.8000      8.1977      2.4730     -0.3406     10.7245     28.7084     17.7490
   320.9000      8.1977      2.4439     -0.4426     12.4912     28.1054     17.9246
   321.0000      8.1939      2.4198     -0.4764     13.9507     27.4613     18.1864
   321.1000      8.1939      2.4063     -0.4380     14.7691     27.7646     18.2978
   321.2000      8.1939      2.3909     -0.4647     15.7040     28.7531     18.1307
   321.3000      8.1957      2.3682     -0.4560     17.0810     30.5153     18.1100
   321.4000      8.1957      2.3346     -0.4116     19.1179     33.8613     18.2915
   321.5000      8.1924      2.2861     -0.4125     22.0532     36.8125     18.4094
   321.6000      8.1924      2.2219     -0.4043     25.9465     37.7444     18.5564
   321.7000      8.1924      2.1335     -0.4943     31.3038     39.1620     18.7792
   321.8000      8.1933      2.0203     -0.5328     38.1622     42.7891     19.2365
   321.9000      8.1933      1.9021     -0.6208     45.3270     46.9368     20.0375
   322.0000      8.1955      1.8022     -0.6334     51.3809     49.4563     20.7252
   322.1000      8.1955      1.7169     -0.6250     56.5498     50.7122     21.0451
   322.2000      8.1955      1.6260     -0.6428     62.0581     52.3799     21.1850
   322.3000      8.2087      1.5358     -0.7675     67.5248     54.1593     21.7076
   322.4000      8.2087      1.4691     -0.7681     71.5707     53.3450     23.0580
   322.5000      8.1982      1.4270     -0.7965     74.1212     49.3135     24.6199
   322.6000      8.1982      1.4044     -0.8334     75.4883     45.5557     25.6042
   322.7000      8.1982      1.4203     -0.8823     74.5281     44.6723     26.1302
   322.8000      8.1921      1.4932     -0.8112     70.1068     46.6391     26.4583
   322.9000      8.1921      1.5971     -0.6842     63.8151     49.7383     26.3423
   323.0000      8.1905      1.6854     -0.6489     58.4630     51.6522     25.5426
   323.1000      8.1905      1.7508     -0.6801     54.4946     52.9960     24.5913
   323.2000      8.1905      1.8115     -0.6677     50.8205     54.9978     24.5759
   323.3000      8.1936      1.8573     -0.5299     48.0422     57.3923     25.2829
   323.4000      8.1936      1.8708     -0.6176     47.2225     59.9917     25.6946
   323.5000      8.1935      1.8680     -0.6296     47.3913     63.2679     25.4648
   323.6000      8.1935      1.8763     -0.6521     46.8935     66.8560     24.9786
   323.7000      8.1935      1.9144     -0.6729     44.5830     68.7179     24.9860
   323.8000      8.1933      1.9758     -0.5577     40.8576     67.7618     25.4421
   323.9000      8.1933      2.0215     -0.4634     38.0879     65.5972     25.8115
   324.0000      8.1954      2.0202     -0.4895     38.1689     64.3988     25.9988
   324.1000      8.1954      1.9802     -0.5297     40.5948     64.4075     25.9459
   324.2000      8.1954      1.9443     -0.5940     42.7679     64.7526     25.8535
   324.3000      8.1975      1.9485     -0.5602     42.5162     65.5316     26.3052
   324.4000      8.1975      1.9769     -0.4566     40.7935     67.4548     27.1963
   324.5000      8.1940      1.9925     -0.5025     39.8478     69.0118     27.5900
