~Version Information
VERS.                      2.0: CWLS Log ASCII Standard - VERSION 2.0
WRAP.                       NO: One line per depth step
~Well Information Block
STRT.FT                -3.2500: 
STOP.FT               989.2500: 
STEP.FT                 0.2500: 
NULL.                -999.2500: 
COMP.          Pioneer Natural Resources: COMPANY
WELL.                Doc 34-30: WELL
FLD.           Purgatoire River: FIELD
LOC.           454' FSL & 1386' FEL: LOCATION
CNTY.               Las Animas: COUNTY
SRVC.                         : SERVICE COMPANY
DATE.          Wed Mar 08 14:28:55 2006: LOG DATE
UWI.           05 071 08694 00: UNIQUE WELL ID
STAT.                       CO: STATE
~Curve Information Block
DEPT.FT            0 000 00 00: Depth
GR.GAPI                       : Gamma Ray
CCL.                          : Casing Collar Locator
TT3.usec                      : CBL 3' Travel Time
AMP3.mV                       : CBL 3' Amplitude
~Parameter Information Block
~A  Depth        GR         CCL         TT3         AMP3    
# ...
   130.7500     87.7639      0.0000    663.8917      4.3053
   131.0000     87.5067      0.0000    664.7211      4.2687
   131.2500     86.5610      0.0000    665.3954      4.2300
   131.5000     84.0344      0.0000    666.0493      4.1999
   131.7500     79.3995      0.0000    666.5818      4.1812
   132.0000     73.6404      0.0000    666.7487      4.1702
   132.2500     68.9769      0.0000    666.2253      4.1604
   132.5000     67.2098      0.0000    664.7098      4.1461
   132.7500     68.4817      0.0000    662.2982      4.1248
   133.0000     71.6142      0.0000    659.8955      4.0948
   133.2500     75.3165      0.0000    658.8851      4.0554
   133.5000     78.9095      0.0000    659.9828      4.0085
   133.7500     82.1627      0.0000    662.5535      3.9596
   134.0000     84.9338      0.0000    665.2796      3.9129
   134.2500     87.1698      0.0000    667.2628      3.8681
   134.5000     88.9525      0.0000    668.3336      3.8238
   134.7500     90.2896      0.0000    668.6805      3.7815
   135.0000     90.9803      0.0000    668.5380      3.7464
   135.2500     90.6894      0.0000    668.1263      3.7231
   135.5000     89.1163      0.0000    667.6489      3.7119
   135.7500     86.3934      0.0000    667.2690      3.7083
   136.0000     83.4212      0.0000    667.1063      3.7055
   136.2500     81.4816      0.0000    667.2273      3.6993
   136.5000     81.4227      0.0000    667.5851      3.6922
   136.7500     83.3203      0.0000    667.8891      3.6941
   137.0000     86.6189      0.0000    667.5727      3.7164
   137.2500     90.2583      0.0000    666.1803      3.7641
   137.5000     92.9280      0.0000    664.2846      3.8293
   137.7500     93.6615      0.0000    663.8982      3.8953
   138.0000     92.3012      0.0000    666.9638      3.9553
   138.2500     89.4228      0.0000    672.9421      4.0243
   138.5000     85.9815      0.0000    679.2262      4.1207
   138.7500     82.9890      1.4835    684.6990      4.2432
   139.0000     81.1469      0.0000    690.6277      4.3687
   139.2500     80.4024      0.0000    696.4435      4.4662
   139.5000     79.9239      0.0000    697.6319      4.5053
   139.7500     78.7150      0.0000    691.3652      4.4623
   140.0000     76.1718      0.0000    682.3109      4.3377
   140.2500     72.0689      0.0000    678.7344      4.1692
   140.5000     66.5711      0.0000    682.8106      4.0145
   140.7500     60.5485      0.0000    687.7229      3.9173
   141.0000     55.3577      0.0000    684.9742      3.8910
   141.2500     51.9089      0.0000    672.5523      3.9291
   141.5000     50.2045      0.0000    655.3934      4.0150
   141.7500     49.8252      0.0000    639.9595      4.1192
   142.0000     50.4950      0.0000    629.7628      4.2037
   142.2500     52.1957      0.0000    624.9001      4.2403
   142.5000     55.0707      0.0000    623.9119      4.2297
   142.7500     59.2654      0.0000    625.2107      4.1987
   143.0000     64.7011      0.0000    627.2587      4.1776
   143.2500     70.9002      0.0000    628.5834      4.1774
   143.5000     77.0512      0.0000    628.3721      4.1889
   143.7500     82.4090      0.0000    626.9312      4.1983
   144.0000     86.7574      0.0000    625.1426      4.2009
   144.2500     90.2731      0.0000    623.6148      4.2023
   144.5000     92.7255      0.0000    622.4855      4.2088
   144.7500     93.1415      0.0000    621.7343      4.2204
   145.0000     90.7403      0.0000    621.3416      4.2303
   145.2500     86.1047      0.0000    621.2167      4.2349
   145.5000     81.0939      0.0000    621.2058      4.2389
   145.7500     77.6302      0.0000    621.2378      4.2503
   146.0000     76.5794      0.0000    621.4201      4.2681
   146.2500     77.4970      0.0000    621.9979      4.2794
   146.5000     79.3468      0.0000    623.2664      4.2708
   146.7500     81.5154      0.0000    625.4328      4.2426
   147.0000     84.0411      0.0000    628.2866      4.2080
   147.2500     86.9603      0.0000    630.8755      4.1796
   147.5000     89.7685      0.0000    631.8588      4.1612
   147.7500     91.6525      0.0000    630.6109      4.1506
   148.0000     92.1151      0.0000    627.8744      4.1430
   148.2500     91.1942      0.0000    625.1047      4.1337
   148.5000     89.0376      0.0000    623.3819      4.1199
   148.7500     85.6512      0.0000    623.1227      4.1031
   149.0000     81.4361      0.0000    624.3839      4.0875
   149.2500     77.6223      0.0000    626.8383      4.0761
   149.5000     75.5084      0.0000    629.4371      4.0688
   149.7500     75.2852      0.0000    630.6893      4.0641
   150.0000     75.9377      0.0000    629.7798      4.0609
   150.2500     76.1593      0.0000    627.2943      4.0602
   150.5000     75.1760      0.0000    624.6001      4.0644
   150.7500     72.9610      0.0000    622.6800      4.0761
   151.0000     70.0652      0.0000    621.7418      4.0945
   151.2500     67.3922      0.0000    621.6953      4.1146
   151.5000     65.9641      0.0000    622.7316      4.1308
   151.7500     66.4799      0.0000    625.4310      4.1415
   152.0000     68.7538      0.0000    630.2809      4.1503
   152.2500     71.6276      0.0000    636.9077      4.1638
   152.5000     73.6955      0.0000    643.8619      4.1892
   152.7500     74.2306      0.0000    649.6556      4.2313
   153.0000     73.5306      0.0000    654.1522      4.2908
   153.2500     72.6189      0.0000    658.3945      4.3654
   153.5000     72.5064      0.0000    662.7983      4.4504
   153.7500     73.3456      0.0000    666.3162      4.5335
   154.0000     74.1430      0.0000    668.1414      4.5920
   154.2500     73.5286      0.0000    669.9160      4.6013
   154.5000     71.0068      0.0000    675.1650      4.5481
   154.7500     67.5232      0.0000    685.5173      4.4327
   155.0000     64.8021      0.0000    697.3815      4.2624
   155.2500     64.1732      0.0000    703.6321      4.0569
   155.5000     66.0714      0.0000    699.4933      3.8563
   155.7500     70.4379      0.0000    686.0033      3.7129
   156.0000     77.1411      0.0000    667.7798      3.6632
   156.2500     85.7305      0.0000    649.4634      3.7097
   156.5000     94.9029      0.0000    634.9169      3.8251
   156.7500    102.5296      0.0000    627.9807      3.9698
   157.0000    106.7073      0.0000    632.1164      4.1084
   157.2500    107.1743      0.0000    648.2088      4.2207
   157.5000    105.4311      0.0000    672.0414      4.2999
   157.7500    103.1905      0.0000    694.9639      4.3420
   158.0000    101.0490      0.0000    709.2707      4.3432
   158.2500     98.8140      0.0000    713.5230      4.3063
   158.5000     96.5066      0.0000    711.4932      4.2384
   158.7500     94.6721      0.0000    706.2436      4.1421
   159.0000     93.9677      0.0000    697.0121      4.0183
   159.2500     94.6894      0.0000    682.3036      3.8795
   159.5000     96.5766      0.0000    664.6973      3.7499
   159.7500     98.8407      0.0000    651.1440      3.6496
   160.0000    100.3659      0.0000    647.2661      3.5823
   160.2500    100.0813      0.0000    651.4896      3.5381
   160.5000     97.4190      0.0000    656.3133      3.5057
   160.7500     92.5177      0.0000    655.8546      3.4834
   161.0000     86.0252      0.0000    650.9294      3.4791
   161.2500     78.8582      0.0000    646.9305      3.4978
   161.5000     72.1224      0.0000    648.4133      3.5303
   161.7500     66.9299      0.0000    655.6583      3.5533
   162.0000     64.0353      0.0000    664.3345      3.5390
   162.2500     63.7087      0.0000    667.4945      3.4654
   162.5000     65.9013      0.0000    659.1851      3.3240
   162.7500     70.2384      0.0000    638.3001      3.1221
   163.0000     75.8075      0.0000    610.2551      2.8805
   163.2500     81.4041      0.0000    584.7164      2.6295
   163.5000     86.2741      0.0000    570.2243      2.4071
   163.7500     90.3714      0.0000    569.0032      2.2560
   164.0000     93.7271      0.0000    575.3817      2.2131
