~Version Information
VERS.                      2.0: CWLS Log ASCII Standard - VERSION 2.0
WRAP.                       NO: One line per depth step
~Well Information Block
STRT.FT               -14.7500: 
STOP.FT              1106.0000: 
STEP.FT                 0.2500: 
NULL.                -999.2500: 
COMP.          Pioneer Natural Resources: COMPANY
WELL.          Black Cat 13-32 Tr: WELL
FLD.           Purgatorie River: FIELD
LOC.           1679' FSL & 1150' FWL--: LOCATION
CNTY.               Las Animas: COUNTY
SRVC.          Patterson Wireline: SERVICE COMPANY
DATE.          Wed Mar 15 15:59:24 2006: LOG DATE
UWI.           05 071 08721 00: UNIQUE WELL ID
STAT.                       CO: STATE
~Curve Information Block
DEPT.FT            0 000 00 00: Depth
CCL.                          : Casing Collar Locator
TT3.usec                      : CBL 3' Travel Time
AMP3.mV                       : CBL 3' Amplitude
GR.GAPI                       : Gamma Ray
~Parameter Information Block
~A  Depth       CCL         TT3         AMP3         GR     
# ...
  1057.2500      0.0000    642.5413      4.0610    116.2022
  1057.5000      0.0000    655.6588      4.0915    113.4976
  1057.7500      0.0000    665.3347      4.1670    110.4909
  1058.0000      0.0000    660.1639      4.2614    107.1896
  1058.2500      0.0000    635.7110      4.3494    104.8092
  1058.5000      0.0000    596.3534      4.4124    105.4288
  1058.7500      0.0000    554.8449      4.4407    110.0316
  1059.0000      0.0000    527.5961      4.4330    116.9383
  1059.2500      0.0000    525.2533      4.3934    122.9435
  1059.5000      0.0000    544.1194      4.3315    126.3986
  1059.7500      0.0000    565.9206      4.2673    128.5194
  1060.0000      0.0000    568.6440      4.2299    131.3051
  1060.2500      0.0000    542.0953      4.2394    135.0388
  1060.5000      0.0000    494.8815      4.2882    138.2223
  1060.7500      0.0000    446.0632      4.3466    139.1609
  1061.0000      0.0000    410.5449      4.3858    137.3688
  1061.2500      0.0000    392.4293      4.3963    134.0842
  1061.5000      0.0000    389.2038      4.3849    131.5289
  1061.7500      0.0000    398.0792      4.3617    131.0953
  1062.0000      0.0000    416.8189      4.3315    131.9392
  1062.2500      0.0000    440.2016      4.2962    131.4194
  1062.5000      0.0000    459.2593      4.2597    127.1489
  1062.7500      0.0000    467.3285      4.2297    118.9647
  1063.0000      0.0000    466.6579      4.2147    109.2343
  1063.2500      0.0000    466.5824      4.2225    101.1912
  1063.5000      0.0000    474.9205      4.2588     96.6128
  1063.7500      0.0000    492.7743      4.3246     94.8981
  1064.0000      0.0000    516.5095      4.4118     94.3751
  1064.2500      0.0000    541.1805      4.5015     94.1708
  1064.5000      0.0000    561.4706      4.5712     94.5114
  1064.7500      0.0000    572.9771      4.6065     95.7600
  1065.0000      0.0000    575.6703      4.6078     97.8410
  1065.2500      0.0000    575.2198      4.5878    100.5190
  1065.5000      0.0000    578.2072      4.5656    103.8894
  1065.7500      0.0000    585.0756      4.5583    108.4884
  1066.0000      0.0000    588.7021      4.5750    114.7926
  1066.2500      0.0000    580.1581      4.6134    122.3986
  1066.5000      0.0000    556.4453      4.6585    129.6810
  1066.7500      0.0000    525.2018      4.6815    134.6232
  1067.0000      0.0000    502.4404      4.6457    136.3126
  1067.2500      0.0000    502.6072      4.5240    135.5920
  1067.5000      0.0000    527.5521      4.3260    134.0434
  1067.7500      0.0000    564.1190      4.1067    132.4134
  1068.0000      0.0000    592.8162      3.9317    130.1997
  1068.2500      0.0000    599.9508      3.8246    126.4969
  1068.5000      0.0000    583.9831      3.7598    120.8355
  1068.7500      0.0000    553.3582      3.7161    113.3634
  1069.0000      0.0000    519.0235      3.7176    104.8131
  1069.2500      0.0000    487.1031      3.8001     96.6379
  1069.5000      0.0000    457.5422      3.9548     90.8334
  1069.7500      0.0000    429.4864      4.1233     89.0614
  1070.0000     -2.0000    406.1682      4.2435     91.6330
  1070.2500      0.0000    393.0280      4.2873     97.1674
  1070.5000      0.0000    392.2891      4.2674    103.1937
  1070.7500      0.0000    400.6378      4.2185    107.4911
  1071.0000      0.0000    411.3987      4.1656    109.4527
  1071.2500      0.0000    418.5465      4.1064    110.3478
  1071.5000      0.0000    419.6700      4.0365    112.0007
  1071.7500      0.0000    416.2500      3.9823    115.1455
  1072.0000      0.0000    411.4789      3.9859    118.9906
  1072.2500      0.0000    407.7322      4.0594    121.9138
  1072.5000      0.0000    405.6417      4.1688    122.4933
  1072.7500      0.0000    404.6916      4.2623    120.4938
  1073.0000      0.0000    404.0869      4.3033    117.2163
  1073.2500      0.0000    403.1913      4.2834    114.6372
  1073.5000      0.0000    401.8019      4.2148    113.9595
  1073.7500      0.0000    400.3905      4.1159    114.8005
  1074.0000      0.0000    400.1308      4.0006    115.5534
  1074.2500      0.0000    402.9667      3.8789    114.6012
  1074.5000      0.0000    412.4464      3.7603    111.3173
  1074.7500      0.0000    434.2466      3.6542    105.9687
  1075.0000      0.0000    473.4782      3.5672     99.1378
  1075.2500      0.0000    528.8521      3.5003     91.6940
  1075.5000      0.0000    589.6951      3.4488     84.9157
  1075.7500      0.0000    641.1746      3.4052     79.9182
  1076.0000      0.0000    673.9667      3.3642     76.8807
  1076.2500      0.0000    689.0474      3.3266     75.0490
  1076.5000      0.0000    694.1844      3.2965     73.3274
  1076.7500      0.0000    697.1022      3.2768     70.7413
  1077.0000      0.0000    701.3181      3.2660     66.8477
  1077.2500      0.0000    706.4193      3.2606     62.2169
  1077.5000      0.0000    710.7345      3.2580     58.3589
  1077.7500      0.0000    713.5134      3.2597     56.6898
  1078.0000      0.0000    715.4871      3.2703     57.4884
  1078.2500      0.0000    718.4723      3.2918     60.0156
  1078.5000      0.0000    724.7496      3.3169     63.5171
  1078.7500      0.0000    735.7259      3.3285     67.7096
  1079.0000      0.0000    749.6224      3.3099     72.2820
  1079.2500      0.0000    759.8177      3.2547     76.4090
  1079.5000      0.0000    756.7699      3.1698     79.1194
  1079.7500      0.0000    734.6896      3.0695     79.9688
  1080.0000      0.0000    698.9946      2.9675     79.1998
  1080.2500      0.0000    666.1969      2.8733     77.5428
  1080.5000      0.0000    652.4167      2.7916     76.0150
  1080.7500      0.0000    660.3641      2.7238     75.4716
  1081.0000      0.0000    679.1292      2.6688     75.9570
  1081.2500      0.0000    695.8820      2.6252     76.6763
  1081.5000      0.0000    705.0438      2.5926     76.7727
  1081.7500      0.0000    707.5242      2.5720     76.0896
  1082.0000      0.0000    705.5077      2.5645     75.2549
  1082.2500      0.0000    699.4382      2.5698     74.9812
  1082.5000      0.0000    687.8317      2.5850     75.1196
  1082.7500      0.0000    668.2419      2.6047     74.5418
  1083.0000      0.0000    639.2213      2.6234     72.2350
  1083.2500      0.0000    603.3879      2.6386     68.4339
  1083.5000      0.0000    568.5811      2.6525     64.5945
  1083.7500      0.0000    543.2925      2.6686     62.4885
  1084.0000      0.0000    529.2943      2.6878     63.2434
  1084.2500      0.0000    520.4388      2.7069     66.7352
  1084.5000      0.0000    509.9113      2.7215     71.6081
  1084.7500      0.0000    496.8654      2.7290     76.0997
  1085.0000      0.0000    485.0490      2.7296     79.1417
  1085.2500      0.0000    477.3990      2.7263     80.7039
  1085.5000      0.0000    473.7927      2.7226     81.0390
  1085.7500      0.0000    472.5710      2.7211     79.8555
  1086.0000      0.0000    472.3333      2.7234     76.7030
  1086.2500      0.0000    472.3804      2.7317     72.0854
  1086.5000      0.0000    472.5520      2.7489     67.4231
  1086.7500      0.0000    473.5396      2.7774     63.7419
  1087.0000      0.0000    477.8918      2.8184     61.0989
  1087.2500      0.0000    490.5988      2.8716     59.4387
  1087.5000      0.0000    516.9833      2.9352     59.2134
  1087.7500      0.0000    557.7772      3.0065     60.7521
  1088.0000      0.0000    605.9343      3.0836     63.4544
  1088.2500      0.0000    649.9861      3.1661     66.1029
  1088.5000      0.0000    681.5856      3.2541     67.9844
  1088.7500      0.0000    699.7785      3.3477     69.5012
  1089.0000      0.0000    709.0109      3.4482     71.5411
  1089.2500      0.0000    714.6733      3.5577     74.3108
  1089.5000      0.0000    720.2171      3.6782     76.9695
  1089.7500      0.0000    726.3367      3.8105     78.4710
  1090.0000      0.0000    731.3579      3.9535     78.7984
  1090.2500      0.0000    732.5468      4.1006     79.3484
  1090.5000      0.0000    727.9230      4.2365     81.9606
