~Version Information
 VERS.                                  2.0 : CWLS LAS VERSION
 WRAP.                                   NO : WRAPING MODE
 SWARE .                  MController 2.5.1 : SOFTWARE VERSION
~Well Information
 WELL.                           Erin 21-15 : WELL
 COMP.  Pioneer Natural Resources USA, Inc. : COMPANY
 FLD.                      Purgatoire River : FIELD
 LOC.             NE/NW Sec. 15, T33S, R67W : LOCATION
 DATE.                03/01/2006-03/02/2006 : DATE(S) LOGGED
 SRVC.                  Entrada GeoSciences : SERVICE COMPANY
 STAT.                             Colorado : STATE
 CNTY.                           Las Animas : COUNTY
 CTRY.                        United States : COUNTRY
 API.                          05-071-08713 : API NUMBER
 STRT.FT                             553.00 : START DEPTH
 STOP.FT                            2200.00 : STOP DEPTH
 STEP.FT                               1.00 : DEPTH INCREMENT
 NULL.                                -9999 : NULL VALUE
~Curve information
 DEPTH.FT                                   :
 ROP.MIN/FT                                 :
 GAS.UNITS                                  :
~ASCII Log data
# ...
      753.00         0.17         17.9 
      754.00         0.17         18.9 
      755.00         0.27         17.4 
      756.00         0.15         18.0 
      757.00         0.23         18.6 
      758.00         0.37         18.4 
      759.00         0.27         17.8 
      760.00         0.13         17.7 
      761.00         0.27         17.2 
      762.00         0.30         18.3 
      763.00         0.17         19.3 
      764.00         0.20         18.6 
      765.00         0.13         18.5 
      766.00         0.20         18.8 
      767.00         0.13         18.4 
      768.00         0.27         17.5 
      769.00         0.27         17.8 
      770.00         0.27         17.3 
      771.00         0.23         17.0 
      772.00         0.13         17.0 
      773.00         0.17         17.5 
      774.00         0.17         18.8 
      775.00         0.17         17.7 
      776.00         0.10         19.0 
      777.00         0.23         17.5 
      778.00         0.17         17.1 
      779.00         0.17         17.7 
      780.00         0.17         17.6 
      781.00         0.28         17.5 
      782.00         0.20         17.5 
      783.00         0.17         18.1 
      784.00         0.20         18.6 
      785.00         0.30         21.2 
      786.00         0.07         20.0 
      787.00         0.10         20.2 
      788.00         0.13         21.4 
      789.00         0.23         21.2 
      790.00         0.30         19.4 
      791.00         0.20         20.2 
      792.00         0.13         19.2 
      793.00         0.17         19.7 
      794.00         0.10         19.2 
      795.00         0.37         22.9 
      796.00         0.27         22.2 
      797.00         0.28         21.8 
      798.00         0.23         17.6 
      799.00         0.27         18.0 
      800.00         0.17         18.2 
      801.00         0.23         20.6 
      802.00         0.27         27.3 
      803.00         0.23         38.3 
      804.00         0.43         30.2 
      805.00         0.23         25.3 
      806.00         0.20         23.3 
      807.00         0.17         23.8 
      808.00         0.17         23.0 
      809.00         0.17         21.2 
      810.00         0.23         20.1 
      811.00         0.17         19.5 
      812.00         0.17         20.0 
      813.00         0.15         18.6 
      814.00         0.07         18.9 
      815.00         0.10         18.6 
      816.00         0.10         18.4 
      817.00         0.13         18.1 
      818.00         0.20         17.5 
      819.00         0.17         17.9 
      820.00         0.20         18.5 
      821.00         0.30         18.0 
      822.00         0.37         19.2 
      823.00         0.27         19.5 
      824.00         0.23         20.2 
      825.00         0.23         19.5 
      826.00         0.23         18.9 
      827.00         0.20         18.9 
      828.00         0.43         17.8 
      829.00         0.20         21.6 
      830.00         0.27         31.4 
      831.00         0.30         33.6 
      832.00         0.20         27.7 
      833.00         0.13         25.3 
      834.00         0.20         23.9 
      835.00         0.23         22.3 
      836.00         0.23         20.4 
      837.00         0.23         20.2 
      838.00         0.25         19.8 
      839.00         0.27         19.7 
      840.00         0.20         19.3 
      841.00         0.20         19.3 
      842.00         0.27         18.9 
      843.00         0.30         19.4 
      844.00         0.27         21.1 
      845.00         0.20         20.2 
      846.00         0.13         19.7 
      847.00         0.10         21.0 
      848.00         0.17         20.3 
      849.00         0.17         20.4 
      850.00         0.13         20.2 
      851.00         0.23         18.7 
      852.00         0.23         19.3 
      853.00         0.30         18.6 
      854.00         0.22         20.9 
      855.00         0.27         21.2 
      856.00         0.27         21.4 
      857.00         0.27         19.5 
      858.00         0.43         20.3 
      859.00         0.43         19.2 
      860.00         0.30         21.3 
      861.00         0.27         40.5 
      862.00         0.23         55.4 
      863.00         0.33         59.7 
      864.00         0.30         44.4 
      865.00         0.35         33.8 
      866.00         0.37         27.5 
      867.00         0.40         24.1 
      868.00         0.17         24.5 
      869.00         0.13         23.0 
      870.00         0.13         22.3 
      871.00         0.17         22.3 
      872.00         0.17         22.1 
      873.00         0.20         20.3 
      874.00         0.23         20.0 
      875.00         0.23         20.5 
      876.00         0.20         22.8 
      877.00         0.17         22.3 
      878.00         0.20         23.2 
      879.00         0.17         23.8 
      880.00         0.10         23.6 
      881.00         0.28         21.8 
      882.00         0.17         21.0 
      883.00         0.33         21.5 
      884.00         0.27         19.2 
      885.00         0.27         19.1 
      886.00         0.27         19.1 
      887.00         0.27         20.0 
      888.00         0.27         17.3 
      889.00         0.23         17.4 
      890.00         0.20         19.1 
      891.00         0.20         24.3 
      892.00         0.17         30.5 
      893.00         0.20         36.1 
      894.00         0.20         39.1 
      895.00         0.25         30.8 
      896.00         0.20         25.5 
      897.00         0.20         23.2 
      898.00         0.20         21.5 
      899.00         0.20         20.2 
      900.00         0.17         20.0 
      901.00         0.20         20.4 
      902.00         0.23         19.7 
      903.00         0.20         18.5 
      904.00         0.30         18.6 
      905.00         0.20         19.0 
      906.00         0.20         18.1 
      907.00         0.20         19.1 
      908.00         0.23         18.1 
      909.00         0.17         18.0 
      910.00         0.25         18.0 
      911.00         0.23         18.5 
      912.00         0.30         19.0 
      913.00         0.33         18.1 
      914.00         0.30         18.6 
      915.00         0.27         19.8 
      916.00         0.30         20.0 
      917.00         0.33         19.0 
      918.00         0.20         35.6 
      919.00         0.30         27.3 
      920.00         0.13         24.3 
      921.00         0.10         23.7 
      922.00         0.33         21.1 
      923.00         0.32         20.9 
      924.00         0.10         21.5 
      925.00         0.13         22.1 
      926.00         0.13         22.2 
      927.00         0.13         21.6 
      928.00         0.20         22.2 
      929.00         0.20         22.1 
      930.00         0.23         24.4 
      931.00         0.20         27.5 
      932.00         0.23         30.6 
      933.00         0.30         32.8 
      934.00         0.33         33.8 
      935.00         0.27         31.7 
      936.00         0.17         30.3 
      937.00         0.37         25.1 
      938.00         0.35         21.9 
      939.00         0.23         20.8 
      940.00         0.20         20.1 
      941.00         0.27         20.4 
      942.00         0.27         22.6 
      943.00         0.27         23.5 
      944.00         0.17         25.7 
      945.00         0.33         28.9 
      946.00         0.27         29.2 
      947.00         0.13         28.4 
      948.00         0.40         20.8 
      949.00         0.27         20.4 
      950.00         0.20         20.4 
      951.00         0.27         19.4 
      952.00         0.30         23.7 
