~Version Information
 VERS.                                  2.0 : CWLS LAS VERSION
 WRAP.                                   NO : WRAPING MODE
 SWARE .                 MController 2.5.0N : SOFTWARE VERSION
~Well Information
 WELL.                          AMX 13-13TR : WELL
 COMP.       Pioneer Natural Resources, USA : COMPANY
 FLD.                       Purgatory River : FIELD
 LOC.                NW/SW Sec 13 T32S R67W : LOCATION
 DATE.                             12/21/05 : DATE(S) LOGGED
 SRVC.      Blanco Geological Services, LLC : SERVICE COMPANY
 STAT.                             Colorado : STATE
 CNTY.                           Las Animas : COUNTY
 CTRY.                                  USA : COUNTRY
 API.                       05-071-08631-00 : API NUMBER
 STRT.FT                             395.00 : START DEPTH
 STOP.FT                            2187.00 : STOP DEPTH
 STEP.FT                               1.00 : DEPTH INCREMENT
 NULL.                                -9999 : NULL VALUE
~Curve information
 DEPTH.FT                                   :
 ROP.MIN/FT                                 :
 GAS.UNITS                                  :
~ASCII Log data
# ...
       995.0         0.20          5.9 
       996.0         0.20          6.0 
       997.0         0.17          6.2 
       998.0         0.17          5.6 
       999.0         0.23          5.4 
      1000.0         0.17          5.1 
      1001.0         0.13          5.0 
      1002.0         0.10          5.1 
      1003.0         0.10          5.0 
      1004.0         0.17          5.2 
      1005.0         0.20          5.4 
      1006.0         0.23          5.3 
      1007.0         0.20          5.1 
      1008.0         0.13          5.0 
      1009.0         0.13          5.0 
      1010.0         0.22          5.2 
      1011.0         0.13          4.9 
      1012.0         0.17          4.9 
      1013.0         0.13          5.0 
      1014.0         0.27          5.1 
      1015.0         0.23          5.4 
      1016.0         2.10          6.8 
      1017.0         0.45          6.2 
      1018.0         0.10          5.3 
      1019.0         0.07          5.2 
      1020.0         0.13          5.2 
      1021.0         0.23          5.1 
      1022.0         0.27          5.1 
      1023.0         0.33          5.4 
      1024.0         0.23          5.1 
      1025.0         0.33          5.2 
      1026.0         0.23          5.0 
      1027.0         0.27          5.2 
      1028.0         0.23          5.1 
      1029.0         0.23          5.2 
      1030.0         0.27          5.0 
      1031.0         0.22          5.0 
      1032.0         0.17          5.4 
      1033.0         0.23          5.1 
      1034.0         0.23          4.9 
      1035.0         0.23          4.8 
      1036.0         0.20          4.6 
      1037.0         0.20          4.7 
      1038.0         0.17          4.8 
      1039.0         0.20          4.8 
      1040.0         0.23          5.1 
      1041.0         0.23          5.1 
      1042.0         0.27          5.0 
      1043.0         0.20          5.0 
      1044.0         0.23          5.3 
      1045.0         0.17          5.1 
      1046.0         1.88          5.9 
      1047.0         0.27          5.1 
      1048.0         0.37          8.3 
      1049.0         0.30         50.4 
      1050.0         0.27        114.8 
      1051.0         0.23        171.5 
      1052.0         0.25        207.5 
      1053.0         0.17        217.7 
      1054.0         0.13        220.3 
      1055.0         0.13        220.4 
      1056.0         0.10        219.3 
      1057.0         0.13        217.2 
      1058.0         0.07        212.7 
      1059.0         0.13        210.1 
      1060.0         0.27        204.1 
      1061.0         0.20        193.1 
      1062.0         0.23        185.2 
      1063.0         0.27        178.2 
      1064.0         0.23        171.0 
      1065.0         0.17        164.7 
      1066.0         0.17        160.4 
      1067.0         0.23        156.4 
      1068.0         0.23        150.9 
      1069.0         0.17        146.5 
      1070.0         0.28        143.3 
      1071.0         0.33        137.4 
      1072.0         0.37        131.6 
      1073.0         0.30        120.1 
      1074.0         0.27        134.6 
      1075.0         0.13        148.6 
      1076.0         2.52        399.3 
      1077.0         0.23        142.0 
      1078.0         0.23        141.6 
      1079.0         0.23        141.5 
      1080.0         0.20        139.1 
      1081.0         0.13        134.5 
      1082.0         0.13        130.6 
      1083.0         0.13        126.1 
      1084.0         0.13        122.2 
      1085.0         0.17        118.5 
      1086.0         0.17        114.2 
      1087.0         0.20        110.4 
      1088.0         0.17        106.6 
      1089.0         0.20        103.9 
      1090.0         0.17        101.3 
      1091.0         0.22        100.4 
      1092.0         0.20         99.7 
      1093.0         0.23         98.2 
      1094.0         0.27         95.8 
      1095.0         0.27         92.7 
      1096.0         0.30         89.8 
      1097.0         0.30         87.6 
      1098.0         0.23         85.3 
      1099.0         0.27         83.3 
      1100.0         0.17         81.0 
      1101.0         0.30         80.0 
      1102.0         0.30         75.6 
      1103.0         0.20         69.2 
      1104.0         0.20         74.7 
      1105.0         0.18         87.1 
      1106.0         1.50        144.8 
      1107.0         0.33        123.9 
      1108.0         0.23        106.4 
      1109.0         0.13         97.8 
      1110.0         0.27         93.3 
      1111.0         0.23         85.1 
      1112.0         0.17         79.5 
      1113.0         0.10         76.1 
      1114.0         0.13         74.3 
      1115.0         0.18         72.4 
      1116.0         0.20         70.0 
      1117.0         0.20         68.2 
      1118.0         0.13         66.5 
      1119.0         0.23         65.7 
      1120.0         0.23         67.5 
      1121.0         0.20         71.2 
      1122.0         0.20         75.1 
      1123.0         0.17         76.7 
      1124.0         0.20         77.0 
      1125.0         0.20         76.5 
      1126.0         0.13         75.5 
      1127.0         0.10         74.7 
      1128.0         0.17         73.4 
      1129.0         0.20         69.3 
      1130.0         0.13         63.3 
      1131.0         0.13         60.6 
      1132.0         0.13         60.0 
      1133.0         0.13         62.6 
      1134.0         0.18         72.2 
      1135.0         0.17         86.7 
      1136.0         1.47        167.7 
      1137.0         0.27        150.6 
      1138.0         0.13        130.4 
      1139.0         0.17        121.3 
      1140.0         0.30        111.5 
      1141.0         0.37         98.5 
      1142.0         0.20         87.4 
      1143.0         0.20         83.2 
      1144.0         0.28         79.8 
      1145.0         0.27         75.8 
      1146.0         0.23         72.9 
      1147.0         0.20         71.0 
      1148.0         0.27         69.4 
      1149.0         0.20         67.6 
      1150.0         0.23         66.1 
      1151.0         0.20         66.7 
      1152.0         0.23         67.8 
      1153.0         0.20         67.8 
      1154.0         0.23         66.7 
      1155.0         0.23         64.5 
      1156.0         0.17         62.6 
      1157.0         0.27         61.8 
      1158.0         0.28         60.9 
      1159.0         0.23         59.8 
      1160.0         0.20         57.9 
      1161.0         0.20         53.7 
      1162.0         0.17         50.1 
      1163.0         0.17         51.3 
      1164.0         0.20         56.8 
      1165.0         0.17         66.3 
      1166.0         1.53        131.7 
      1167.0         0.30        112.1 
      1168.0         0.28         96.8 
      1169.0         0.23         83.5 
      1170.0         0.27         75.3 
      1171.0         0.23         67.4 
      1172.0         0.20         62.3 
      1173.0         0.20         59.7 
      1174.0         0.17         57.1 
      1175.0         0.23         55.5 
      1176.0         0.23         53.6 
      1177.0         0.20         52.2 
      1178.0         0.17         51.1 
      1179.0         0.17         50.3 
      1180.0         0.20         49.5 
      1181.0         0.17         48.9 
      1182.0         0.20         48.5 
      1183.0         0.20         48.1 
      1184.0         0.18         47.3 
      1185.0         0.20         47.8 
      1186.0         0.17         48.3 
      1187.0         0.23         45.4 
      1188.0         0.20         44.9 
      1189.0         0.23         52.7 
      1190.0         0.20         58.0 
      1191.0         0.17         59.2 
      1192.0         0.17         58.9 
      1193.0         0.17         57.3 
      1194.0         0.20         55.7 
