~Version Information
VERS.                      2.0: CWLS Log ASCII Standard - VERSION 2.0
WRAP.                       NO: One line per depth step
~Well Information Block
STRT.FT                65.0000: 
STOP.FT               998.0000: 
STEP.FT                 0.2500: 
NULL.                -999.2500: 
COMP.          Pioneer Natural Resources: COMPANY
WELL.              Gough 14-29: WELL
FLD.           Purgatorie River: FIELD
LOC.           1199' FSL & 676' FWL: LOCATION
PROV.                 Colorado: PROVINCE
CNTY.               Las Animas: COUNTRY
SRVC.                Patterson: SERVICE COMPANY
DATE.          Wed Dec 28 08:38:26 2005: LOG DATE
UWI.                          : UNIQUE WELL ID
~Curve Information Block
DEPT.FT            0 000 00 00: Depth
CCL.                          : Casing Collar Locator
TT3.usec                      : CBL 3' Travel Time
AMP3.mV                       : CBL 3' Amplitude
GR.GAPI                       : Gamma Ray
~Parameter Information Block
~A  Depth       CCL         TT3         AMP3         GR     
# ...
   835.5000      0.0000    341.5057     11.7844     62.6497
   835.7500      0.0000    341.4338     11.9343     63.5148
   836.0000      0.0000    341.4892     12.1414     61.6456
   836.2500      0.0000    341.8032     12.3796     57.1522
   836.5000      0.0000    342.4088     12.6200     52.1521
   836.7500      0.0000    343.4109     12.8374     48.6348
   837.0000      0.0000    345.8265     13.0204     46.9320
   837.2500      0.0000    352.5486     13.1638     46.1867
   837.5000      0.0000    366.1371     13.2494     45.5850
   837.7500      0.0000    381.7676     13.2620     44.9587
   838.0000      0.0000    386.7789     13.1910     44.6737
   838.2500      0.0000    376.0319     13.0033     45.1994
   838.5000      0.0000    360.4317     12.6705     46.6873
   838.7500      0.0000    354.1174     12.2894     48.9871
   839.0000      0.0000    368.1057     12.0949     52.0671
   839.2500      0.0000    417.1947     12.0487     56.1278
   839.5000      0.0000    508.1604     11.5494     61.1433
   839.7500      0.0000    612.4844     10.1736     66.4267
   840.0000      0.0000    676.7791      8.4941     70.7338
   840.2500      0.0000    676.2550      7.4394     72.8962
   840.5000      0.0000    643.4679      7.1824     72.5835
   840.7500      0.0000    632.6271      7.2402     70.5783
   841.0000      2.0000    660.0848      7.2294     68.3594
   841.2500     -2.0000    695.8317      7.0934     67.4214
   841.5000      0.0000    708.7776      6.9581     68.7094
   841.7500      0.0000    693.9127      7.0397     72.1270
   842.0000      0.0000    663.9308      7.4268     76.2620
   842.2500      0.0000    639.9268      7.9531     78.9552
   842.5000      0.0000    628.6343      8.5080     78.8704
   842.7500      0.0000    608.9149      9.1934     76.8770
   843.0000      0.0000    572.9502     10.0181     75.6156
   843.2500      0.0000    540.3259     10.8277     77.3188
   843.5000      0.0000    513.3591     11.5359     81.9359
   843.7500      0.0000    483.5877     12.1115     87.4115
   844.0000      0.0000    476.3570     12.4632     91.5785
   844.2500      0.0000    524.0569     12.5324     93.5425
   844.5000      0.0000    611.3987     12.3932     93.6350
   844.7500      0.0000    689.4341     12.1957     92.7516
   845.0000      0.0000    730.8438     12.0357     91.7420
   845.2500      0.0000    745.4439     11.9074     90.9426
   845.5000      0.0000    751.6940     11.7957     90.1356
   845.7500      0.0000    755.7388     11.7287     89.0279
   846.0000      0.0000    755.7587     11.7081     87.7965
   846.2500      0.0000    752.0536     11.6805     87.0431
   846.5000      0.0000    749.3716     11.5997     87.0476
   846.7500      0.0000    751.8839     11.4695     87.2287
   847.0000      0.0000    758.6622     11.3278     86.6510
   847.2500      0.0000    765.4939     11.2104     85.0560
   847.5000      0.0000    767.7711     11.1271     83.1331
   847.7500      0.0000    762.3525     11.0608     81.8659
   848.0000      0.0000    750.1772     10.9927     81.7975
   848.2500      0.0000    736.2895     10.9278     82.7374
   848.5000      0.0000    726.2308     10.8912     83.9578
   848.7500      0.0000    722.5504     10.8955     84.7093
   849.0000      0.0000    725.1143     10.9199     84.7009
   849.2500      0.0000    732.0632     10.9281     84.2741
   849.5000      0.0000    738.2717     10.8904     84.1227
   849.7500      0.0000    737.8273     10.7943     84.6554
   850.0000      0.0000    730.9563     10.6633     85.6363
   850.2500      0.0000    723.5958     10.5399     86.5607
   850.5000      0.0000    719.8227     10.4624     87.1851
   850.7500      0.0000    719.3074     10.4881     87.4205
   851.0000      0.0000    720.9673     10.6650     86.9533
   851.2500      0.0000    725.5927     10.9543     85.3697
   851.5000      0.0000    734.2820     11.2542     82.6034
   851.7500      0.0000    745.1472     11.4966     78.9558
   852.0000      0.0000    753.9406     11.6620     74.6933
   852.2500      0.0000    758.4948     11.7487     70.0390
   852.5000      0.0000    759.9906     11.7965     65.6581
   852.7500      0.0000    760.1224     11.8754     62.6268
   853.0000      0.0000    758.8076     11.9957     61.6100
   853.2500      0.0000    754.1949     12.0917     62.3146
   853.5000      0.0000    745.0401     12.1074     63.9175
   853.7500      0.0000    733.7902     12.0451     65.7973
   854.0000      0.0000    725.6908     11.9359     67.7269
   854.2500      0.0000    724.5079     11.8036     69.6325
   854.5000      0.0000    730.3449     11.6526     71.4827
   854.7500      0.0000    739.8183     11.4662     73.4158
   855.0000      0.0000    748.2058     11.2285     75.6875
   855.2500      0.0000    752.9420     10.9673     78.1950
   855.5000      0.0000    753.9977     10.7330     80.1759
   855.7500      0.0000    751.8254     10.5379     80.6843
   856.0000      0.0000    747.7408     10.3755     79.4338
   856.2500      0.0000    745.2465     10.2476     77.0775
   856.5000      0.0000    747.0690     10.1355     74.7712
   856.7500      0.0000    751.6815     10.0110     73.5387
   857.0000      0.0000    755.6929      9.8721     73.9441
   857.2500      0.0000    757.3812      9.7376     76.1058
   857.5000      0.0000    756.9575      9.6406     79.6644
   857.7500      0.0000    755.6288      9.6103     83.6178
   858.0000      0.0000    753.8415      9.6373     86.6083
   858.2500      0.0000    749.7182      9.6876     87.7550
   858.5000      0.0000    741.5477      9.7421     87.1169
   858.7500      0.0000    732.1314      9.7921     85.1163
   859.0000      0.0000    727.6063      9.8090     81.6708
   859.2500      0.0000    731.8030      9.7603     76.3190
   859.5000      0.0000    743.7577      9.6634     69.2572
   859.7500      0.0000    759.5913      9.5845     61.8841
   860.0000      0.0000    774.5991      9.5736     56.0848
   860.2500      0.0000    784.9528      9.6350     53.0437
   860.5000      0.0000    789.9251      9.7491     52.7811
   860.7500      0.0000    791.5600      9.8720     54.5545
   861.0000      0.0000    791.9661      9.9295     57.3467
   861.2500      0.0000    792.0728      9.8814     60.0693
   861.5000      0.0000    792.0987      9.7899     61.9466
   861.7500      0.0000    792.0877      9.7635     63.0844
   862.0000      0.0000    792.0327      9.8387     64.4486
   862.2500      0.0000    791.5908      9.9652     67.0598
   862.5000      0.0000    789.4944     10.0937     71.1772
   862.7500      0.0000    783.9573     10.2055     76.1045
   863.0000      0.0000    776.1388     10.2773     80.7063
   863.2500      0.0000    772.2634     10.2970     84.3479
   863.5000      0.0000    776.5021     10.2826     87.5196
   863.7500      0.0000    784.3563     10.2449     91.2545
   864.0000      0.0000    788.9189     10.1900     95.7154
   864.2500      0.0000    787.7205     10.1515     99.7326
   864.5000      0.0000    782.0186     10.1415    101.9819
   864.7500      0.0000    776.0623     10.1180    102.2255
   865.0000      0.0000    774.9258     10.0624    101.2331
   865.2500      0.0000    778.6096     10.0077    100.0162
   865.5000      0.0000    782.5590      9.9653     99.3722
   865.7500      0.0000    785.0535      9.9112     99.6108
   866.0000      0.0000    787.7633      9.8477    100.1729
   866.2500      0.0000    790.7421      9.8128     99.7286
   866.5000      0.0000    792.5128      9.8227     97.2084
   866.7500      0.0000    792.2101      9.8487     92.7991
   867.0000      0.0000    789.0128      9.8580     87.6345
   867.2500      0.0000    782.3505      9.8417     82.6581
   867.5000      0.0000    773.9510      9.8153     78.2520
   867.7500      0.0000    767.2128      9.8014     74.8123
   868.0000      0.0000    763.7668      9.7843     72.9883
   868.2500      0.0000    762.6880      9.7188     73.1319
   868.5000      0.0000    762.5815      9.6139     74.9234
   868.7500      0.0000    762.7401      9.5389     77.6364
