~Version Information
VERS.                      2.0: CWLS Log ASCII Standard - VERSION 2.0
WRAP.                       NO: One line per depth step
~Well Information Block
STRT.FT               245.0000: 
STOP.FT              1273.7000: 
STEP.FT                 0.1000: 
NULL.                -999.2500: 
COMP.          Pioneer Natural Resources: COMPANY
WELL.                 Ray 34-6: WELL
FLD.           Purgatoire River: FIELD
LOC.           684' FSL & 2254' FEL--: LOCATION
CNTY.               Las Animas: COUNTY
SRVC.                Patterson: SERVICE COMPANY
DATE.          Fri May 26 09:17:30 2006: LOG DATE
UWI.           05 071 08695 00: UNIQUE WELL ID
STAT.                 Colorado: STATE
~Curve Information Block
DEPT.FT            0 000 00 00: Depth
DCAL.in                       : CDL Caliper
RHOB.g/cc                     : CDL Bulk Density
RHOC.g/cc                     : CDL Density Correction
DPOR.pu                       : CDL Density Porosity
NPOR.pu                       : Neutron Porosity
GR.GAPI                       : Gamma Ray
~Parameter Information Block
~A  Depth       DCAL        RHOB        RHOC        DPOR        NPOR         GR     
# ...
   840.2000      8.0368      2.5550      0.0226      5.7597     23.0919     78.3757
   840.3000      8.0292      2.5418      0.0159      6.5604     23.7168     80.4317
   840.4000      8.0292      2.5270      0.0143      7.4562     24.3940     82.1720
   840.5000      8.0260      2.5184     -0.0037      7.9761     24.9529     85.7564
   840.6000      8.0260      2.5277      0.0166      7.4102     25.1806     91.1114
   840.7000      8.0260      2.5448      0.0528      6.3769     25.0367     97.6510
   840.8000      8.0257      2.5475      0.0614      6.2091     24.6111    104.5114
   840.9000      8.0257      2.5343      0.0191      7.0130     24.2699    108.5350
   841.0000      8.0275      2.5222      0.0358      7.7436     24.5053    108.3421
   841.1000      8.0275      2.5235      0.0235      7.6675     25.2276    104.9418
   841.2000      8.0275      2.5355      0.0480      6.9399     25.8929     98.5596
   841.3000      8.0292      2.5456      0.0651      6.3245     26.1584     91.3981
   841.4000      8.0292      2.5505      0.0257      6.0305     26.1104     88.6013
   841.5000      8.0279      2.5579      0.0235      5.5793     25.9638     90.8342
   841.6000      8.0279      2.5634      0.0692      5.2514     25.6426     92.6867
   841.7000      8.0279      2.5611      0.0327      5.3852     25.1026     90.0041
   841.8000      8.0246      2.5648      0.0515      5.1655     24.6108     85.2550
   841.9000      8.0246      2.5765      0.0954      4.4536     24.3805     82.7278
   842.0000      8.0210      2.5834      0.0583      4.0382     24.3802     84.2365
   842.1000      8.0210      2.5869      0.0725      3.8216     24.4167     88.0084
   842.2000      8.0210      2.5969      0.0858      3.2201     24.3007     88.4405
   842.3000      8.0201      2.6100      0.0765      2.4268     24.0533     85.3898
   842.4000      8.0201      2.6146      0.0898      2.1448     23.9225     86.9079
   842.5000      8.0228      2.6063      0.0474      2.6500     24.0143     94.2926
   842.6000      8.0228      2.5956      0.0617      3.2967     24.2733    100.2261
   842.7000      8.0228      2.5956      0.0726      3.2957     24.7807    100.5550
   842.8000      8.0255      2.6015      0.0694      2.9413     25.2728     96.7649
   842.9000      8.0255      2.5949      0.0702      3.3414     25.1917     95.3845
   843.0000      8.0278      2.5798      0.0287      4.2537     24.6665    100.4043
   843.1000      8.0278      2.5775      0.0736      4.3933     24.1960    106.3602
   843.2000      8.0278      2.5863      0.0581      3.8624     24.0004    108.1135
   843.3000      8.0313      2.5866      0.1004      3.8449     24.1095    106.7438
   843.4000      8.0313      2.5695      0.0725      4.8761     24.3260    104.8201
   843.5000      8.0341      2.5546      0.0401      5.7834     24.2807    103.0947
   843.6000      8.0341      2.5593      0.0696      5.4964     23.8253     99.7548
   843.7000      8.0341      2.5701      0.0750      4.8453     23.3280     94.4131
   843.8000      8.0343      2.5766      0.0173      4.4465     23.2390     89.3444
   843.9000      8.0343      2.5910      0.0266      3.5781     23.4131     85.9601
   844.0000      8.0351      2.6119      0.0911      2.3078     23.5823     84.6229
   844.1000      8.0351      2.6229      0.0350      1.6442     23.7355     84.6632
   844.2000      8.0351      2.6134      0.0629      2.2195     23.7933     83.9089
   844.3000      8.0355      2.5842      0.0022      3.9861     23.8464     81.4467
   844.4000      8.0355      2.5515      0.0398      5.9723     23.9823     78.8407
   844.5000      8.0338      2.5308      0.0111      7.2237     24.0985     77.6323
   844.6000      8.0338      2.5331     -0.0052      7.0846     24.1676     77.5828
   844.7000      8.0338      2.5545      0.0362      5.7849     24.1380     78.5531
   844.8000      8.0341      2.5731      0.0343      4.6603     23.8841     80.8311
   844.9000      8.0341      2.5769      0.0376      4.4277     23.3519     83.6607
   845.0000      8.0392      2.5709      0.0495      4.7932     22.9207     84.0541
   845.1000      8.0392      2.5632      0.0334      5.2583     23.0767     81.6909
   845.2000      8.0392      2.5600      0.0334      5.4562     23.6710     81.5587
   845.3000      8.0470      2.5584      0.0619      5.5492     24.2962     85.9726
   845.4000      8.0470      2.5544      0.0453      5.7920     24.6545     93.3035
   845.5000      8.0497      2.5516      0.0472      5.9630     24.6847    102.7826
   845.6000      8.0497      2.5499      0.0418      6.0638     24.7052    111.0618
   845.7000      8.0497      2.5436      0.0304      6.4495     24.9313    112.9943
   845.8000      8.0497      2.5369      0.0078      6.8559     25.4021    109.9024
   845.9000      8.0497      2.5449     -0.0081      6.3681     26.0347    109.2885
   846.0000      8.0527      2.5651      0.0263      5.1445     26.5105    115.6803
   846.1000      8.0527      2.5692      0.0751      4.8987     26.5370    123.0598
   846.2000      8.0527      2.5437      0.0208      6.4398     26.4430    125.0960
   846.3000      8.0560      2.5107     -0.0096      8.4442     26.7502    123.6302
   846.4000      8.0560      2.4959      0.0019      9.3402     27.2351    120.0744
   846.5000      8.0553      2.5055      0.0351      8.7574     27.3335    116.0727
   846.6000      8.0553      2.5268      0.0409      7.4678     27.1659    114.5766
   846.7000      8.0553      2.5421      0.0321      6.5422     27.1584    116.2617
   846.8000      8.0516      2.5472     -0.0071      6.2316     27.4448    121.1297
   846.9000      8.0516      2.5508      0.0454      6.0124     27.8634    126.0695
   847.0000      8.0490      2.5547      0.0527      5.7734     27.9937    126.4989
   847.1000      8.0490      2.5522      0.0513      5.9302     27.7482    121.2657
   847.2000      8.0490      2.5452      0.0135      6.3532     27.5715    113.5076
   847.3000      8.0482      2.5460      0.0134      6.3058     27.6991    109.2693
   847.4000      8.0482      2.5500      0.0762      6.0596     27.8334    110.4451
   847.5000      8.0500      2.5419      0.0591      6.5486     27.4913    114.7283
   847.6000      8.0500      2.5272      0.0150      7.4447     26.6785    119.6253
   847.7000      8.0500      2.5191      0.0680      7.9326     25.9374    121.6521
   847.8000      8.0521      2.5177      0.0357      8.0160     25.5771    119.5065
   847.9000      8.0521      2.5214      0.0568      7.7954     25.5231    117.0000
   848.0000      8.0542      2.5257      0.0665      7.5306     25.4552    115.5095
   848.1000      8.0542      2.5231      0.0698      7.6921     24.9274    113.6411
   848.2000      8.0542      2.5120      0.0824      8.3641     23.9090    113.4478
   848.3000      8.0564      2.5060      0.0040      8.7291     22.9676    114.5450
   848.4000      8.0564      2.5230      0.0266      7.6960     22.4820    110.7656
   848.5000      8.0567      2.5476      0.1071      6.2030     22.1672    101.4776
   848.6000      8.0567      2.5520      0.0596      5.9397     21.8546     95.8032
   848.7000      8.0567      2.5422      0.0776      6.5304     21.5729    100.4373
   848.8000      8.0560      2.5332      0.0529      7.0786     21.2531    109.1386
   848.9000      8.0560      2.5260      0.0242      7.5176     20.9540    113.2927
   849.0000      8.0561      2.5249      0.0159      7.5788     20.7705    109.7730
   849.1000      8.0561      2.5331      0.0802      7.0825     20.7774     99.7735
   849.2000      8.0561      2.5386      0.0691      6.7524     20.8813     89.4874
   849.3000      8.0565      2.5337      0.0550      7.0478     20.8723     83.8959
   849.4000      8.0565      2.5280      0.0411      7.3918     20.9926     82.4336
   849.5000      8.0562      2.5370     -0.0008      6.8505     21.6575     84.1617
   849.6000      8.0562      2.5643      0.0744      5.1967     22.5363     87.4286
   849.7000      8.0562      2.5920      0.0621      3.5155     22.9582     87.9654
