~Version Information
VERS.                      2.0: CWLS Log ASCII Standard - VERSION 2.0
WRAP.                       NO: One line per depth step
~Well Information Block
STRT.FT               420.0000: 
STOP.FT              2888.7500: 
STEP.FT                 0.2500: 
NULL.                -999.2500: 
COMP.          Pioneer Natural Resources: COMPANY
WELL.          Touchstone 11-32: WELL
FLD.           Purgatoire River: FIELD
LOC.           853' FNL & 407' FWL--: LOCATION
CNTY.               Las Animas: COUNTY
SRVC.                Patterson: SERVICE COMPANY
DATE.          Thu Feb 23 14:02:36 2006: LOG DATE
UWI.           05 071 08564 00: UNIQUE WELL ID
STAT.                 Colorado: STATE
~Curve Information Block
DEPT.FT            0 000 00 00: Depth
SN.Ohm-m                      : IEL Short Normal
SP.mV                         : IEL Spontaneous Potential
DIR.Ohm-m                     : IEL Induction Resistivity
GR.GAPI                       : Gamma Ray
~Parameter Information Block
~A  Depth        SN          SP         DIR          GR     
# ...
   587.5000   2000.0000   1974.0000     39.2539     67.9004
   587.7500   2000.0000   1974.0000     39.3208     66.9852
   588.0000   2000.0000   1974.0000     39.3583     64.5669
   588.2500   2000.0000   1974.0000     39.3062     62.2259
   588.5000   2000.0000   1974.0000     39.1484     58.3814
   588.7500   2000.0000   1974.0000     38.9343     56.4354
   589.0000   2000.0000   1974.0000     38.7489     55.5548
   589.2500   2000.0000   1974.0000     38.6569     56.3003
   589.5000   2000.0000   1974.0000     38.6692     58.3757
   589.7500   2000.0000   1974.0000     38.7532     59.7272
   590.0000   2000.0000   1974.0000     38.8752     61.1707
   590.2500   2000.0000   1974.0000     39.0276     61.7989
   590.5000   2000.0000   1974.0000     39.2205     62.6363
   590.7500   2000.0000   1974.0000     39.4509     63.3821
   591.0000   2000.0000   1974.0000     39.6884     65.0095
   591.2500   2000.0000   1974.0000     39.8936     66.3320
   591.5000   2000.0000   1974.0000     40.0512     68.1984
   591.7500   2000.0000   1974.0000     40.1822     69.1638
   592.0000   2000.0000   1974.0000     40.3261     70.3220
   592.2500   2000.0000   1974.0000     40.5118     71.1563
   592.5000   2000.0000   1974.0000     40.7475     72.7135
   592.7500   2000.0000   1974.0000     41.0341     73.7866
   593.0000   2000.0000   1974.0000     41.3802     74.8673
   593.2500   2000.0000   1974.0000     41.7988     74.9760
   593.5000   2000.0000   1974.0000     42.2866     74.1799
   593.7500   2000.0000   1974.0000     42.8052     73.2289
   594.0000   2000.0000   1974.0000     43.2751     71.7611
   594.2500   2000.0000   1974.0000     43.5850     71.0276
   594.5000   2000.0000   1974.0000     43.6139     70.4519
   594.7500   2000.0000   1974.0000     43.2652     70.4389
   595.0000   2000.0000   1974.0000     42.5000     71.1680
   595.2500   2000.0000   1974.0000     41.3452     72.3157
   595.5000   2000.0000   1974.0000     39.8695     75.1834
   595.7500   2000.0000   1974.0000     38.1526     77.8567
   596.0000   2000.0000   1974.0000     36.2760     82.9195
   596.2500   2000.0000   1974.0000     34.3290     86.9497
   596.5000   2000.0000   1974.0000     32.4038     94.0670
   596.7500   2000.0000   1974.0000     30.5720     99.6195
   597.0000   2000.0000   1974.0000     28.8657    108.9333
   597.2500   2000.0000   1974.0000     27.2799    115.3590
   597.5000   2000.0000   1974.0000     25.7953    124.5454
   597.7500   2000.0000   1974.0000     24.4039    130.1250
   598.0000   2000.0000   1974.0000     23.1216    137.4161
   598.2500   2000.0000   1974.0000     21.9856    141.3675
   598.5000   2000.0000   1974.0000     21.0396    145.6448
   598.7500   2000.0000   1974.0000     20.3155    147.2517
   599.0000   2000.0000   1974.0000     19.8218    147.4446
   599.2500   2000.0000   1974.0000     19.5397    146.0058
   599.5000   2000.0000   1974.0000     19.4305    142.2047
   599.7500   2000.0000   1974.0000     19.4491    139.4972
   600.0000   2000.0000   1974.0000     19.5564    136.5719
   600.2500   2000.0000   1974.0000     19.7258    135.4538
   600.5000   2000.0000   1974.0000     19.9417    133.9464
   600.7500   2000.0000   1974.0000     20.1972    132.4632
   601.0000   2000.0000   1974.0000     20.4907    129.8157
   601.2500   2000.0000   1974.0000     20.8237    128.5221
   601.5000   2000.0000   1974.0000     21.1948    128.0053
   601.7500   2000.0000   1974.0000     21.5922    128.2047
   602.0000   2000.0000   1974.0000     21.9897    128.0479
   602.2500   2000.0000   1974.0000     22.3504    127.3400
   602.5000   2000.0000   1974.0000     22.6397    126.1212
   602.7500   2000.0000   1974.0000     22.8416    125.9809
   603.0000   2000.0000   1974.0000     22.9660    127.3346
   603.2500   2000.0000   1974.0000     23.0427    128.6884
   603.5000   2000.0000   1974.0000     23.1050    129.6038
   603.7500   2000.0000   1974.0000     23.1761    128.9424
   604.0000   2000.0000   1974.0000     23.2649    126.6244
   604.2500   2000.0000   1974.0000     23.3695    124.7901
   604.5000   2000.0000   1974.0000     23.4824    121.9556
   604.7500   2000.0000   1974.0000     23.5938    119.9565
   605.0000   2000.0000   1974.0000     23.6954    117.1183
   605.2500   2000.0000   1974.0000     23.7873    115.8557
   605.5000   2000.0000   1974.0000     23.8847    115.6245
   605.7500   2000.0000   1974.0000     24.0185    116.5004
   606.0000   2000.0000   1974.0000     24.2256    118.4269
   606.2500   2000.0000   1974.0000     24.5354    119.3419
   606.5000   2000.0000   1974.0000     24.9573    118.7281
   606.7500   2000.0000   1974.0000     25.4746    116.3342
   607.0000   2000.0000   1974.0000     26.0479    109.7526
   607.2500   2000.0000   1974.0000     26.6280    104.2859
   607.5000   2000.0000   1974.0000     27.1760     96.8927
   607.7500   2000.0000   1974.0000     27.6802     93.5607
   608.0000   2000.0000   1974.0000     28.1568     91.1670
   608.2500   2000.0000   1974.0000     28.6338     90.7140
   608.5000   2000.0000   1974.0000     29.1291     90.6772
   608.7500   2000.0000   1974.0000     29.6382     90.8252
   609.0000   2000.0000   1974.0000     30.1364     91.4568
   609.2500   2000.0000   1974.0000     30.5889     92.3819
   609.5000   2000.0000   1974.0000     30.9629     94.7610
   609.7500   2000.0000   1974.0000     31.2390     96.8515
   610.0000   2000.0000   1974.0000     31.4218     99.9376
   610.2500   2000.0000   1974.0000     31.5361    101.4696
   610.5000   2000.0000   1974.0000     31.6099    102.6988
   610.7500   2000.0000   1974.0000     31.6575    103.0141
   611.0000   2000.0000   1974.0000     31.6801    103.2369
   611.2500   2000.0000   1974.0000     31.6813    103.2994
   611.5000   2000.0000   1974.0000     31.6797    102.7912
   611.7500   2000.0000   1974.0000     31.7078    101.5666
   612.0000   2000.0000   1974.0000     31.7968     97.8309
   612.2500   2000.0000   1974.0000     31.9627     94.1909
   612.5000   2000.0000   1974.0000     32.2014     88.0546
   612.7500   2000.0000   1974.0000     32.4926     84.3655
   613.0000   2000.0000   1974.0000     32.8069     80.4985
   613.2500   2000.0000   1974.0000     33.1134     79.0695
   613.5000   2000.0000   1974.0000     33.3872     77.7674
   613.7500   2000.0000   1974.0000     33.6183     76.8185
   614.0000   2000.0000   1974.0000     33.8140     74.7933
   614.2500   2000.0000   1974.0000     33.9919     73.1663
   614.5000   2000.0000   1974.0000     34.1630     70.6130
   614.7500   2000.0000   1974.0000     34.3183     68.8193
   615.0000   2000.0000   1974.0000     34.4317     65.8256
   615.2500   2000.0000   1974.0000     34.4847     63.6180
   615.5000   2000.0000   1974.0000     34.4934     60.1411
   615.7500   2000.0000   1974.0000     34.5116     57.9150
   616.0000   2000.0000   1974.0000     34.6060     55.4202
   616.2500   2000.0000   1974.0000     34.8254     54.8234
   616.5000   2000.0000   1974.0000     35.1872     55.7896
   616.7500   2000.0000   1974.0000     35.6807     57.2084
   617.0000   2000.0000   1974.0000     36.2725     59.1585
   617.2500   2000.0000   1974.0000     36.9107     59.8473
   617.5000   2000.0000   1974.0000     37.5330     60.1863
   617.7500   2000.0000   1974.0000     38.0805     60.4426
   618.0000   2000.0000   1974.0000     38.5081     61.4226
   618.2500   2000.0000   1974.0000     38.7877     62.3880
   618.5000   2000.0000   1974.0000     38.9163     63.7904
   618.7500   2000.0000   1974.0000     38.9313     64.4973
   619.0000   2000.0000   1974.0000     38.9133     65.2046
   619.2500   2000.0000   1974.0000     38.9563     65.4765
   619.5000   2000.0000   1974.0000     39.1182     65.5388
   619.7500   2000.0000   1974.0000     39.3827     65.3762
   620.0000   2000.0000   1974.0000     39.6571     65.2800
   620.2500   2000.0000   1974.0000     39.8108     65.8037
   620.5000   2000.0000   1974.0000     39.7416     68.1334
   620.7500   2000.0000   1974.0000     39.4356     70.5979
