~Version Information
VERS.                      2.0: CWLS Log ASCII Standard - VERSION 2.0
WRAP.                       NO: One line per depth step
~Well Information Block
STRT.FT               595.7000: 
STOP.FT              1567.2000: 
STEP.FT                 0.1000: 
NULL.                -999.2500: 
COMP.          Pioneer Natural Resources: COMPANY
WELL.           Butch 33-10 Tr: WELL
FLD.           Purgatoire River: FIELD
LOC.           2309' FSL & 1337' FEL--: LOCATION
PROV.                 Colorado: PROVINCE
CNTY.               Las Animas: COUNTRY
SRVC.                Patterson: SERVICE COMPANY
DATE.          Mon Jan 16 07:34:05 2006: LOG DATE
UWI.           05 071 08649 00: UNIQUE WELL ID
~Curve Information Block
DEPT.FT            0 000 00 00: Depth
DCAL.in                       : CDL Caliper
RHOB.g/cc                     : CDL Bulk Density
RHOC.g/cc                     : CDL Density Correction
DPOR.pu                       : CDL Density Porosity
GR.GAPI                       : Gamma Ray
~Parameter Information Block
~A  Depth       DCAL        RHOB        RHOC        DPOR         GR     
# ...
  1413.3000      8.0786      2.4737      0.0619     10.6868     67.6805
  1413.4000      8.0786      2.4735      0.0719     10.6986     60.6696
  1413.5000      8.0762      2.4793      0.0851     10.3448     58.4942
  1413.6000      8.0762      2.4828      0.0709     10.1305     61.0501
  1413.7000      8.0762      2.4819      0.0676     10.1881     65.2368
  1413.8000      8.0818      2.4794      0.0845     10.3407     66.6932
  1413.9000      8.0818      2.4780      0.0696     10.4223     65.3260
  1414.0000      8.0940      2.4780      0.0434     10.4222     63.6076
  1414.1000      8.0940      2.4783      0.0395     10.4043     62.0251
  1414.2000      8.0940      2.4768      0.0752     10.4995     62.2676
  1414.3000      8.1037      2.4755      0.0539     10.5735     67.1307
  1414.4000      8.1037      2.4833      0.0601     10.1011     75.2812
  1414.5000      8.1079      2.4982      0.1027      9.2023     82.9889
  1414.6000      8.1079      2.5052      0.1064      8.7773     85.8743
  1414.7000      8.1079      2.5000      0.0670      9.0938     84.0006
  1414.8000      8.1086      2.4923      0.0715      9.5583     83.8207
  1414.9000      8.1086      2.4916      0.0525      9.5996     87.1731
  1415.0000      8.1082      2.4997      0.0835      9.1103     89.4026
  1415.1000      8.1082      2.5104      0.0856      8.4581     89.2580
  1415.2000      8.1082      2.5141      0.1041      8.2356     90.2303
  1415.3000      8.1065      2.5021      0.0729      8.9638     90.9546
  1415.4000      8.1065      2.4760      0.0583     10.5476     88.4493
  1415.5000      8.1045      2.4495      0.0428     12.1490     85.8817
  1415.6000      8.1045      2.4399      0.0443     12.7320     85.0031
  1415.7000      8.1045      2.4545      0.0483     11.8497     83.0032
  1415.8000      8.1055      2.4760      0.1191     10.5479     78.4552
  1415.9000      8.1055      2.4777      0.0969     10.4413     73.5986
  1416.0000      8.1065      2.4654      0.0603     11.1908     71.4220
  1416.1000      8.1065      2.4630      0.0699     11.3315     72.1914
  1416.2000      8.1065      2.4699      0.0914     10.9135     72.6770
  1416.3000      8.1089      2.4685      0.0926     10.9991     71.6847
  1416.4000      8.1089      2.4587      0.0542     11.5946     70.6171
  1416.5000      8.1082      2.4573      0.0510     11.6775     68.8257
  1416.6000      8.1082      2.4675      0.0804     11.0608     65.2814
  1416.7000      8.1082      2.4780      0.0590     10.4265     60.7368
  1416.8000      8.1056      2.4855      0.0759      9.9689     58.7198
  1416.9000      8.1056      2.4892      0.0743      9.7433     61.7571
  1417.0000      8.1045      2.4868      0.0704      9.8924     67.9336
  1417.1000      8.1045      2.4840      0.0661     10.0604     74.5685
  1417.2000      8.1045      2.4859      0.0160      9.9448     79.8560
  1417.3000      8.1036      2.4821      0.0932     10.1786     80.8433
  1417.4000      8.1036      2.4642      0.0398     11.2606     77.2104
  1417.5000      8.1033      2.4492      0.0122     12.1688     72.7473
  1417.6000      8.1033      2.4543      0.0141     11.8610     70.1922
  1417.7000      8.1033      2.4731      0.0175     10.7216     68.6930
  1417.8000      8.1019      2.4906      0.0865      9.6581     67.8233
  1417.9000      8.1019      2.4995      0.0460      9.1235     69.3376
  1418.0000      8.1012      2.4926      0.0703      9.5375     74.4549
  1418.1000      8.1012      2.4567      0.0425     11.7160     81.6592
  1418.2000      8.1012      2.3945     -0.0035     15.4864     85.4855
  1418.3000      8.1011      2.3266     -0.0550     19.5976     84.2994
  1418.4000      8.1011      2.2567     -0.0163     23.8341     82.8447
  1418.5000      8.1012      2.1672     -0.0431     29.2635     85.9443
  1418.6000      8.1012      2.0580     -0.1131     35.8800     94.0802
  1418.7000      8.1012      1.9500     -0.1415     42.4224    101.7037
  1418.8000      8.1028      1.8524     -0.1398     48.3403    103.8388
  1418.9000      8.1028      1.7583     -0.1315     54.0410    102.2719
  1419.0000      8.1192      1.6674     -0.1528     59.5494     99.0636
  1419.1000      8.1192      1.5987     -0.1380     63.7134     93.3536
  1419.2000      8.1192      1.5778     -0.0936     64.9834     90.7441
  1419.3000      8.1931      1.6108     -0.0024     62.9804     96.1027
  1419.4000      8.1931      1.6794      0.0773     58.8221    102.3699
  1419.5000      8.3588      1.7647      0.1326     53.6520    103.7484
  1419.6000      8.3588      1.8593      0.1753     47.9197    104.4507
  1419.7000      8.3588      1.9494      0.2285     42.4622    106.9695
  1419.8000      8.5098      2.0235      0.1839     37.9672    108.6369
  1419.9000      8.5098      2.0999      0.1751     33.3423    109.1026
  1420.0000      8.4555      2.1926      0.2030     27.7224    110.1999
  1420.1000      8.4555      2.2775      0.2143     22.5729    112.4574
  1420.2000      8.4555      2.3312      0.1697     19.3187    116.4646
  1420.3000      8.2328      2.3600      0.1175     17.5778    123.9558
  1420.4000      8.2328      2.3741      0.1341     16.7235    135.8720
  1420.5000      8.0339      2.3800      0.1131     16.3630    148.3789
  1420.6000      8.0339      2.3841      0.1191     16.1159    156.5905
  1420.7000      8.0339      2.3858      0.0576     16.0094    162.2499
  1420.8000      7.9424      2.3829      0.0811     16.1853    165.9355
  1420.9000      7.9424      2.3715      0.0785     16.8773    166.2119
  1421.0000      7.9156      2.3591      0.0167     17.6320    166.2485
  1421.1000      7.9156      2.3621      0.0368     17.4482    166.7676
  1421.2000      7.9156      2.3811      0.0213     16.2996    164.0349
  1421.3000      7.9004      2.4010      0.1053     15.0933    161.3739
  1421.4000      7.9004      2.4182      0.0921     14.0486    165.0731
  1421.5000      7.8821      2.4512      0.0800     12.0472    170.3072
  1421.6000      7.8821      2.5022      0.1701      8.9577    170.8262
  1421.7000      7.8821      2.5394      0.2023      6.7051    167.3794
  1421.8000      7.8687      2.5436      0.1594      6.4496    161.5052
  1421.9000      7.8687      2.5324      0.1032      7.1252    153.7112
  1422.0000      7.8710      2.5282      0.1115      7.3819    146.0188
  1422.1000      7.8710      2.5308      0.1233      7.2263    141.0157
  1422.2000      7.8710      2.5293      0.1098      7.3122    140.3251
  1422.3000      7.8900      2.5278      0.0762      7.4070    142.5318
  1422.4000      7.8900      2.5361      0.0895      6.9047    144.5701
  1422.5000      7.9159      2.5437      0.1038      6.4440    146.8582
  1422.6000      7.9159      2.5386      0.0342      6.7493    149.2944
  1422.7000      7.9159      2.5334      0.0420      7.0661    146.5132
  1422.8000      7.9338      2.5375      0.0471      6.8177    138.3418
  1422.9000      7.9338      2.5421      0.0694      6.5398    136.3101
  1423.0000      7.9352      2.5414      0.0592      6.5823    146.2150
  1423.1000      7.9352      2.5388      0.0891      6.7378    158.0784
  1423.2000      7.9352      2.5354      0.0615      6.9438    157.4966
  1423.3000      7.9231      2.5271      0.1002      7.4483    146.2376
  1423.4000      7.9231      2.5149      0.0549      8.1897    139.0896
  1423.5000      7.9122      2.5078      0.0564      8.6173    137.7877
  1423.6000      7.9122      2.5097      0.0639      8.5051    139.1189
  1423.7000      7.9122      2.5157      0.1008      8.1389    146.7597
  1423.8000      7.9100      2.5198      0.1176      7.8903    154.9837
  1423.9000      7.9100      2.5210      0.1059      7.8205    153.0246
  1424.0000      7.9138      2.5190      0.0759      7.9402    143.0389
  1424.1000      7.9138      2.5128      0.0325      8.3163    136.6330
  1424.2000      7.9138      2.5078      0.0592      8.6191    137.9710
  1424.3000      7.9145      2.5143      0.0434      8.2251    139.8535
  1424.4000      7.9145      2.5347      0.0635      6.9873    134.9501
