~Version Information
VERS.                      2.0: CWLS Log ASCII Standard - VERSION 2.0
WRAP.                       NO: One line per depth step
~Well Information Block
STRT.FT               745.0000: 
STOP.FT              1985.0000: 
STEP.FT                 0.1000: 
NULL.                -999.2500: 
COMP.          Pioneer Natural Resources: COMPANY
WELL.          Lorencito 15-36-33-67: WELL
FLD.           Purgatoire River: FIELD
LOC.           38' FSL & 1446' FEL: LOCATION
STAT.                 Colorado: State
CNTY.               Las Animas: COUNTY
CTRY. USA : Country
SECT. 36 : Section
TOWN. 33S : Township
RANG. 67W : Range
SRVC.                Patterson: SERVICE COMPANY
DATE.          Thu Oct 13 10:16:17 2005: LOG DATE
API.           05 071 08515 00: UNIQUE WELL ID
~Curve Information Block
DEPT.FT            0 000 00 00: Depth
DCAL.in                       : CDL Caliper
RHOB.g/cc                     : CDL Bulk Density
RHOC.g/cc                     : CDL Density Correction
DPOR.pu                       : CDL Density Porosity
GR.GAPI                       : Gamma Ray
NPOR.pu                       : Neutron Porosity
~Parameter Information Block
~A  Depth       DCAL        RHOB        RHOC        DPOR         GR         NPOR    
# ...
  1157.8000      8.0869      2.7072      0.0135     -3.4648    119.3860     26.1452
  1157.9000      8.0869      2.6884      0.0326     -2.3302    115.7345     25.8603
  1158.0000      8.0844      2.6649      0.0064     -0.9045    110.9505     26.2586
  1158.1000      8.0844      2.6491     -0.0090      0.0549    105.8400     27.0609
  1158.2000      8.0844      2.6407      0.0449      0.5661    100.2771     27.4811
  1158.3000      8.0877      2.6212      0.0487      1.7461     97.4546     27.0334
  1158.4000      8.0877      2.5913     -0.0218      3.5561     99.2705     26.4490
  1158.5000      8.0872      2.5746     -0.0167      4.5715    103.5973     26.5145
  1158.6000      8.0872      2.5698      0.0131      4.8622    107.9028     26.8706
  1158.7000      8.0872      2.5559      0.0254      5.7045    109.9790     26.9000
  1158.8000      8.0887      2.5376     -0.0341      6.8127    108.7941     26.7472
  1158.9000      8.0887      2.5288     -0.0061      7.3453    107.0143     26.6077
  1159.0000      8.0865      2.5239     -0.0437      7.6396    107.5585     26.5842
  1159.1000      8.0865      2.5206      0.0282      7.8404    110.3980     26.9676
  1159.2000      8.0865      2.5346     -0.0137      6.9912    113.1551     27.6621
  1159.3000      8.0763      2.5790      0.0317      4.3061    113.3225     28.1470
  1159.4000      8.0763      2.6313      0.1190      1.1332    112.8025     28.0507
  1159.5000      8.0856      2.6628      0.0920     -0.7729    114.8762     27.4762
  1159.6000      8.0856      2.6756      0.0820     -1.5531    118.8759     26.7370
  1159.7000      8.0856      2.6790      0.0802     -1.7556    119.4395     26.2162
  1159.8000      8.0858      2.6672      0.1255     -1.0454    113.4669     25.9229
  1159.9000      8.0858      2.6449      0.0229      0.3102    105.0078     25.5194
  1160.0000      8.0852      2.6349      0.0349      0.9126     96.3311     25.0800
  1160.1000      8.0852      2.6354      0.0699      0.8834     84.5096     24.8053
  1160.2000      8.0852      2.6316      0.0129      1.1138     70.7539     24.5553
  1160.3000      8.0857      2.6294     -0.0201      1.2483     61.8306     24.2329
  1160.4000      8.0857      2.6271      0.0337      1.3856     59.9590     23.9030
  1160.5000      8.0844      2.6147     -0.0245      2.1382     61.8864     23.2334
  1160.6000      8.0844      2.6012      0.0178      2.9580     65.2940     22.2681
  1160.7000      8.0844      2.6022      0.0087      2.8989     68.3585     21.9546
  1160.8000      8.0865      2.6141      0.0451      2.1767     70.3266     22.4903
  1160.9000      8.0865      2.6128      0.0437      2.2547     76.2794     23.4260
  1161.0000      8.0869      2.5867      0.0009      3.8350     90.3115     24.5996
  1161.1000      8.0869      2.5533     -0.0246      5.8609    106.3061     25.4302
  1161.2000      8.0869      2.5310      0.0092      7.2116    117.3249     25.5132
  1161.3000      8.0875      2.5257      0.0082      7.5321    125.5999     25.1873
  1161.4000      8.0875      2.5393      0.0105      6.7103    132.9383     24.8694
  1161.5000      8.0872      2.5646      0.0192      5.1782    136.5371     24.8406
  1161.6000      8.0872      2.5827      0.0727      4.0795    137.0749     25.2167
  1161.7000      8.0872      2.5815      0.0435      4.1505    136.3291     25.9331
  1161.8000      8.0847      2.5670      0.0143      5.0314    135.7332     26.5361
  1161.9000      8.0847      2.5494      0.0388      6.0995    138.8604     26.5411
  1162.0000      8.0873      2.5364     -0.0017      6.8848    144.0319     26.2308
  1162.1000      8.0873      2.5317      0.0280      7.1677    146.3843     25.9603
  1162.2000      8.0873      2.5248      0.0084      7.5875    148.5725     25.8433
  1162.3000      8.0859      2.5052      0.0232      8.7761    153.7670     26.0708
  1162.4000      8.0859      2.4835     -0.0219     10.0915    159.8591     26.4860
  1162.5000      8.0859      2.4808     -0.0306     10.2524    164.3791     26.8838
  1162.6000      8.0859      2.4991      0.0229      9.1460    163.6935     27.4157
  1162.7000      8.0859      2.5243      0.0355      7.6179    160.5926     27.8871
  1162.8000      8.0871      2.5506      0.0516      6.0214    159.3757     27.8755
  1162.9000      8.0871      2.5780      0.0472      4.3608    156.1065     27.8222
  1163.0000      8.0852      2.6006      0.0822      2.9964    148.4194     28.2649
  1163.1000      8.0852      2.6145      0.1268      2.1510    141.4831     28.7072
  1163.2000      8.0852      2.6273      0.1290      1.3767    142.0173     28.8417
  1163.3000      8.0848      2.6462      0.1056      0.2333    148.1184     28.8557
  1163.4000      8.0848      2.6645      0.1102     -0.8762    150.0826     28.5054
  1163.5000      8.0860      2.6701      0.0810     -1.2209    145.0566     27.7052
  1163.6000      8.0860      2.6640      0.0559     -0.8462    142.5183     27.1333
  1163.7000      8.0860      2.6501      0.0598     -0.0033    146.5565     27.2190
  1163.8000      8.0863      2.6277      0.0071      1.3526    148.4414     27.5434
  1163.9000      8.0863      2.5978      0.0417      3.1652    142.6143     27.5506
  1164.0000      8.0855      2.5684     -0.0614      4.9441    131.2992     27.4144
  1164.1000      8.0855      2.5526     -0.0097      5.9026    121.7222     27.4591
  1164.2000      8.0855      2.5498     -0.0283      6.0729    121.8132     27.4415
  1164.3000      8.0838      2.5586     -0.0389      5.5404    127.2653     26.9506
  1164.4000      8.0838      2.5709      0.0315      4.7970    129.4201     26.1744
  1164.5000      8.0848      2.5591      0.0252      5.5104    129.5066     25.6104
  1164.6000      8.0848      2.5258     -0.0560      7.5285    132.2807     25.3285
  1164.7000      8.0848      2.5045     -0.0398      8.8158    138.7794     25.3434
  1164.8000      8.0852      2.5006     -0.0097      9.0544    145.2888     25.6833
  1164.9000      8.0852      2.4985     -0.0435      9.1802    143.9969     26.1437
  1165.0000      8.0841      2.4963     -0.0143      9.3156    136.6229     26.5509
  1165.1000      8.0841      2.4926      0.0249      9.5409    134.6128     26.9221
  1165.2000      8.0841      2.4883     -0.0432      9.8009    140.2586     27.3237
  1165.3000      8.0827      2.4962      0.0022      9.3238    146.6195     27.9524
  1165.4000      8.0827      2.5182     -0.0076      7.9855    149.4280     28.8423
  1165.5000      8.0841      2.5431     -0.0213      6.4799    150.5170     29.3170
  1165.6000      8.0841      2.5576      0.0380      5.5977    152.1040     28.8815
  1165.7000      8.0841      2.5580      0.0155      5.5767    149.1154     28.0134
  1165.8000      8.0870      2.5585     -0.0003      5.5484    140.9151     27.3184
  1165.9000      8.0870      2.5653      0.0618      5.1356    134.6922     27.0634
  1166.0000      8.0855      2.5620      0.0511      5.3326    131.2565     27.1054
  1166.1000      8.0855      2.5476     -0.0255      6.2060    124.1085     26.9302
  1166.2000      8.0855      2.5425     -0.0607      6.5134    114.5842     26.7784
  1166.3000      8.0824      2.5502     -0.0239      6.0506    111.7849     27.1178
  1166.4000      8.0824      2.5584      0.0031      5.5527    118.4472     27.3740
  1166.5000      8.0824      2.5630     -0.0025      5.2738    131.9432     26.9420
  1166.6000      8.0824      2.5652      0.0357      5.1368    144.0488     26.1199
  1166.7000      8.0824      2.5671      0.0594      5.0243    144.0255     25.4586
  1166.8000      8.0835      2.5772      0.0288      4.4106    133.1711     25.2188
  1166.9000      8.0835      2.6037      0.0567      2.8052    120.9987     25.0828
  1167.0000      8.0870      2.6365      0.0982      0.8155    111.9794     24.6729
  1167.1000      8.0870      2.6565      0.0744     -0.3936    108.2901     24.1352
  1167.2000      8.0870      2.6566      0.0228     -0.3990    107.5644     23.6156
  1167.3000      8.0820      2.6381      0.0750      0.7220    101.8026     23.1230
