~Version Information
VERS.                      2.0: CWLS Log ASCII Standard - VERSION 2.0
WRAP.                       NO: One line per depth step
~Well Information Block
STRT.FT               520.0000: 
STOP.FT              2555.2500: 
STEP.FT                 0.2500: 
NULL.                -999.2500: 
COMP.          Pioneer Natural Resources: COMPANY
WELL.          Horsefeathers 24-34: WELL
FLD.           Purgatoire River: FIELD
LOC.           183' FSL & 1570' FWL--: LOCATION
CNTY.               Las Animas: COUNTY
SRVC.                Patterson: SERVICE COMPANY
DATE.          Sun Feb 05 17:35:59 2006: LOG DATE
UWI.           05 071 08675 00: UNIQUE WELL ID
STAT.                 Colorado: STATE
~Curve Information Block
DEPT.FT            0 000 00 00: Depth
SN.Ohm-m                      : IEL Short Normal
SP.mV                         : IEL Spontaneous Potential
DIR.Ohm-m                     : IEL Induction Resistivity
GR.GAPI                       : Gamma Ray
~Parameter Information Block
NPORSHIFT.              0.0000: NPORSHIFT
~A  Depth        SN          SP         DIR          GR     
# ...
  1592.0000     24.2197    -17.1764     22.4658     71.8917
  1592.2500     24.2697    -16.7699     22.7333     71.4621
  1592.5000     24.3301    -16.3659     22.9757     71.3234
  1592.7500     24.3833    -15.9762     23.1636     71.4801
  1593.0000     24.4030    -15.6147     23.2720     71.6460
  1593.2500     24.3651    -15.2977     23.2871     71.4313
  1593.5000     24.2579    -15.0424     23.2106     70.6328
  1593.7500     24.0866    -14.8642     23.0600     70.1320
  1594.0000     23.8689    -14.7722     22.8640     70.1643
  1594.2500     23.6263    -14.7637     22.6562     70.9642
  1594.5000     23.3768    -14.8197     22.4676     73.3863
  1594.7500     23.1301    -14.9036     22.3182     75.7331
  1595.0000     22.8859    -14.9661     22.2091     80.1047
  1595.2500     22.6400    -14.9567     22.1216     83.2231
  1595.5000     22.3943    -14.8386     22.0290     86.9237
  1595.7500     22.1590    -14.6033     21.9158     87.8709
  1596.0000     21.9456    -14.2785     21.7887     86.4273
  1596.2500     21.7573    -13.9246     21.6686     84.0419
  1596.5000     21.5893    -13.6196     21.5727     80.0286
  1596.7500     21.4370    -13.4377     21.5024     78.0500
  1597.0000     21.3013    -13.4276     21.4462     77.1669
  1597.2500     21.1878    -13.5992     21.3912     78.0097
  1597.5000     21.1028    -13.9233     21.3350     80.6758
  1597.7500     21.0526    -14.3415     21.2901     82.9314
  1598.0000     21.0421    -14.7844     21.2800     86.9389
  1598.2500     21.0699    -15.1891     21.3285     90.1475
  1598.5000     21.1268    -15.5115     21.4485     95.0139
  1598.7500     21.2010    -15.7315     21.6335     97.0397
  1599.0000     21.2863    -15.8507     21.8560     96.0607
  1599.2500     21.3832    -15.8859     22.0753     92.5923
  1599.5000     21.4928    -15.8612     22.2498     85.5012
  1599.7500     21.6136    -15.8010     22.3532     81.4238
  1600.0000     21.7431    -15.7251     22.3842     78.2039
  1600.2500     21.8782    -15.6465     22.3648     77.9821
  1600.5000     22.0130    -15.5712     22.3286     79.6081
  1600.7500     22.1396    -15.4993     22.3054     81.4271
  1601.0000     22.2530    -15.4276     22.3111     84.2821
  1601.2500     22.3554    -15.3520     22.3475     85.7197
  1601.5000     22.4561    -15.2699     22.4106     86.8286
  1601.7500     22.5663    -15.1823     22.4997     87.1543
  1602.0000     22.6916    -15.0934     22.6197     87.6264
  1602.2500     22.8274    -15.0104     22.7740     87.9091
  1602.5000     22.9648    -14.9417     22.9555     87.8469
  1602.7500     23.1000    -14.8951     23.1440     87.4278
  1603.0000     23.2366    -14.8753     23.3155     86.5379
  1603.2500     23.3794    -14.8832     23.4564     85.8524
  1603.5000     23.5276    -14.9154     23.5707     84.4879
  1603.7500     23.6734    -14.9644     23.6726     83.2781
  1604.0000     23.8054    -15.0202     23.7729     81.2986
  1604.2500     23.9150    -15.0716     23.8697     80.3056
  1604.5000     24.0014    -15.1077     23.9541     80.3795
  1604.7500     24.0733    -15.1191     24.0239     81.9494
  1605.0000     24.1451    -15.0988     24.0896     86.3168
  1605.2500     24.2314    -15.0431     24.1649     89.8089
  1605.5000     24.3447    -14.9518     24.2519     94.6624
  1605.7500     24.4995    -14.8289     24.3385     97.3034
  1606.0000     24.7124    -14.6816     24.4135    100.0328
  1606.2500     24.9940    -14.5204     24.4843    100.6990
  1606.5000     25.3382    -14.3576     24.5793     99.4635
  1606.7500     25.7216    -14.2059     24.7328     97.2093
  1607.0000     26.1174    -14.0763     24.9659     92.4733
  1607.2500     26.5129    -13.9769     25.2771     88.9968
  1607.5000     26.9146    -13.9110     25.6469     84.0441
  1607.7500     27.3345    -13.8768     26.0512     81.2448
  1608.0000     27.7685    -13.8673     26.4744     78.4085
  1608.2500     28.1875    -13.8716     26.9101     77.6138
  1608.5000     28.5498    -13.8773     27.3488     77.4540
  1608.7500     28.8230    -13.8732     27.7680     77.2000
  1609.0000     28.9976    -13.8512     28.1371     75.5899
  1609.2500     29.0867    -13.8082     28.4320     74.0359
  1609.5000     29.1138    -13.7459     28.6434     72.8287
  1609.7500     29.0985    -13.6698     28.7700     73.5874
  1610.0000     29.0461    -13.5875     28.8068     76.7008
  1610.2500     28.9451    -13.5071     28.7420     79.2554
  1610.5000     28.7772    -13.4349     28.5658     82.8832
  1610.7500     28.5331    -13.3753     28.2817     85.1409
  1611.0000     28.2265    -13.3300     27.9095     88.2427
  1611.2500     27.8899    -13.2984     27.4780     89.7634
  1611.5000     27.5578    -13.2781     27.0164     90.5598
  1611.7500     27.2535    -13.2658     26.5510     90.2129
  1612.0000     26.9919    -13.2580     26.1067     89.5441
  1612.2500     26.7880    -13.2528     25.7057     89.6378
  1612.5000     26.6571    -13.2498     25.3622     90.2629
  1612.7500     26.6068    -13.2519     25.0792     89.9468
  1613.0000     26.6346    -13.2651     24.8532     86.6068
  1613.2500     26.7284    -13.2975     24.6799     82.4098
  1613.5000     26.8612    -13.3578     24.5505     74.9879
  1613.7500     26.9755    -13.4526     24.4375     70.7620
  1614.0000     26.9748    -13.5843     24.2828     67.2495
  1614.2500     26.7391    -13.7498     24.0038     67.1190
  1614.5000     26.1698    -13.9403     23.5233     70.0973
  1614.7500     25.2462    -14.1437     22.8084     74.0043
  1615.0000     24.0506    -14.3469     21.8920     82.4190
  1615.2500     22.7305    -14.5396     20.8573     89.5939
  1615.5000     21.4150    -14.7152     19.7983    102.8493
  1615.7500     20.1538    -14.8716     18.7864    113.5671
  1616.0000     18.9305    -15.0100     17.8612    131.8643
  1616.2500     17.7307    -15.1329     17.0400    144.0195
  1616.5000     16.5950    -15.2427     16.3285    158.4116
  1616.7500     15.6158    -15.3408     15.7270    163.8863
  1617.0000     14.8912    -15.4280     15.2332    165.9841
  1617.2500     14.4816    -15.5045     14.8445    164.6442
  1617.5000     14.3920    -15.5711     14.5603    161.1127
  1617.7500     14.5766    -15.6282     14.3825    158.6021
  1618.0000     14.9583    -15.6763     14.3133    154.9719
  1618.2500     15.4565    -15.7148     14.3515    152.7166
  1618.5000     16.0110    -15.7420     14.4890    149.8383
  1618.7500     16.5844    -15.7558     14.7088    148.3277
  1619.0000     17.1475    -15.7539     14.9861    146.6789
  1619.2500     17.6696    -15.7353     15.2925    146.1729
  1619.5000     18.1258    -15.7009     15.6033    146.9834
  1619.7500     18.5088    -15.6540     15.9041    148.7428
  1620.0000     18.8316    -15.6001     16.1939    152.0919
  1620.2500     19.1223    -15.5464     16.4832    153.3658
  1620.5000     19.4166    -15.5005     16.7890    151.7835
  1620.7500     19.7475    -15.4698     17.1316    148.3988
  1621.0000     20.1305    -15.4599     17.5333    141.5777
  1621.2500     20.5581    -15.4738     18.0186    136.8269
  1621.5000     21.0180    -15.5122     18.6092    129.6201
  1621.7500     21.5249    -15.5725     19.3206    124.4487
  1622.0000     22.1382    -15.6498     20.1592    116.4269
  1622.2500     22.9443    -15.7368     21.1202    111.7470
  1622.5000     24.0066    -15.8244     22.1810    107.0851
  1622.7500     25.3084    -15.9019     23.2926    105.6216
  1623.0000     26.7201    -15.9577     24.3791    105.0623
  1623.2500     28.0230    -15.9798     25.3549    105.3363
  1623.5000     28.9939    -15.9566     26.1486    106.4508
  1623.7500     29.5038    -15.8780     26.7190    107.5778
  1624.0000     29.5635    -15.7360     27.0529    109.5589
  1624.2500     29.2905    -15.5262     27.1567    111.0008
  1624.5000     28.8322    -15.2480     27.0513    113.6749
  1624.7500     28.3014    -14.9051     26.7720    116.0645
  1625.0000     27.7564    -14.5054     26.3657    120.4695
  1625.2500     27.2188    -14.0603     25.8862    123.5016
