~Version Information
VERS.                      2.0: CWLS Log ASCII Standard - VERSION 2.0
WRAP.                       NO: One line per depth step
~Well Information Block
STRT.FT               525.0000: 
STOP.FT              2377.2500: 
STEP.FT                 0.2500: 
NULL.                -999.2500: 
COMP.          Pioneer Natural Resources: COMPANY
WELL.          Sparrowhawk 22-12: WELL
FLD.           Purgatoire River: FIELD
LOC.           2049' FNL & 2060' FWL--: LOCATION
CNTY.               Las Animas: COUNTY
SRVC.                Patterson: SERVICE COMPANY
DATE.          Thu Mar 23 10:52:44 2006: LOG DATE
UWI.           05 071 08484 00: UNIQUE WELL ID
STAT.                 Colorado: STATE
~Curve Information Block
DEPT.FT            0 000 00 00: Depth
SN.Ohm-m                      : IEL Short Normal
SP.mV                         : IEL Spontaneous Potential
DIR.Ohm-m                     : IEL Induction Resistivity
GR.GAPI                       : Gamma Ray
~Parameter Information Block
~A  Depth        SN          SP         DIR          GR     
# ...
  1597.0000      9.2085     70.4203      8.2443    121.4624
  1597.2500      8.7837     70.3945      7.9208    122.3956
  1597.5000      8.4093     70.3819      7.6450    123.8916
  1597.7500      8.0952     70.3780      7.4082    124.6953
  1598.0000      7.8455     70.3785      7.2010    125.3883
  1598.2500      7.6591     70.3799      7.0162    125.7103
  1598.5000      7.5307     70.3796      6.8511    126.2052
  1598.7500      7.4532     70.3760      6.7090    126.3259
  1599.0000      7.4233     70.3682      6.5980    125.8175
  1599.2500      7.4426     70.3549      6.5297    125.1592
  1599.5000      7.5145     70.3350      6.5160    124.1538
  1599.7500      7.6410     70.3073      6.5678    123.4317
  1600.0000      7.8226     70.2710      6.6928    121.6427
  1600.2500      8.0604     70.2270      6.8949    119.6340
  1600.5000      8.3591     70.1776      7.1746    115.1400
  1600.7500      8.7360     70.1268      7.5308    111.0150
  1601.0000      9.2394     70.0794      7.9645    102.8272
  1601.2500      9.9636     70.0396      8.4826     96.1705
  1601.5000     11.0391     70.0100      9.1002     85.6683
  1601.7500     12.5793     69.9902      9.8400     79.3722
  1602.0000     14.5998     69.9772     10.7266     72.1161
  1602.2500     16.9625     69.9662     11.7764     68.6752
  1602.5000     19.4009     69.9525     12.9827     64.7750
  1602.7500     21.6173     69.9325     14.2989     62.7564
  1603.0000     23.3873     69.9051     15.6321     61.3430
  1603.2500     24.6125     69.8719     16.8590     62.4097
  1603.5000     25.3088     69.8366     17.8647     68.2413
  1603.7500     25.5549     69.8033     18.5834     74.8851
  1604.0000     25.4417     69.7763     19.0127     87.3213
  1604.2500     25.0481     69.7582     19.1991     95.6186
  1604.5000     24.4441     69.7510     19.2104    105.2455
  1604.7500     23.7036     69.7552     19.1130    108.9679
  1605.0000     22.9085     69.7712     18.9603    111.0984
  1605.2500     22.1422     69.7993     18.7899    111.0850
  1605.5000     21.4736     69.8397     18.6271    109.8379
  1605.7500     20.9448     69.8918     18.4892    108.3981
  1606.0000     20.5667     69.9543     18.3899    105.9717
  1606.2500     20.3237     70.0244     18.3392    104.7615
  1606.5000     20.1844     70.0979     18.3417    104.1572
  1606.7500     20.1132     70.1703     18.3951    104.4636
  1607.0000     20.0785     70.2370     18.4906    105.3895
  1607.2500     20.0574     70.2944     18.6132    105.9723
  1607.5000     20.0363     70.3399     18.7393    106.3827
  1607.7500     20.0079     70.3723     18.8351    106.1681
  1608.0000     19.9676     70.3911     18.8644    104.9255
  1608.2500     19.9125     70.3961     18.8052    103.6576
  1608.5000     19.8441     70.3876     18.6639    102.0824
  1608.7500     19.7730     70.3664     18.4722    101.7670
  1609.0000     19.7183     70.3332     18.2670    102.1007
  1609.2500     19.6963     70.2890     18.0710    102.2243
  1609.5000     19.7045     70.2348     17.8853    101.8403
  1609.7500     19.7132     70.1711     17.6964    101.5693
  1610.0000     19.6759     70.0981     17.4872    101.8287
  1610.2500     19.5505     70.0155     17.2432    102.4790
  1610.5000     19.3132     69.9233     16.9544    103.9048
  1610.7500     18.9608     69.8223     16.6129    105.1184
  1611.0000     18.5086     69.7147     16.2149    107.6199
  1611.2500     17.9883     69.6044     15.7638    110.0349
  1611.5000     17.4410     69.4970     15.2736    115.1808
  1611.7500     16.9058     69.3986     14.7690    119.5403
  1612.0000     16.4079     69.3157     14.2812    126.6143
  1612.2500     15.9553     69.2540     13.8425    131.0517
  1612.5000     15.5506     69.2182     13.4813    136.6659
  1612.7500     15.2088     69.2114     13.2204    139.6044
  1613.0000     14.9688     69.2360     13.0757    142.3484
  1613.2500     14.8940     69.2942     13.0582    142.4719
  1613.5000     15.0695     69.3893     13.1767    139.0366
  1613.7500     15.6012     69.5260     13.4407    133.9697
  1614.0000     16.6097     69.7090     13.8638    121.9111
  1614.2500     18.2135     69.9403     14.4648    110.9525
  1614.5000     20.5106     70.2157     15.2674     91.3669
  1614.7500     23.5643     70.5211     16.2999     77.8114
  1615.0000     27.3776     70.8309     17.5933     59.9815
  1615.2500     31.8232     71.1109     19.1750     51.0715
  1615.5000     36.5485     71.3234     21.0510     42.6764
  1615.7500     40.9583     71.4356     23.1703     39.9843
  1616.0000     44.3766     71.4276     25.3808     39.3196
  1616.2500     46.3234     71.2966     27.4104     40.5987
  1616.5000     46.7041     71.0576     28.9249     44.2411
  1616.7500     45.7857     70.7392     29.6721     47.4476
  1617.0000     44.0297     70.3772     29.6160     53.5092
  1617.2500     41.9122     70.0075     28.9419     58.9362
  1617.5000     39.7922     69.6605     27.9398     70.3162
  1617.7500     37.8511     69.3582     26.8783     80.1591
  1618.0000     36.1125     69.1138     25.9438     96.2980
  1618.2500     34.5295     68.9324     25.2360    105.5758
  1618.5000     33.0773     68.8136     24.7854    113.1061
  1618.7500     31.7937     68.7522     24.5716    112.9238
  1619.0000     30.7496     68.7407     24.5418    106.8146
  1619.2500     29.9914     68.7696     24.6351    101.1845
  1619.5000     29.5084     68.8291     24.8059     93.6407
  1619.7500     29.2452     68.9095     25.0329     89.7512
  1620.0000     29.1320     69.0022     25.3003     84.7794
  1620.2500     29.1075     69.1008     25.5705     81.5608
  1620.5000     29.1298     69.2007     25.7752     77.4901
  1620.7500     29.1756     69.2996     25.8427     76.2779
  1621.0000     29.2275     69.3967     25.7353     78.0366
  1621.2500     29.2492     69.4916     25.4591     81.5076
  1621.5000     29.1651     69.5835     25.0383     88.4481
  1621.7500     28.8728     69.6702     24.4869     92.8020
  1622.0000     28.2928     69.7479     23.8097     96.9468
  1622.2500     27.4245     69.8114     23.0256     97.6651
  1622.5000     26.3607     69.8554     22.1818     96.1697
  1622.7500     25.2448     69.8749     21.3426     94.2646
  1623.0000     24.1997     69.8670     20.5619     91.6844
  1623.2500     23.2739     69.8310     19.8614     90.8862
  1623.5000     22.4381     69.7685     19.2276     91.5405
  1623.7500     21.6292     69.6832     18.6254     93.0915
  1624.0000     20.8046     69.5800     18.0205     96.7417
  1624.2500     19.9671     69.4647     17.3967    100.1386
  1624.5000     19.1521     69.3429     16.7591    107.4454
  1624.7500     18.3968     69.2191     16.1247    114.0497
  1625.0000     17.7205     69.0953     15.5106    125.2174
  1625.2500     17.1247     68.9696     14.9288    131.6723
  1625.5000     16.6030     68.8352     14.3888    136.9342
  1625.7500     16.1504     68.6809     13.9017    137.0910
  1626.0000     15.7716     68.4924     13.4825    134.1622
  1626.2500     15.4852     68.2564     13.1491    131.8807
  1626.5000     15.3213     67.9680     12.9217    130.2612
  1626.7500     15.3081     67.6368     12.8217    130.6125
  1627.0000     15.4605     67.2932     12.8688    131.8320
  1627.2500     15.7792     66.9900     13.0764    131.8065
  1627.5000     16.2615     66.7973     13.4468    128.6742
  1627.7500     16.9122     66.7907     13.9693    123.9387
  1628.0000     17.7492     67.0346     14.6240    112.9535
  1628.2500     18.8101     67.5637     15.3902    103.8291
  1628.5000     20.1602     68.3703     16.2539     89.6257
  1628.7500     21.8846     69.4006     17.2106     81.0244
  1629.0000     24.0392     70.5629     18.2582     70.6954
  1629.2500     26.5716     71.7456     19.3819     65.7793
  1629.5000     29.2735     72.8388     20.5384     61.1999
  1629.7500     31.8198     73.7547     21.6481     59.7618
  1630.0000     33.8725     74.4379     22.6013     59.6840
  1630.2500     35.1690     74.8679     23.2765     60.7787
