~Version Information
VERS.                      2.0: CWLS Log ASCII Standard - VERSION 2.0
WRAP.                       NO: One line per depth step
~Well Information Block
STRT.FT               645.0000: 
STOP.FT              2133.5000: 
STEP.FT                 0.2500: 
NULL.                -999.2500: 
COMP.          Pioneer Natural Resources: COMPANY
WELL.          Gunslinger 13-24: WELL
FLD.           Purgatoire River: FIELD
LOC.           1968' FSL & 633' FWL: LOCATION
PROV.                 Colorado: PROVINCE
CNTY.               Las Animas: COUNTRY
SRVC.                Patterson: SERVICE COMPANY
DATE.          Fri Jul 29 15:04:35 2005: LOG DATE
UWI.           05 071 08442 00: UNIQUE WELL ID
~Curve Information Block
DEPT.FT            0 000 00 00: Depth
SN.Ohm-m                      : IEL Short Normal
SP.mV                         : IEL Spontaneous Potential
DIR.Ohm-m                     : IEL Induction Resistivity
GR.GAPI                       : Gamma Ray
~Parameter Information Block
~A  Depth        SN          SP         DIR          GR     
# ...
  1784.0000     22.1001     75.9809     20.5923     48.1508
  1784.2500     21.8937     75.9471     20.4465     49.9115
  1784.5000     21.7831     75.9048     20.3047     53.2995
  1784.7500     21.7747     75.8619     20.1616     55.3354
  1785.0000     21.7673     75.8285     19.9814     57.1637
  1785.2500     21.6711     75.8167     19.6990     57.6679
  1785.5000     21.5046     75.8357     19.2482     58.2858
  1785.7500     21.3210     75.8866     18.6014     59.1034
  1786.0000     21.0895     75.9561     17.7915     61.3737
  1786.2500     20.6627     76.0180     16.8980     63.8555
  1786.5000     19.8973     76.0472     16.0083     70.0139
  1786.7500     18.7990     76.0359     15.1878     76.4217
  1787.0000     17.5059     75.9964     14.4703     89.7599
  1787.2500     16.2003     75.9470     13.8651    100.3980
  1787.5000     15.0468     75.8961     13.3662    116.6378
  1787.7500     14.1317     75.8366     12.9568    126.2848
  1788.0000     13.4414     75.7558     12.6108    137.3428
  1788.2500     12.9081     75.6492     12.2962    141.9542
  1788.5000     12.4826     75.5246     11.9841    144.8849
  1788.7500     12.1569     75.3956     11.6588    144.8946
  1789.0000     11.9253     75.2730     11.3217    143.4026
  1789.2500     11.7660     75.1638     10.9868    141.6098
  1789.5000     11.6532     75.0755     10.6725    137.2297
  1789.7500     11.5679     75.0178     10.3952    133.3502
  1790.0000     11.5177     74.9983     10.1663    127.9421
  1790.2500     11.5473     75.0155      9.9920    125.8390
  1790.5000     11.6488     75.0578      9.8732    125.5819
  1790.7500     11.6935     75.1127      9.8035    126.8156
  1791.0000     11.6027     75.1780      9.7673    129.4778
  1791.2500     11.4792     75.2640      9.7422    131.2904
  1791.5000     11.4425     75.3825      9.7071    133.5891
  1791.7500     11.4694     75.5362      9.6526    134.5757
  1792.0000     11.4514     75.7174      9.5834    134.7825
  1792.2500     11.3346     75.9169      9.5121    133.9762
  1792.5000     11.1799     76.1275      9.4511    131.6713
  1792.7500     11.0586     76.3369      9.4092    129.8293
  1793.0000     10.9360     76.5150      9.3935    127.4645
  1793.2500     10.7838     76.6210      9.4124    126.5014
  1793.5000     10.6953     76.6337      9.4741    125.9826
  1793.7500     10.7676     76.5843      9.5847    125.9092
  1794.0000     10.9914     76.5557      9.7469    125.5241
  1794.2500     11.2900     76.6397      9.9627    124.9495
  1794.5000     11.5994     76.8859     10.2362    123.7489
  1794.7500     11.9321     77.2800     10.5754    122.6816
  1795.0000     12.3366     77.7625     10.9889    120.1730
  1795.2500     12.8019     78.2654     11.4809    117.5828
  1795.5000     13.3106     78.7443     12.0478    112.0915
  1795.7500     13.9543     79.1873     12.6805    107.3781
  1796.0000     14.8588     79.5901     13.3680     99.0193
  1796.2500     16.0195     79.9067     14.0989     92.9931
  1796.5000     17.3109     80.0246     14.8584     84.4351
  1796.7500     18.6447     79.8051     15.6246     79.9091
  1797.0000     20.0241     79.1722     16.3683     76.1049
  1797.2500     21.4276     78.1733     17.0577     75.6894
  1797.5000     22.7110     76.9612     17.6657     77.3168
  1797.7500     23.6220     75.7215     18.1743     79.2083
  1798.0000     23.9152     74.6100     18.5764     82.7585
  1798.2500     23.5357     73.7249     18.8740     85.5997
  1798.5000     22.6874     73.1006     19.0781     90.2500
  1798.7500     21.6998     72.7124     19.2084     93.1965
  1799.0000     20.8618     72.4973     19.2885     96.8986
  1799.2500     20.3276     72.3841     19.3353     98.8871
  1799.5000     20.0967     72.3184     19.3524    101.4107
  1799.7500     20.0690     72.2756     19.3331    102.9321
  1800.0000     20.1341     72.2579     19.2745    105.0357
  1800.2500     20.2422     72.2782     19.1917    106.2431
  1800.5000     20.4039     72.3394     19.1183    107.7225
  1800.7500     20.6464     72.4237     19.0927    108.5824
  1801.0000     20.9874     72.4951     19.1430    109.5628
  1801.2500     21.4138     72.5117     19.2785    109.4918
  1801.5000     21.8979     72.4434     19.4864    107.1709
  1801.7500     22.4419     72.2854     19.7323    104.1097
  1802.0000     23.0465     72.0616     19.9649     98.8837
  1802.2500     23.6475     71.8127     20.1334     96.2212
  1802.5000     24.1766     71.5791     20.2108     94.1160
  1802.7500     24.6430     71.3862     20.2092     93.3661
  1803.0000     25.0475     71.2344     20.1691     92.2840
  1803.2500     25.3134     71.0951     20.1313     91.8604
  1803.5000     25.3880     70.9165     20.1108     92.8024
  1803.7500     25.3082     70.6477     20.0902     94.6002
  1804.0000     25.1469     70.2734     20.0331     97.7749
  1804.2500     24.9068     69.8388     19.9108     99.1729
  1804.5000     24.4478     69.4440     19.7207     99.3556
  1804.7500     23.6841     69.2069     19.4850     98.6143
  1805.0000     22.8283     69.2104     19.2320     97.8764
  1805.2500     22.1601     69.4637     18.9766     98.4480
  1805.5000     21.6505     69.9005     18.7162    101.1087
  1805.7500     21.0655     70.4091     18.4423    103.6013
  1806.0000     20.3210     70.8617     18.1559    107.2397
  1806.2500     19.5912     71.1236     17.8718    109.0294
  1806.5000     19.1002     71.0545     17.6096    110.4953
  1806.7500     18.9120     70.5301     17.3810    111.0048
  1807.0000     18.9557     69.4864     17.1855    111.8188
  1807.2500     19.1043     67.9678     17.0163    112.4725
  1807.5000     19.1992     66.1480     16.8671    113.2042
  1807.7500     19.1269     64.3024     16.7383    113.3507
  1808.0000     18.9141     62.7272     16.6399    113.1474
  1808.2500     18.7126     61.6348     16.5927    112.8606
  1808.5000     18.6154     61.0828     16.6235    112.2909
  1808.7500     18.5549     60.9815     16.7524    111.8317
  1809.0000     18.4491     61.1663     16.9807    111.3460
  1809.2500     18.3019     61.4833     17.2870    111.5218
  1809.5000     18.1653     61.8428     17.6372    112.7702
  1809.7500     18.1574     62.2303     18.0031    113.7639
  1810.0000     18.4432     62.6787     18.3787    113.7407
  1810.2500     19.0922     63.2230     18.7827    111.7843
  1810.5000     20.0446     63.8663     19.2447    105.5996
  1810.7500     21.2252     64.5813     19.7826     99.8883
  1811.0000     22.6238     65.3366     20.3875     90.4374
  1811.2500     24.2874     66.1179     21.0296     84.2943
  1811.5000     26.2528     66.9253     21.6805     76.1549
  1811.7500     28.5213     67.7557     22.3350     71.6658
  1812.0000     31.0948     68.5885     23.0111     66.2930
  1812.2500     33.8485     69.3907     23.7287     63.5588
  1812.5000     36.3412     70.1343     24.4843     61.0567
  1812.7500     38.0907     70.8042     25.2435     60.8287
  1813.0000     39.0099     71.3901     25.9543     62.7421
  1813.2500     39.2705     71.8776     26.5678     64.8851
  1813.5000     38.9421     72.2559     27.0472     67.4271
  1813.7500     38.0410     72.5333     27.3585     67.6279
  1814.0000     36.7780     72.7407     27.4658     65.1369
  1814.2500     35.5538     72.9188     27.3469     62.0986
  1814.5000     34.6788     73.0996     27.0155     56.9694
  1814.7500     34.1589     73.2970     26.5230     54.0035
  1815.0000     33.8049     73.5115     25.9327     51.3604
  1815.2500     33.4299     73.7409     25.2927     51.3180
  1815.5000     32.8603     73.9843     24.6322     54.3302
  1815.7500     31.9193     74.2377     23.9783     58.3156
  1816.0000     30.5454     74.4916     23.3732     66.5425
  1816.2500     28.8781     74.7370     22.8657     72.9265
  1816.5000     27.1802     74.9734     22.4832     82.7856
  1816.7500     25.6991     75.2085     22.2083     88.9491
  1817.0000     24.5807     75.4509     21.9865     96.4699
  1817.2500     23.8612     75.7047     21.7625     99.6528
