~Version Information
VERS.                      2.0: CWLS Log ASCII Standard - VERSION 2.0
WRAP.                       NO: One line per depth step
~Well Information Block
STRT.FT               330.0000: 
STOP.FT              1923.5000: 
STEP.FT                 0.1000: 
NULL.                -999.2500: 
COMP.          Pioneer Natural Resources: COMPANY
WELL.          State Wildlife 32-16 Tr: WELL
FLD.           Purgatoire River: FIELD
LOC.           1838' FNL & 1850' FEL: LOCATION
STAT.                 Colorado: State
CNTY.               Las Animas: COUNTY
CTRY. USA : Country
SECT. 16 : Section
TOWN. 32S : Township
RANG. 66W : Range
SRVC.                Patterson: SERVICE COMPANY
DATE.          Mon Nov 14 07:20:48 2005: LOG DATE
API.           05 071 08568 00: UNIQUE WELL ID
~Curve Information Block
DEPT.FT            0 000 00 00: Depth
DCAL.in                       : CDL Caliper
RHOB.g/cc                     : CDL Bulk Density
RHOC.g/cc                     : CDL Density Correction
DPOR.pu                       : CDL Density Porosity
GR.GAPI                       : Gamma Ray
NPOR.pu                       : Neutron Porosity
~Parameter Information Block
~A  Depth       DCAL        RHOB        RHOC        DPOR         GR         NPOR    
# ...
   963.6000      7.9781      2.6359      0.1181      0.8520    122.7059     25.2716
   963.7000      7.9781      2.6481      0.1363      0.1148    131.8592     26.1527
   963.8000      7.9726      2.6485      0.1424      0.0930    136.8019     27.1600
   963.9000      7.9726      2.6480      0.1310      0.1217    137.3561     27.9032
   964.0000      7.9650      2.6587      0.0955     -0.5263    137.7875     28.1599
   964.1000      7.9650      2.6776      0.1447     -1.6716    138.9315     28.1575
   964.2000      7.9650      2.6828      0.1291     -1.9850    139.0358     28.3688
   964.3000      7.9768      2.6623      0.1048     -0.7484    138.8195     28.7343
   964.4000      7.9768      2.6282      0.0569      1.3194    137.8752     28.9994
   964.5000      7.9795      2.6039      0.0101      2.7949    134.6632     29.1543
   964.6000      7.9795      2.6028      0.0477      2.8612    131.3060     29.1665
   964.7000      7.9795      2.6165      0.1012      2.0306    130.7473     28.7877
   964.8000      7.9830      2.6289      0.1404      1.2771    132.0606     27.8955
   964.9000      7.9830      2.6375      0.0739      0.7559    132.6976     27.0432
   965.0000      7.9823      2.6482      0.1209      0.1075    132.4343     26.8141
   965.1000      7.9823      2.6497      0.1105      0.0189    132.6846     26.7823
   965.2000      7.9823      2.6332      0.0884      1.0177    131.6481     26.1581
   965.3000      7.9917      2.6172      0.0824      1.9893    126.7022     25.4107
   965.4000      7.9917      2.6175      0.0629      1.9695    121.5693     25.6212
   965.5000      7.9791      2.6248      0.0645      1.5249    118.5674     26.4217
   965.6000      7.9791      2.6231      0.1161      1.6298    116.0437     26.6265
   965.7000      7.9791      2.6084      0.0502      2.5183    116.4470     26.2356
   965.8000      7.9874      2.5907      0.0574      3.5914    122.2349     26.0160
   965.9000      7.9874      2.5770      0.0492      4.4242    130.2026     26.0473
   966.0000      7.9858      2.5610      0.0299      5.3933    136.0690     25.8531
   966.1000      7.9858      2.5387      0.0308      6.7477    137.1932     25.6848
   966.2000      7.9858      2.5212     -0.0050      7.8050    134.3800     25.9449
   966.3000      7.9884      2.5254     -0.0308      7.5536    132.7831     26.0321
   966.4000      7.9884      2.5450      0.0110      6.3633    134.5444     25.6609
   966.5000      7.9946      2.5538      0.0481      5.8288    137.7905     25.4593
   966.6000      7.9946      2.5531     -0.0014      5.8754    140.6116     25.7049
   966.7000      7.9946      2.5690      0.0566      4.9101    142.7060     26.2659
   966.8000      7.9816      2.5977      0.1107      3.1676    143.4872     27.0965
   966.9000      7.9816      2.6085      0.0926      2.5122    141.4321     27.9156
   967.0000      7.9902      2.5946      0.1081      3.3600    138.8394     28.3828
   967.1000      7.9902      2.5851      0.0564      3.9345    138.7321     28.3263
   967.2000      7.9902      2.5991      0.1043      3.0844    139.8369     27.8188
   967.3000      7.9829      2.6209      0.0907      1.7613    139.2010     27.3475
   967.4000      7.9829      2.6404      0.0648      0.5805    136.3996     27.1403
   967.5000      7.9790      2.6581      0.0610     -0.4902    135.8766     27.0229
   967.6000      7.9790      2.6673      0.0768     -1.0510    140.0928     26.8683
   967.7000      7.9790      2.6741      0.0799     -1.4620    143.2684     26.8788
   967.8000      7.9759      2.6884      0.1259     -2.3274    141.8743     27.2345
   967.9000      7.9759      2.7057      0.1285     -3.3735    141.6584     27.6008
   968.0000      7.9760      2.7205      0.1295     -4.2725    144.6460     27.7756
   968.1000      7.9760      2.7306      0.1557     -4.8855    145.6287     27.9224
   968.2000      7.9760      2.7253      0.1638     -4.5612    145.9486     27.9778
   968.3000      7.9775      2.6908      0.1201     -2.4703    148.0413     28.0129
   968.4000      7.9775      2.6352      0.0480      0.8946    149.9136     28.2286
   968.5000      7.9882      2.5821      0.0581      4.1175    150.4014     28.4525
   968.6000      7.9882      2.5483     -0.0085      6.1644    150.7115     28.4470
   968.7000      7.9882      2.5422     -0.0104      6.5318    149.5202     28.2731
   968.8000      7.9884      2.5503      0.0315      6.0419    144.9203     28.0956
   968.9000      7.9884      2.5532      0.0277      5.8658    139.6123     27.7873
   969.0000      7.9963      2.5547      0.0416      5.7732    138.1662     27.1710
   969.1000      7.9963      2.5668      0.0370      5.0434    141.9055     26.6081
   969.2000      7.9963      2.5876      0.0954      3.7825    145.5552     26.4044
   969.3000      7.9996      2.6006      0.1151      2.9922    140.8633     26.4287
   969.4000      7.9996      2.5973      0.0861      3.1921    128.3247     26.4143
   969.5000      8.0007      2.5887      0.1076      3.7165    116.6952     26.1329
   969.6000      8.0007      2.5876      0.1208      3.7815    111.0439     25.8983
   969.7000      8.0007      2.6085      0.0596      2.5176    111.1312     26.2036
   969.8000      7.9692      2.6566      0.1243     -0.4020    113.9139     26.9906
   969.9000      7.9692      2.7102      0.1296     -3.6474    114.7286     27.7393
   970.0000      7.9581      2.7505      0.1287     -6.0937    114.7816     27.9610
   970.1000      7.9581      2.7766      0.1918     -7.6727    119.7266     27.6655
   970.2000      7.9581      2.7869      0.2228     -8.2974    126.1584     27.4218
   970.3000      7.9525      2.7901      0.1647     -8.4889    128.0425     27.6320
   970.4000      7.9525      2.7955      0.1730     -8.8176    128.2128     28.0126
   970.5000      7.9521      2.7894      0.1076     -8.4480    127.9933     28.0925
   970.6000      7.9521      2.7636      0.0522     -6.8842    124.8921     27.8877
   970.7000      7.9521      2.7338      0.0290     -5.0816    119.3247     27.6642
   970.8000      7.9550      2.7148      0.0702     -3.9249    114.2566     27.3525
   970.9000      7.9550      2.7031      0.1031     -3.2166    111.8060     26.8468
   971.0000      7.9589      2.6904      0.1032     -2.4497    111.2230     26.1544
   971.1000      7.9589      2.6755      0.1052     -1.5484    111.8289     25.3919
   971.2000      7.9589      2.6579      0.0864     -0.4759    115.5723     25.0650
   971.3000      7.9573      2.6349      0.0704      0.9121    118.9664     25.4873
   971.4000      7.9573      2.6108     -0.0012      2.3740    117.2119     26.0574
   971.5000      7.9569      2.5914      0.0274      3.5488    115.5150     26.3964
   971.6000      7.9569      2.5754      0.0668      4.5197    117.3217     26.6616
   971.7000      7.9569      2.5585      0.0685      5.5448    119.0801     26.8947
   971.8000      7.9728      2.5414      0.0462      6.5842    119.7882     27.0015
   971.9000      7.9728      2.5294      0.0343      7.3081    121.1713     26.6365
   972.0000      8.0227      2.5297      0.0221      7.2923    121.9030     25.8136
   972.1000      8.0227      2.5456      0.0356      6.3255    120.7504     25.1086
   972.2000      8.0227      2.5650      0.0753      5.1517    119.6094     24.6116
   972.3000      8.0039      2.5773      0.0435      4.4038    117.0372     24.0200
   972.4000      8.0039      2.5964      0.0452      3.2505    109.7452     23.4658
   972.5000      8.0098      2.6286      0.0952      1.2996    102.0201     23.2889
   972.6000      8.0098      2.6565      0.1159     -0.3937     99.5529     23.3078
   972.7000      8.0098      2.6634      0.1073     -0.8149    100.3511     23.1770
   972.8000      7.9879      2.6521      0.0880     -0.1248    102.8873     23.1174
   972.9000      7.9879      2.6346      0.0560      0.9313    107.6476     23.6959
   973.0000      7.9895      2.6119      0.0956      2.3066    113.8127     24.7466
   973.1000      7.9895      2.5872      0.0037      3.8054    119.7318     25.0752
