~Version Information
 VERS.                                  2.0 : CWLS LAS VERSION
 WRAP.                                   NO : WRAPING MODE
 SWARE .                 MController 2.5.0J : SOFTWARE VERSION
~Well Information
 WELL.                     DAYTONA 31-14 TR : WELL
 COMP.    PIONEER NATURAL RESOURCES USA INC : COMPANY
 FLD.                      PURGATOIRE RIVER : FIELD
 LOC.                NW/NE SEC 14 T33S R67W : LOCATION
 DATE.                             01/27/06 : DATE(S) LOGGED
 SRVC.       BLANCO GEOLOGICAL SERVICES LLC : SERVICE COMPANY
 STAT.                             COLORADO : STATE
 CNTY.                           LAS ANIMAS : COUNTY
 CTRY.                                  USA : COUNTRY
 API.                       05-071-08681-00 : API NUMBER
 STRT.FT                             385.00 : START DEPTH
 STOP.FT                            1587.00 : STOP DEPTH
 STEP.FT                               1.00 : DEPTH INCREMENT
 NULL.                                -9999 : NULL VALUE
~Curve information
 DEPTH.FT                                   :
 ROP.MIN/FT                                 :
 GAS.UNITS                                  :
~ASCII Log data
# ...
      1185.0         0.23          3.2 
      1186.0         0.17          1.9 
      1187.0         0.17          0.6 
      1188.0         0.17          1.1 
      1189.0         0.18          0.9 
      1190.0         0.17          0.6 
      1191.0         0.20          0.5 
      1192.0         0.17          0.5 
      1193.0         0.20          0.6 
      1194.0         0.40          0.8 
      1195.0         0.37          0.8 
      1196.0         2.08          2.2 
      1197.0         0.33          0.7 
      1198.0         0.33          4.2 
      1199.0         0.27          7.8 
      1200.0         0.23         13.3 
      1201.0         0.23         10.6 
      1202.0         0.20          6.7 
      1203.0         0.23          6.8 
      1204.0         0.20          9.8 
      1205.0         0.27          9.8 
      1206.0         0.23          6.5 
      1207.0         0.17          7.6 
      1208.0         0.17          6.5 
      1209.0         0.13          7.3 
      1210.0         0.15          8.3 
      1211.0         0.13          5.7 
      1212.0         0.13          5.4 
      1213.0         0.20          4.9 
      1214.0         0.23          6.1 
      1215.0         0.10          4.5 
      1216.0         0.17          2.5 
      1217.0         0.13          0.1 
      1218.0         0.17          0.0 
      1219.0         0.20          0.1 
      1220.0         0.27          0.3 
      1221.0         0.17          0.6 
      1222.0         0.17          0.1 
      1223.0         0.17          0.5 
      1224.0         0.17          0.6 
      1225.0         0.20          0.6 
      1226.0         2.28         17.1 
      1227.0         0.20          7.0 
      1228.0         0.27          0.2 
      1229.0         0.20          0.7 
      1230.0         0.13          1.8 
      1231.0         0.23          5.5 
      1232.0         0.20          9.4 
      1233.0         0.17         10.4 
      1234.0         0.20         19.5 
      1235.0         0.22         16.1 
      1236.0         0.20         10.3 
      1237.0         0.23         10.2 
      1238.0         0.27          4.9 
      1239.0         0.30          6.2 
      1240.0         0.23          6.2 
      1241.0         0.27          4.7 
      1242.0         0.27          4.0 
      1243.0         0.23          2.0 
      1244.0         0.23          4.3 
      1245.0         0.23          2.6 
      1246.0         0.20          3.0 
      1247.0         0.20          4.5 
      1248.0         0.23          4.6 
      1249.0         0.28          0.0 
      1250.0         0.33          0.0 
      1251.0         0.23          0.1 
      1252.0         0.17          0.2 
      1253.0         0.13          0.3 
      1254.0         0.17          0.3 
      1255.0         0.17          0.2 
      1256.0         2.15          4.2 
      1257.0         0.43          6.3 
      1258.0         0.40          3.2 
      1259.0         0.27          1.5 
      1260.0         0.33          2.4 
      1261.0         0.30          4.8 
      1262.0         0.17          4.8 
      1263.0         0.13          3.6 
      1264.0         0.13          3.2 
      1265.0         0.13          2.7 
      1266.0         0.13          2.1 
      1267.0         0.20          1.4 
      1268.0         0.27          1.1 
      1269.0         0.25          2.0 
      1270.0         0.23          2.7 
      1271.0         0.23          2.1 
      1272.0         0.23          2.9 
      1273.0         0.23          4.8 
      1274.0         0.20          4.4 
      1275.0         0.23          3.2 
      1276.0         0.23          3.2 
      1277.0         0.23          1.1 
      1278.0         0.23          2.6 
      1279.0         0.23          2.9 
      1280.0         0.20          1.3 
      1281.0         0.23          0.5 
      1282.0         0.23          0.4 
      1283.0         0.23          0.7 
      1284.0         0.22          0.6 
      1285.0         0.23          0.9 
      1286.0         0.17          0.7 
      1287.0         4.58         15.4 
      1288.0         0.33          8.5 
      1289.0         0.30         25.9 
      1290.0         0.33         16.0 
      1291.0         0.30         18.9 
      1292.0         0.28         17.4 
      1293.0         0.27         15.3 
      1294.0         0.27         10.7 
      1295.0         0.27         26.5 
      1296.0         0.23         25.6 
      1297.0         0.27         16.8 
      1298.0         0.23         12.0 
      1299.0         0.20         10.9 
      1300.0         0.23          7.3 
      1301.0         0.23          7.6 
      1302.0         0.27          4.6 
      1303.0         0.20          5.1 
      1304.0         0.27          4.7 
      1305.0         0.27          3.5 
      1306.0         0.28          3.9 
      1307.0         0.27          3.2 
      1308.0         0.33          3.2 
      1309.0         0.33          2.7 
      1310.0         0.27          3.1 
      1311.0         0.27          4.6 
      1312.0         0.23          2.9 
      1313.0         0.23          1.3 
      1314.0         0.27          1.5 
      1315.0         0.23          1.6 
      1316.0         0.23          1.4 
      1317.0         3.15          6.1 
      1318.0         0.20          5.0 
      1319.0         0.10          5.3 
      1320.0         0.23         11.0 
      1321.0         0.28         11.7 
      1322.0         0.23         12.2 
      1323.0         0.23         14.0 
      1324.0         0.30         11.0 
      1325.0         0.27          7.3 
      1326.0         0.30          5.7 
      1327.0         0.30          3.8 
      1328.0         0.27          5.3 
      1329.0         0.23          6.2 
      1330.0         0.27          6.9 
      1331.0         0.40          5.8 
      1332.0         0.30          4.7 
      1333.0         0.38          4.7 
      1334.0         0.30          4.0 
      1335.0         0.20          4.6 
      1336.0         0.20          4.6 
      1337.0         0.20          4.0 
      1338.0         0.23          4.6 
      1339.0         0.20          5.6 
      1340.0         0.23          6.5 
      1341.0         0.27          2.8 
      1342.0         0.37          1.9 
      1343.0         0.30          1.5 
      1344.0         0.27          1.5 
      1345.0         0.23          1.6 
      1346.0         2.52          5.0 
      1347.0         0.27          5.2 
      1348.0         0.13          7.3 
      1349.0         0.20          6.3 
      1350.0         0.30          6.5 
      1351.0         0.22          5.7 
      1352.0         0.20          8.9 
      1353.0         0.20          6.6 
      1354.0         0.23          6.9 
      1355.0         0.43          4.7 
      1356.0         0.57          7.0 
      1357.0         0.53          7.6 
      1358.0         0.27          5.0 
      1359.0         0.33          3.9 
      1360.0         0.30          4.2 
      1361.0         0.28          3.2 
      1362.0         0.37          3.8 
      1363.0         0.30          5.6 
      1364.0         0.30          4.3 
      1365.0         0.30          4.7 
      1366.0         0.37          4.0 
      1367.0         0.33          2.4 
      1368.0         0.27          3.0 
      1369.0         0.20          3.8 
      1370.0         0.27          3.9 
      1371.0         0.37          2.9 
      1372.0         0.38          3.1 
      1373.0         0.33          2.7 
      1374.0         0.27          2.5 
      1375.0         0.40          2.6 
      1376.0         2.22          7.3 
      1377.0         0.37          5.7 
      1378.0         0.27         10.2 
      1379.0         0.27          9.0 
      1380.0         0.27         10.2 
      1381.0         0.20          8.8 
      1382.0         0.23          7.9 
      1383.0         0.27          8.5 
      1384.0         0.20          8.5 
