~Version Information
 VERS.                                  2.0 : CWLS LAS VERSION
 WRAP.                                   NO : WRAPING MODE
 SWARE .                 MController 2.5.0J : SOFTWARE VERSION
~Well Information
 WELL.                       Montoya 12-44R : WELL
 COMP.                Petrogulf Corporation : COMPANY
 FLD.                      Purgatoire River : FIELD
 LOC.               SE/SE Sec 12 T33S R68W  : LOCATION
 DATE.                             10/01/05 : DATE(S) LOGGED
 SRVC.       BLANCO Geological Services LLC : SERVICE COMPANY
 STAT.                                  CO  : STATE
 CNTY.                           Las Animas : COUNTY
 CTRY.                                  USA : COUNTRY
 API.                       05 071 08538 00 : API NUMBER
 STRT.FT                              22.00 : START DEPTH
 STOP.FT                            2100.00 : STOP DEPTH
 STEP.FT                               1.00 : DEPTH INCREMENT
 NULL.                                -9999 : NULL VALUE
~Curve information
 DEPTH.FT                                   :
 ROP.MIN/FT                                 :
 GAS.UNITS                                  :
~ASCII Log data
# ...
       822.0         0.20          3.2 
       823.0         0.17          3.2 
       824.0         0.17          3.4 
       825.0         0.17          2.9 
       826.0         0.17          3.2 
       827.0         0.17          3.3 
       828.0         0.17          3.4 
       829.0         0.20          3.3 
       830.0         0.23          3.7 
       831.0         0.15          3.5 
       832.0         0.17          3.1 
       833.0         0.20          3.4 
       834.0         0.20          3.3 
       835.0         0.20          3.2 
       836.0         1.83          3.8 
       837.0         0.37          3.7 
       838.0         0.38          3.8 
       839.0         0.20          3.7 
       840.0         0.17          3.6 
       841.0         0.20          3.8 
       842.0         0.20          3.6 
       843.0         0.20          3.7 
       844.0         0.17          3.6 
       845.0         0.17          3.6 
       846.0         0.17          3.8 
       847.0         0.20          3.7 
       848.0         0.20          4.1 
       849.0         0.33          4.0 
       850.0         0.35          4.0 
       851.0         0.20          4.1 
       852.0         0.23          4.0 
       853.0         0.23          3.9 
       854.0         0.17          3.9 
       855.0         0.20          4.2 
       856.0         0.17          4.1 
       857.0         0.17          4.1 
       858.0         0.17          4.3 
       859.0         0.13          4.5 
       860.0         0.17          4.6 
       861.0         0.10          4.7 
       862.0         0.10          4.5 
       863.0         0.07          4.6 
       864.0         0.10          5.0 
       865.0         0.07          4.5 
       866.0         1.32          4.7 
       867.0         0.07          4.6 
       868.0         0.13          4.7 
       869.0         0.17          4.6 
       870.0         0.23          4.6 
       871.0         0.23          4.3 
       872.0         0.20          4.3 
       873.0         0.17          4.1 
       874.0         0.20          4.1 
       875.0         0.17          4.3 
       876.0         0.25          4.3 
       877.0         0.17          4.1 
       878.0         0.20          4.2 
       879.0         0.23          4.1 
       880.0         0.20          4.4 
       881.0         0.17          4.0 
       882.0         0.20          4.1 
       883.0         0.23          4.5 
       884.0         0.20          4.4 
       885.0         0.20          4.9 
       886.0         0.20          4.3 
       887.0         0.17          4.5 
       888.0         0.23          4.6 
       889.0         0.23          4.8 
       890.0         0.20          4.6 
       891.0         0.22          4.6 
       892.0         0.20          5.1 
       893.0         0.17          4.5 
       894.0         0.20          4.4 
       895.0         0.20          4.7 
       896.0         2.42          5.3 
       897.0         0.23          4.8 
       898.0         0.17          4.7 
       899.0         0.20          4.8 
       900.0         0.17          4.6 
       901.0         0.23          4.7 
       902.0         0.27          4.8 
       903.0         0.27          4.8 
       904.0         0.27          4.7 
       905.0         0.30          5.3 
       906.0         0.30          5.0 
       907.0         0.33          5.0 
       908.0         0.32          5.0 
       909.0         0.20          5.4 
       910.0         0.23          5.0 
       911.0         0.23          5.2 
       912.0         0.20          5.0 
       913.0         0.33          5.1 
       914.0         0.27          5.2 
       915.0         0.27          5.2 
       916.0         0.17          5.1 
       917.0         0.17          5.4 
       918.0         0.17          5.2 
       919.0         0.22          5.3 
       920.0         0.17          5.5 
       921.0         0.17          5.3 
       922.0         0.20          5.2 
       923.0         0.23          5.2 
       924.0         0.20          5.3 
       925.0         0.20          5.4 
       926.0         1.33          5.5 
       927.0         0.27          5.1 
       928.0         0.28          5.4 
       929.0         0.23          5.6 
       930.0         0.20          5.4 
       931.0         0.17          5.3 
       932.0         0.10          5.3 
       933.0         0.17          5.5 
       934.0         0.10          5.4 
       935.0         0.20          5.9 
       936.0         0.17          5.5 
       937.0         0.17          5.7 
       938.0         0.20          5.5 
       939.0         0.17          5.8 
       940.0         0.20          5.7 
       941.0         0.22          5.9 
       942.0         0.20          5.8 
       943.0         0.20          5.6 
       944.0         0.23          5.8 
       945.0         0.17          5.9 
       946.0         0.17          6.0 
       947.0         0.20          5.7 
       948.0         0.17          5.9 
       949.0         0.20          5.7 
       950.0         0.17          5.9 
       951.0         0.17          5.6 
       952.0         0.10          5.5 
       953.0         0.13          6.1 
       954.0         0.13          5.9 
       955.0         0.17          6.0 
       956.0         1.85          6.4 
       957.0         0.30          5.9 
       958.0         0.23          5.8 
       959.0         0.23          5.8 
       960.0         0.30          5.7 
       961.0         0.23          5.5 
       962.0         0.27          6.0 
       963.0         0.27          6.1 
       964.0         0.25          5.9 
       965.0         0.20          6.0 
       966.0         0.20          6.4 
       967.0         0.20          6.1 
       968.0         0.23          6.0 
       969.0         0.20          6.1 
       970.0         0.20          6.1 
       971.0         0.20          6.2 
       972.0         0.23          6.2 
       973.0         0.20          6.6 
       974.0         0.20          6.0 
       975.0         0.23          6.3 
       976.0         0.17          6.5 
       977.0         0.23          6.5 
       978.0         0.20          6.3 
       979.0         0.17          6.0 
       980.0         0.13          6.4 
       981.0         0.15          6.6 
       982.0         0.17          6.3 
       983.0         0.17          6.2 
       984.0         0.17          6.2 
       985.0         0.20          6.5 
       986.0         1.70          6.7 
       987.0         0.17          6.2 
       988.0         0.20          6.4 
       989.0         0.20          6.6 
       990.0         0.17          6.4 
       991.0         0.22          6.4 
       992.0         0.20          6.4 
       993.0         0.20          6.4 
       994.0         0.23          6.2 
       995.0         0.20          6.2 
       996.0         0.20          6.8 
       997.0         0.23          6.6 
       998.0         0.27          6.4 
       999.0         0.23          6.3 
      1000.0         0.20          6.4 
      1001.0         0.23          6.3 
      1002.0         0.23          6.3 
      1003.0         0.20          6.4 
      1004.0         0.17          6.5 
      1005.0         0.23          6.3 
      1006.0         0.28          6.2 
      1007.0         0.20          6.4 
      1008.0         0.20          6.3 
      1009.0         0.20          6.5 
      1010.0         0.17          6.7 
      1011.0         0.20         24.9 
      1012.0         0.17         47.0 
      1013.0         0.20         48.7 
      1014.0         0.23         43.9 
      1015.0         0.33         28.5 
      1016.0         1.22         13.1 
      1017.0         0.37          4.0 
      1018.0         0.30          3.9 
      1019.0         0.33          3.9 
      1020.0         0.27          4.7 
      1021.0         0.23          4.7 
