~Version Information
VERS.                      2.0: CWLS Log ASCII Standard - VERSION 2.0
WRAP.                       NO: One line per depth step
~Well Information Block
STRT.FT                10.0000: 
STOP.FT              1665.0000: 
STEP.FT                 0.1000: 
NULL.                -999.2500: 
COMP.          Pioneer Natural Resources: COMPANY
WELL.          Stock Canyon 34-33: WELL
FLD.           Purgatorie River: FIELD
LOC.           980' FSL & 2191' FEL: LOCATION
PROV.                 Colorado: PROVINCE
CNTY.               Las Animas: COUNTRY
SRVC.                Patterson: SERVICE COMPANY
DATE.          Mon Dec 05 10:33:50 2005: LOG DATE
UWI.                          : UNIQUE WELL ID
~Curve Information Block
DEPT.FT            0 000 00 00: Depth
DCAL.in                       : CDL Caliper
RHOB.g/cc                     : CDL Bulk Density
RHOC.g/cc                     : CDL Density Correction
DPOR.pu                       : CDL Density Porosity
GR.GAPI                       : Gamma Ray
NPOR.pu                       : Neutron Porosity
~Parameter Information Block
~A  Depth       DCAL        RHOB        RHOC        DPOR         GR         NPOR    
# ...
   778.0000      8.0048      2.4054      0.0936     14.8243     92.2064     18.8615
   778.1000      8.0048      2.3864      0.0584     15.9774     90.8764     18.3809
   778.2000      8.0048      2.3870      0.0456     15.9387     88.9709     18.1088
   778.3000      8.0043      2.4081      0.0876     14.6617     85.8543     17.9380
   778.4000      8.0043      2.4191      0.0907     13.9966     83.4540     17.8275
   778.5000      7.9996      2.4110      0.0628     14.4830     83.3487     17.8169
   778.6000      7.9996      2.4073      0.0759     14.7075     84.9827     18.0702
   778.7000      7.9996      2.4261      0.0766     13.5676     86.3083     18.5973
   778.8000      8.0032      2.4582      0.1167     11.6243     86.1513     19.2949
   778.9000      8.0032      2.4811      0.1306     10.2389     86.0332     20.0662
   779.0000      8.0045      2.4918      0.0597      9.5851     88.2308     20.6526
   779.1000      8.0045      2.5085      0.0808      8.5742     92.1256     21.0226
   779.2000      8.0045      2.5318      0.1225      7.1617     94.3620     21.4992
   779.3000      8.0027      2.5405      0.1328      6.6336     95.4874     22.0269
   779.4000      8.0027      2.5284      0.1118      7.3676     96.8881     22.3197
   779.5000      8.0039      2.5119      0.1262      8.3682     97.5965     22.5852
   779.6000      8.0039      2.4999      0.1010      9.0995     99.1565     22.9828
   779.7000      8.0039      2.4880      0.0866      9.8154    101.1781     23.2496
   779.8000      8.0072      2.4798      0.0583     10.3154    100.8596     23.2638
   779.9000      8.0072      2.4822      0.0618     10.1714     99.0074     23.0038
   780.0000      8.0059      2.4833      0.1307     10.1014     97.6838     22.5459
   780.1000      8.0059      2.4721      0.0634     10.7817     96.0070     22.2843
   780.2000      8.0059      2.4633      0.1035     11.3147     93.6018     22.3019
   780.3000      7.9844      2.4645      0.1270     11.2429     92.2500     22.2000
   780.4000      7.9844      2.4719      0.1182     10.7932     92.4820     21.9099
   780.5000      7.9726      2.4941      0.1357      9.4514     93.2649     21.7026
   780.6000      7.9726      2.5328      0.1657      7.1036     93.2553     21.5558
   780.7000      7.9726      2.5749      0.1364      4.5509     90.8949     21.3402
   780.8000      7.9599      2.6100      0.1972      2.4250     86.7662     21.2285
   780.9000      7.9599      2.6277      0.2182      1.3543     85.1336     21.3701
   781.0000      7.9636      2.6230      0.1950      1.6339     87.5525     21.5964
   781.1000      7.9636      2.6112      0.1467      2.3497     90.7899     21.7859
   781.2000      7.9636      2.6088      0.1270      2.4962     93.1335     21.9265
   781.3000      7.9625      2.6057      0.1413      2.6848     95.5561     21.9624
   781.4000      7.9625      2.5860      0.1183      3.8815     97.7610     21.9344
   781.5000      7.9460      2.5610      0.0069      5.3934     98.3050     21.9321
   781.6000      7.9460      2.5495      0.0732      6.0923     97.6240     21.8261
   781.7000      7.9460      2.5454      0.0562      6.3424     96.9795     21.5663
   781.8000      7.9816      2.5363      0.0516      6.8883     96.3696     21.4243
   781.9000      7.9816      2.5247      0.0336      7.5948     96.0386     21.7225
   782.0000      8.0475      2.5226      0.0247      7.7212     96.9121     22.4078
   782.1000      8.0475      2.5368      0.0387      6.8595    100.5447     23.0357
   782.2000      8.0475      2.5628      0.0872      5.2840    108.1567     23.3545
   782.3000      8.0538      2.5915      0.0766      3.5473    117.6415     23.5971
   782.4000      8.0538      2.6099      0.0790      2.4327    124.7645     24.0905
   782.5000      8.0531      2.6115      0.0378      2.3310    128.5791     24.7524
   782.6000      8.0531      2.6109      0.0106      2.3685    132.4202     25.4298
   782.7000      8.0531      2.6147      0.0069      2.1412    136.3754     26.2390
   782.8000      8.0520      2.6105      0.0143      2.3933    137.5251     27.0655
   782.9000      8.0520      2.5979      0.0416      3.1547    136.9687     27.5975
   783.0000      8.0649      2.5883      0.0280      3.7424    137.0143     27.9330
   783.1000      8.0649      2.5853      0.0296      3.9186    138.7753     28.3214
   783.2000      8.0649      2.5856      0.0369      3.9009    141.2551     28.6296
   783.3000      8.0550      2.5883      0.0408      3.7377    141.3984     28.6006
   783.4000      8.0550      2.5907      0.0281      3.5915    137.4692     28.3922
   783.5000      8.0246      2.5813      0.0590      4.1619    131.4006     28.5198
   783.6000      8.0246      2.5540      0.0564      5.8181    128.1683     29.1071
   783.7000      8.0246      2.5273     -0.0268      7.4369    129.4591     29.6237
   783.8000      8.0017      2.5264     -0.0119      7.4911    130.2253     29.7142
   783.9000      8.0017      2.5509      0.0348      6.0042    125.7318     29.4884
   784.0000      7.9835      2.5780      0.0870      4.3642    117.7733     29.1588
   784.1000      7.9835      2.5881      0.0752      3.7515    112.2367     28.8979
   784.2000      7.9835      2.5831      0.0738      4.0521    110.7033     28.5548
   784.3000      7.9574      2.5832      0.0722      4.0471    110.5140     27.9750
   784.4000      7.9574      2.6042      0.0635      2.7765    108.8284     27.4375
   784.5000      7.9571      2.6395      0.1151      0.6363    104.7882     27.1306
   784.6000      7.9571      2.6712      0.1554     -1.2867    100.8258     26.8219
   784.7000      7.9571      2.6843      0.1941     -2.0814     97.4402     26.3736
   784.8000      7.9577      2.6690      0.1542     -1.1513     94.6350     25.8662
   784.9000      7.9577      2.6338      0.0607      0.9802     96.5337     25.3412
   785.0000      7.9601      2.6017      0.0717      2.9244    104.9681     24.7975
   785.1000      7.9601      2.5809      0.0722      4.1880    113.1961     24.3855
   785.2000      7.9601      2.5621      0.0728      5.3275    116.2435     24.1897
   785.3000      7.9712      2.5426      0.0453      6.5115    116.5381     24.0686
   785.4000      7.9712      2.5321      0.0292      7.1465    115.3655     23.9618
   785.5000      7.9766      2.5322      0.0922      7.1421    111.4170     23.7661
   785.6000      7.9766      2.5290      0.0919      7.3325    106.9287     23.4077
   785.7000      7.9766      2.5092      0.0784      8.5340    104.7170     22.9931
   785.8000      7.9785      2.4756      0.0427     10.5701    102.4664     22.4415
   785.9000      7.9785      2.4437      0.0225     12.5030     97.9319     21.6825
   786.0000      7.9973      2.4240      0.0196     13.6965     93.9306     20.9711
   786.1000      7.9973      2.4222     -0.0096     13.8059     92.5501     20.4984
   786.2000      7.9973      2.4315      0.0667     13.2403     93.4714     20.2357
   786.3000      8.0085      2.4373      0.0440     12.8909     94.5828     20.1315
   786.4000      8.0085      2.4414      0.0257     12.6452     94.2627     20.1379
   786.5000      7.9998      2.4473      0.0705     12.2878     93.5329     20.1752
   786.6000      7.9998      2.4495      0.0687     12.1526     94.1985     20.2192
   786.7000      7.9998      2.4502      0.0567     12.1069     96.7712     20.3988
   786.8000      8.0069      2.4629      0.0171     11.3424     99.2208     20.7462
   786.9000      8.0069      2.4880      0.0924      9.8154     99.5407     21.0400
   787.0000      8.0037      2.5110      0.0909      8.4267     99.9870     21.2475
   787.1000      8.0037      2.5302      0.0884      7.2576    103.3822     21.5192
   787.2000      8.0037      2.5507      0.1052      6.0193    108.5775     21.8653
   787.3000      8.0074      2.5652      0.1006      5.1416    112.8907     22.1710
   787.4000      8.0074      2.5641      0.0971      5.2056    115.3835     22.4376
   787.5000      8.0034      2.5490      0.1128      6.1214    118.5195     22.7552
