~Version Information
VERS.                      2.0: CWLS Log ASCII Standard - VERSION 2.0
WRAP.                       NO: One line per depth step
~Well Information Block
STRT.FT               840.0000: 
STOP.FT              1912.0000: 
STEP.FT                 0.1000: 
NULL.                -999.2500: 
COMP.          Petrogulf Corporation: COMPANY
WELL.             Kraft 17-23R: WELL
FLD.           Purgatorie River: FIELD
LOC.           1509' FSL & 1673' FWL: LOCATION
PROV.                 Colorado: PROVINCE
CNTY.               Las Animas: COUNTRY
SRVC.                Patterson: SERVICE COMPANY
DATE.          Wed Oct 12 07:01:14 2005: LOG DATE
UWI.                          : UNIQUE WELL ID
~Curve Information Block
DEPT.FT            0 000 00 00: Depth
DCAL.in                       : CDL Caliper
RHOB.g/cc                     : CDL Bulk Density
RHOC.g/cc                     : CDL Density Correction
DPOR.pu                       : CDL Density Porosity
GR.GAPI                       : Gamma Ray
NPOR.pu                       : Neutron Porosity
~Parameter Information Block
~A  Depth       DCAL        RHOB        RHOC        DPOR         GR         NPOR    
# ...
  1828.8000      7.8874      2.4593      0.0563     11.5549     60.0225     12.2420
  1828.9000      7.8874      2.4548      0.0274     11.8307     55.4518     11.6460
  1829.0000      7.8961      2.4517      0.0218     12.0170     53.8857     11.3640
  1829.1000      7.8961      2.4576      0.0405     11.6616     54.3705     11.5065
  1829.2000      7.8961      2.4598      0.0620     11.5273     54.3401     11.7459
  1829.3000      7.8544      2.4526      0.0451     11.9641     54.1239     11.8084
  1829.4000      7.8544      2.4543      0.0056     11.8609     53.9159     11.5055
  1829.5000      7.8750      2.4725      0.0792     10.7558     51.8555     10.8655
  1829.6000      7.8750      2.4907      0.0845      9.6569     48.7872     10.3597
  1829.7000      7.8750      2.4977      0.0987      9.2332     47.6758     10.3426
  1829.8000      7.8830      2.4966      0.0813      9.2952     48.5891     10.7079
  1829.9000      7.8830      2.4906      0.0813      9.6610     50.2278     11.0480
  1830.0000      7.9158      2.4764      0.0683     10.5206     51.6453     11.2732
  1830.1000      7.9158      2.4583      0.0315     11.6191     52.8708     11.8961
  1830.2000      7.9158      2.4462      0.0559     12.3493     55.1785     12.9074
  1830.3000      7.9246      2.4380      0.0715     12.8506     57.7430     13.5317
  1830.4000      7.9246      2.4257      0.0793     13.5930     57.8904     13.4414
  1830.5000      7.9207      2.4145      0.0410     14.2746     55.1677     12.9996
  1830.6000      7.9207      2.4167      0.0269     14.1419     51.4845     12.6382
  1830.7000      7.9207      2.4306      0.0701     13.2982     48.4935     12.6595
  1830.8000      7.9244      2.4445      0.0635     12.4552     47.4473     13.0744
  1830.9000      7.9244      2.4552      0.0607     11.8068     49.6265     13.6301
  1831.0000      7.9248      2.4600      0.0801     11.5166     54.5829     13.9759
  1831.1000      7.9248      2.4555      0.0935     11.7849     59.1073     14.0009
  1831.2000      7.9248      2.4517      0.0626     12.0206     60.1308     13.9273
  1831.3000      7.9002      2.4586      0.0752     11.6017     59.0600     13.9152
  1831.4000      7.9002      2.4706      0.0922     10.8733     59.7519     13.8595
  1831.5000      7.8392      2.4794      0.0898     10.3398     62.4615     13.7110
  1831.6000      7.8392      2.4917      0.0924      9.5965     66.6334     13.8657
  1831.7000      7.8392      2.5150      0.1000      8.1846     72.3327     14.6339
  1831.8000      7.8507      2.5384      0.1405      6.7625     76.6841     15.7576
  1831.9000      7.8507      2.5492      0.1140      6.1076     78.4951     16.8046
  1832.0000      7.8762      2.5519      0.1258      5.9470     80.1674     17.4599
  1832.1000      7.8762      2.5511      0.1350      5.9944     81.8233     17.4086
  1832.2000      7.8762      2.5432      0.1199      6.4697     82.9705     16.7199
  1832.3000      7.8768      2.5287      0.0866      7.3531     84.7645     16.0052
  1832.4000      7.8768      2.5123      0.0730      8.3456     85.5529     15.7769
  1832.5000      7.8885      2.4982      0.0382      9.1992     83.6467     16.1181
  1832.6000      7.8885      2.4905      0.0373      9.6691     81.0344     16.4912
  1832.7000      7.8885      2.4918      0.0557      9.5891     78.7208     16.2675
  1832.8000      7.8923      2.5067      0.0163      8.6824     76.2088     15.4486
  1832.9000      7.8923      2.5311      0.0811      7.2081     74.1527     14.3757
  1833.0000      7.8585      2.5348      0.1172      6.9810     72.9309     13.6393
  1833.1000      7.8585      2.5061      0.0731      8.7207     72.5049     13.8345
  1833.2000      7.8585      2.4786      0.0309     10.3874     74.1158     15.0226
  1833.3000      7.8116      2.4708      0.0791     10.8630     76.6186     16.5469
  1833.4000      7.8116      2.4678      0.0609     11.0420     75.8915     17.4070
  1833.5000      7.7920      2.4637      0.0378     11.2880     71.6665     17.3952
  1833.6000      7.7920      2.4619      0.0646     11.4017     66.3724     17.2997
  1833.7000      7.7920      2.4620      0.0847     11.3916     59.8123     17.4932
  1833.8000      7.7788      2.4631      0.0790     11.3290     52.7820     17.5998
  1833.9000      7.7788      2.4666      0.1006     11.1161     49.5917     17.4902
  1834.0000      7.7779      2.4767      0.0839     10.5015     50.9389     17.3107
  1834.1000      7.7779      2.4919      0.1177      9.5846     52.7447     17.0511
  1834.2000      7.7779      2.5024      0.0921      8.9448     51.5977     16.8204
  1834.3000      7.7904      2.4992      0.1084      9.1393     46.7902     16.5912
  1834.4000      7.7904      2.4813      0.0659     10.2253     41.2928     16.1826
  1834.5000      7.7945      2.4619      0.0020     11.3983     38.3765     15.8611
  1834.6000      7.7945      2.4537     -0.0024     11.8959     38.1359     15.8767
  1834.7000      7.7945      2.4571      0.0340     11.6887     39.5188     16.0091
  1834.8000      7.7989      2.4612      0.0516     11.4397     40.6564     16.0593
  1834.9000      7.7989      2.4493      0.0866     12.1625     40.1941     15.9535
  1835.0000      7.8152      2.4259      0.0079     13.5795     39.8125     15.7422
  1835.1000      7.8152      2.4176      0.0290     14.0858     41.1717     15.5736
  1835.2000      7.8152      2.4311      0.0558     13.2670     42.1017     15.4031
  1835.3000      7.8215      2.4474      0.0528     12.2802     40.9731     15.0535
  1835.4000      7.8215      2.4511      0.0627     12.0573     40.1802     14.5819
  1835.5000      7.8295      2.4423      0.0567     12.5856     40.4073     14.2341
  1835.6000      7.8295      2.4308      0.0524     13.2875     40.5274     14.1107
  1835.7000      7.8295      2.4275      0.0228     13.4831     41.2979     14.2506
  1835.8000      7.8229      2.4386      0.0579     12.8139     42.1212     14.6950
  1835.9000      7.8229      2.4586      0.0637     11.6012     41.5868     15.2781
  1836.0000      7.8046      2.4753      0.0819     10.5876     40.6842     15.7354
  1836.1000      7.8046      2.4784      0.0678     10.4030     40.2754     16.0576
  1836.2000      7.8046      2.4753      0.0490     10.5907     41.7849     16.2738
  1836.3000      7.8080      2.4941     -0.0194      9.4506     45.4802     16.1289
  1836.4000      7.8080      2.5398      0.0623      6.6786     49.3293     15.6944
  1836.5000      7.8003      2.5739      0.1206      4.6092     53.5487     15.4360
  1836.6000      7.8003      2.5719      0.1037      4.7339     59.1532     15.5541
  1836.7000      7.8003      2.5567      0.0664      5.6562     66.4686     16.0122
  1836.8000      7.8059      2.5579      0.0277      5.5794     76.0895     16.6190
  1836.9000      7.8059      2.5722      0.0878      4.7134     88.9467     17.2006
  1837.0000      7.8263      2.5729      0.0967      4.6736    104.0440     18.0406
  1837.1000      7.8263      2.5540      0.0298      5.8206    117.2271     19.1500
  1837.2000      7.8263      2.5365      0.0460      6.8778    126.7747     20.1000
  1837.3000      7.8203      2.5395      0.0345      6.6946    135.7432     20.8059
  1837.4000      7.8203      2.5618      0.1498      5.3440    145.1803     21.4224
  1837.5000      7.8131      2.5896      0.0783      3.6591    153.1954     21.8778
  1837.6000      7.8131      2.6109      0.1247      2.3706    158.3836     22.1450
  1837.7000      7.8131      2.6114      0.0917      2.3388    159.0903     22.5801
  1837.8000      7.9080      2.5950      0.0328      3.3356    157.5982     23.2571
  1837.9000      7.9080      2.5781      0.0812      4.3588    158.7792     23.8271
  1838.0000      7.9160      2.5611      0.0762      5.3873    161.7255     24.1809
  1838.1000      7.9160      2.5421      0.0695      6.5369    162.2954     24.2835
  1838.2000      7.9160      2.5299      0.0431      7.2804    158.8515     24.0747
  1838.3000      7.9139      2.5339      0.0373      7.0380    153.5922     23.8490
