~Version Information
VERS.                      2.0: CWLS Log ASCII Standard - VERSION 2.0
WRAP.                       NO: One line per depth step
~Well Information Block
STRT.FT               294.3000: 
STOP.FT              1461.0000: 
STEP.FT                 0.1000: 
NULL.                -999.2500: 
COMP.          Pioneer Natural Resources: COMPANY
WELL.              Lucky 21-36: WELL
FLD.           Purgatoire River: FIELD
CDN. :
PROV. :
UWI. :
STAT. :
CNTY. :
CTRY. :
API. :
COMP. :
WELL. :
FLD. :
LOC. :
DATE. :
SRVC. :
LOC.           799' FNL & 1578' FWL--: LOCATION
CNTY.               Las Animas: COUNTY
SRVC.          Superior Well Services: SERVICE COMPANY
DATE.          Tue Jul 08 08-29-33 2008: LOG DATE
UWI.           05 071 08456 00: UNIQUE WELL ID
STAT.                 Colorado: STATE
~Curve Information Block
DEPT.FT            0 000 00 00: Depth
DCAL.in                       : CDL Caliper
RHOB.g/cc                     : CDL Bulk Density
RHOC.g/cc                     : CDL Density Correction
DPOR.pu                       : CDL Density Porosity
NPOR.pu                       : Neutron Porosity
GR.GAPI                       : Gamma Ray
~Parameter Information Block
~A  Depth       DCAL        RHOB        RHOC        DPOR        NPOR         GR     
# ...
  1052.7000      7.9430      2.8124      0.1540     -9.8407     27.2701    163.8690
  1052.8000      7.9428      2.8487      0.1414    -12.0402     27.1287    158.8118
  1052.9000      7.9424      2.8669      0.1236    -13.1437     26.8686    154.8075
  1053.0000      7.9414      2.8853      0.1219    -14.2632     26.8700    152.7752
  1053.1000      7.9402      2.9044      0.1606    -15.4159     27.2130    152.5245
  1053.2000      7.9389      2.8943      0.1030    -14.8075     27.3378    155.3491
  1053.3000      7.9381      2.8379      0.0509    -11.3878     27.2470    160.7699
  1053.4000      7.9381      2.7585      0.0019     -6.5738     27.5696    165.2284
  1053.5000      7.9389      2.6952      0.0196     -2.7388     28.3106    164.4123
  1053.6000      7.9403      2.6645      0.0582     -0.8806     28.9441    162.5726
  1053.7000      7.9418      2.6459      0.0514      0.2464     29.3120    165.8621
  1053.8000      7.9427      2.6126      0.0414      2.2691     29.4880    173.0928
  1053.9000      7.9430      2.5720      0.0011      4.7258     29.3022    176.8795
  1054.0000      7.9425      2.5483      0.0606      6.1606     28.6943    175.9603
  1054.1000      7.9419      2.5431     -0.0011      6.4800     28.1176    177.8549
  1054.2000      7.9413      2.5422      0.0203      6.5329     28.0763    180.7649
  1054.3000      7.9410      2.5379      0.0178      6.7955     28.5850    174.7529
  1054.4000      7.9411      2.5357      0.0257      6.9263     29.2613    165.0093
  1054.5000      7.9414      2.5424      0.0407      6.5191     29.4671    164.6997
  1054.6000      7.9419      2.5535      0.0532      5.8484     28.9556    170.7495
  1054.7000      7.9424      2.5599      0.0701      5.4600     28.4370    171.3452
  1054.8000      7.9428      2.5637      0.0318      5.2280     28.4978    165.8448
  1054.9000      7.9431      2.5678      0.0727      4.9816     28.8662    162.2498
  1055.0000      7.9433      2.5613      0.0503      5.3762     29.1605    159.9230
  1055.1000      7.9435      2.5450      0.0587      6.3642     29.2316    155.1070
  1055.2000      7.9435      2.5321      0.0463      7.1468     29.3721    151.7006
  1055.3000      7.9433      2.5236      0.0645      7.6591     29.7215    147.2838
  1055.4000      7.9425      2.5146      0.0592      8.2084     29.5578    140.7649
  1055.5000      7.9414      2.5096      0.0452      8.5071     28.8073    140.6240
  1055.6000      7.9400      2.5138      0.0450      8.2560     28.4173    148.6682
  1055.7000      7.9387      2.5223      0.0699      7.7387     28.7036    157.4327
  1055.8000      7.9376      2.5279      0.0701      7.3977     29.0429    160.2876
  1055.9000      7.9367      2.5291      0.0727      7.3276     28.9518    158.5099
  1056.0000      7.9359      2.5247      0.0711      7.5965     28.5607    157.2598
  1056.1000      7.9354      2.5179      0.0629      8.0089     28.4078    158.3612
  1056.2000      7.9350      2.5167      0.0744      8.0812     28.5951    156.3396
  1056.3000      7.9349      2.5211      0.0867      7.8139     28.4737    144.0296
  1056.4000      7.9351      2.5229      0.0867      7.7034     27.8926    126.4734
  1056.5000      7.9353      2.5161      0.1077      8.1155     27.3476    119.9672
  1056.6000      7.9355      2.5102      0.0457      8.4721     27.0554    129.2122
  1056.7000      7.9354      2.5161      0.0634      8.1174     27.0871    141.0755
  1056.8000      7.9352      2.5249      0.0777      7.5814     27.4541    144.0414
  1056.9000      7.9351      2.5324      0.0483      7.1266     27.9525    138.8848
  1057.0000      7.9358      2.5485      0.0865      6.1496     28.4492    136.5085
  1057.1000      7.9376      2.5657      0.1180      5.1090     28.8676    144.8860
  1057.2000      7.9408      2.5646      0.1230      5.1787     29.1708    155.9158
  1057.3000      7.9456      2.5462      0.0610      6.2915     29.4211    158.3641
  1057.4000      7.9519      2.5326      0.0485      7.1122     29.5608    154.2359
  1057.5000      7.9592      2.5338      0.0852      7.0417     29.4446    151.8220
  1057.6000      7.9670      2.5369      0.0581      6.8537     29.1585    155.0209
  1057.7000      7.9741      2.5348      0.0440      6.9813     29.0640    161.0251
  1057.8000      7.9793      2.5283      0.1025      7.3768     29.4054    165.4974
  1057.9000      7.9817      2.5180      0.0468      7.9972     29.7132    166.4868
  1058.0000      7.9810      2.5185      0.0493      7.9671     29.5295    168.1676
  1058.1000      7.9778      2.5374      0.0824      6.8261     29.3098    175.9292
  1058.2000      7.9733      2.5573      0.1181      5.6152     29.5045    182.9192
  1058.3000      7.9690      2.5675      0.1194      5.0012     29.6865    178.1104
  1058.4000      7.9659      2.5668      0.1577      5.0436     29.4698    162.4752
  1058.5000      7.9644      2.5478      0.0986      6.1961     29.2034    145.6599
  1058.6000      7.9642      2.5159      0.0723      8.1249     29.0301    135.0321
  1058.7000      7.9645      2.4957      0.0205      9.3517     28.5980    134.2872
  1058.8000      7.9646      2.4967      0.0686      9.2884     27.9451    143.0597
  1058.9000      7.9642      2.4980      0.0411      9.2122     27.5265    154.3157
  1059.0000      7.9634      2.4860      0.0261      9.9421     27.4887    160.6037
  1059.1000      7.9624      2.4699      0.0133     10.9153     27.5139    159.6257
  1059.2000      7.9613      2.4617      0.0003     11.4113     27.3480    155.8575
  1059.3000      7.9599      2.4653     -0.0068     11.1966     27.1698    149.0767
  1059.4000      7.9582      2.4748      0.0572     10.6192     27.1431    136.2871
  1059.5000      7.9561      2.4829      0.0098     10.1303     26.9247    126.8232
  1059.6000      7.9538      2.4880      0.0098      9.8186     26.4306    128.9429
  1059.7000      7.9518      2.4934      0.0079      9.4921     26.2402    138.6357
  1059.8000      7.9504      2.5053      0.0188      8.7680     26.6037    146.0585
  1059.9000      7.9498      2.5169      0.0470      8.0690     27.2546    146.5305
  1060.0000      7.9498      2.5123      0.0429      8.3457     27.8066    144.5076
  1060.1000      7.9498      2.4939     -0.0105      9.4629     28.0022    142.2557
  1060.2000      7.9497      2.4712      0.0397     10.8335     27.9271    136.0230
  1060.3000      7.9492      2.4430      0.0225     12.5464     27.8198    126.7955
  1060.4000      7.9485      2.4072      0.0138     14.7165     27.8157    124.8938
  1060.5000      7.9481      2.3723      0.0023     16.8273     28.0784    134.3296
  1060.6000      7.9480      2.3560     -0.0183     17.8201     28.3457    142.6570
  1060.7000      7.9482      2.3680      0.0241     17.0882     28.3499    141.4068
  1060.8000      7.9485      2.4014      0.0032     15.0679     28.3524    140.3754
  1060.9000      7.9483      2.4440      0.0445     12.4850     28.5187    148.9963
  1061.0000      7.9474      2.4790      0.0942     10.3617     28.8841    161.6290
  1061.1000      7.9461      2.4897      0.1376      9.7153     29.3947    169.7596
  1061.2000      7.9449      2.4736      0.1421     10.6900     29.8553    175.1190
  1061.3000      7.9444      2.4419      0.1640     12.6106     30.1611    178.7928
  1061.4000      7.9450      2.4143      0.1574     14.2863     30.3470    176.6525
  1061.5000      7.9468      2.4022      0.2300     15.0195     30.2850    170.0155
  1061.6000      7.9491      2.3969      0.2013     15.3412     29.6709    166.2576
  1061.7000      7.9511      2.3923      0.1083     15.6208     28.7715    167.5006
  1061.8000      7.9523      2.3933      0.0724     15.5575     28.1980    166.8547
  1061.9000      7.9524      2.4044      0.0624     14.8874     28.0545    160.8804
  1062.0000      7.9512      2.4254      0.1024     13.6097     27.9048    156.4001
  1062.1000      7.9493      2.4490      0.1307     12.1813     27.5614    154.9212
  1062.2000      7.9473      2.4732      0.1337     10.7122     27.1484    150.8721
