~Version Information
VERS.                      2.0: CWLS Log ASCII Standard - VERSION 2.0
WRAP.                       NO: One line per depth step
~Well Information Block
STRT.FT               660.0000: 
STOP.FT              2491.0000: 
STEP.FT                 0.2500: 
NULL.                -999.2500: 
COMP.          Petrogulf Corporation: COMPANY
WELL.          Montoya 18-11V-B: WELL
FLD.           Purgatorie River: FIELD
LOC.           848' FNL & 619' FWL: LOCATION
PROV.                 Colorado: PROVINCE
CNTY.               Las Animas: COUNTRY
SRVC.                Patterson: SERVICE COMPANY
DATE.          Wed Oct 05 04:34:17 2005: LOG DATE
UWI.                          : UNIQUE WELL ID
~Curve Information Block
DEPT.FT            0 000 00 00: Depth
SP.mV                         : DIL Spontaneous Potential
RILD.Ohm-m                    : DIL Deep Resistivity
RILM.Ohm-m                    : DIL Medium Resistivity
RLL3.Ohm-m                    : DIL Shallow Resistivity
GR.GAPI                       : Gamma Ray
~Parameter Information Block
~A  Depth        SP         RILD        RILM        RLL3         GR     
# ...
   772.0000   2000.0000     11.5303     10.1482   2000.0000    138.9350
   772.2500   2000.0000     11.5856     10.2423   2000.0000    137.0625
   772.5000   2000.0000     11.7000     10.4538   2000.0000    133.2546
   772.7500   2000.0000     11.8660     10.7771   2000.0000    130.7494
   773.0000   2000.0000     12.0771     11.2040   2000.0000    127.7372
   773.2500   2000.0000     12.3297     11.7219   2000.0000    126.4581
   773.5000   2000.0000     12.6243     12.3136   2000.0000    126.1231
   773.7500   2000.0000     12.9648     12.9566   2000.0000    126.9304
   774.0000   2000.0000     13.3575     13.6238   2000.0000    128.3397
   774.2500   2000.0000     13.8070     14.2851   2000.0000    128.3084
   774.5000   2000.0000     14.3147     14.9110   2000.0000    126.2316
   774.7500   2000.0000     14.8776     15.4779   2000.0000    124.1477
   775.0000   2000.0000     15.4869     15.9735   2000.0000    121.2996
   775.2500   2000.0000     16.1253     16.4009   2000.0000    119.8174
   775.5000   2000.0000     16.7627     16.7779   2000.0000    118.0848
   775.7500   2000.0000     17.3534     17.1323   2000.0000    117.2720
   776.0000   2000.0000     17.8394     17.4922   2000.0000    116.4117
   776.2500   2000.0000     18.1618     17.8749   2000.0000    115.6358
   776.5000   2000.0000     18.2803     18.2769   2000.0000    113.3973
   776.7500   2000.0000     18.1909     18.6677   2000.0000    111.1444
   777.0000   2000.0000     17.9334     18.9915   2000.0000    106.8842
   777.2500   2000.0000     17.5828     19.1809   2000.0000    103.3840
   777.5000   2000.0000     17.2302     19.1820   2000.0000     96.7566
   777.7500   2000.0000     16.9614     18.9805   2000.0000     91.4415
   778.0000   2000.0000     16.8412     18.6140   2000.0000     83.1577
   778.2500   2000.0000     16.9035     18.1623   2000.0000     78.6797
   778.5000   2000.0000     17.1469     17.7207   2000.0000     76.0299
   778.7500   2000.0000     17.5340     17.3752   2000.0000     77.8307
   779.0000   2000.0000     17.9957     17.1871   2000.0000     85.2443
   779.2500   2000.0000     18.4440     17.1891   2000.0000     91.8769
   779.5000   2000.0000     18.7941     17.3858   2000.0000    101.2929
   779.7500   2000.0000     18.9894     17.7555   2000.0000    105.9355
   780.0000   2000.0000     19.0190     18.2531   2000.0000    110.0007
   780.2500   2000.0000     18.9180     18.8146   2000.0000    111.1889
   780.5000   2000.0000     18.7516     19.3672   2000.0000    111.1100
   780.7500   2000.0000     18.5928     19.8452   2000.0000    109.7212
   781.0000   2000.0000     18.5012     20.2046   2000.0000    106.1748
   781.2500   2000.0000     18.5102     20.4299   2000.0000    104.0208
   781.5000   2000.0000     18.6202     20.5291   2000.0000    103.3527
   781.7500   2000.0000     18.7987     20.5215   2000.0000    105.0526
   782.0000   2000.0000     18.9866     20.4242   2000.0000    110.0848
   782.2500   2000.0000     19.1112     20.2464   2000.0000    114.6119
   782.5000   2000.0000     19.1054     19.9885   2000.0000    122.9263
   782.7500   2000.0000     18.9256     19.6474   2000.0000    129.3837
   783.0000   2000.0000     18.5623     19.2215   2000.0000    139.6042
   783.2500   2000.0000     18.0391     18.7142   2000.0000    145.8056
   783.5000   2000.0000     17.4024     18.1350   2000.0000    152.2300
   783.7500   2000.0000     16.7065     17.4980   2000.0000    153.9804
   784.0000   2000.0000     16.0009     16.8203   2000.0000    153.7941
   784.2500   2000.0000     15.3229     16.1205   2000.0000    153.2165
   784.5000   2000.0000     14.6968     15.4169   2000.0000    153.3568
   784.7500   2000.0000     14.1369     14.7274   2000.0000    153.9180
   785.0000   2000.0000     13.6482     14.0674   2000.0000    153.8275
   785.2500   2000.0000     13.2275     13.4496   2000.0000    152.4400
   785.5000   2000.0000     12.8639     12.8831   2000.0000    148.8536
   785.7500   2000.0000     12.5418     12.3732   2000.0000    146.7060
   786.0000   2000.0000     12.2457     11.9215   2000.0000    146.0708
   786.2500   2000.0000     11.9659     11.5266   2000.0000    147.4982
   786.5000   2000.0000     11.7001     11.1852   2000.0000    150.1930
   786.7500   2000.0000     11.4530     10.8927   2000.0000    150.8895
   787.0000   2000.0000     11.2325     10.6449   2000.0000    149.9583
   787.2500   2000.0000     11.0464     10.4381   2000.0000    148.9915
   787.5000   2000.0000     10.8997     10.2703   2000.0000    148.5972
   787.7500   2000.0000     10.7942     10.1405   2000.0000    149.2551
   788.0000   2000.0000     10.7293     10.0487   2000.0000    151.1902
   788.2500   2000.0000     10.7032      9.9955   2000.0000    152.6814
   788.5000   2000.0000     10.7138      9.9812   2000.0000    154.4435
   788.7500   2000.0000     10.7590     10.0059   2000.0000    155.1538
   789.0000   2000.0000     10.8370     10.0696   2000.0000    156.1384
   789.2500   2000.0000     10.9458     10.1718   2000.0000    157.2082
   789.5000   2000.0000     11.0833     10.3127   2000.0000    159.5446
   789.7500   2000.0000     11.2465     10.4925   2000.0000    161.3824
   790.0000   2000.0000     11.4306     10.7115   2000.0000    164.4632
   790.2500   2000.0000     11.6280     10.9689   2000.0000    166.7831
   790.5000   2000.0000     11.8297     11.2616   2000.0000    170.2525
   790.7500   2000.0000     12.0277     11.5826   2000.0000    171.9022
   791.0000   2000.0000     12.2154     11.9197   2000.0000    172.1846
   791.2500   2000.0000     12.3880     12.2555   2000.0000    170.6460
   791.5000   2000.0000     12.5409     12.5687   2000.0000    166.4181
   791.7500   2000.0000     12.6701     12.8375   2000.0000    163.1967
   792.0000   2000.0000     12.7744     13.0435   2000.0000    159.1740
   792.2500   2000.0000     12.8571     13.1758   2000.0000    157.2619
   792.5000   2000.0000     12.9248     13.2337   2000.0000    154.9679
   792.7500   2000.0000     12.9860     13.2264   2000.0000    153.5958
   793.0000   2000.0000     13.0465     13.1699   2000.0000    152.5257
   793.2500   2000.0000     13.1084     13.0841   2000.0000    153.1929
   793.5000   2000.0000     13.1687     12.9884   2000.0000    156.5056
   793.7500   2000.0000     13.2230     12.8999   2000.0000    159.5262
   794.0000   2000.0000     13.2696     12.8319   2000.0000    163.1867
   794.2500   2000.0000     13.3121     12.7936   2000.0000    163.8849
   794.5000   2000.0000     13.3594     12.7915   2000.0000    161.3640
   794.7500   2000.0000     13.4222     12.8297   2000.0000    157.6636
   795.0000   2000.0000     13.5098     12.9113   2000.0000    150.9135
   795.2500   2000.0000     13.6314     13.0399   2000.0000    146.8129
   795.5000   2000.0000     13.7978     13.2202   2000.0000    142.8120
   795.7500   2000.0000     14.0248     13.4586   2000.0000    142.1310
   796.0000   2000.0000     14.3315     13.7643   2000.0000    144.2543
   796.2500   2000.0000     14.7358     14.1486   2000.0000    147.2616
   796.5000   2000.0000     15.2499     14.6259   2000.0000    152.5524
   796.7500   2000.0000     15.8795     15.2134   2000.0000    155.6602
   797.0000   2000.0000     16.6266     15.9313   2000.0000    158.5200
   797.2500   2000.0000     17.4920     16.8028   2000.0000    158.6940
   797.5000   2000.0000     18.4740     17.8536   2000.0000    155.6312
   797.7500   2000.0000     19.5634     19.1102   2000.0000    151.3908
   798.0000   2000.0000     20.7418     20.5982   2000.0000    142.9769
   798.2500   2000.0000     21.9887     22.3392   2000.0000    137.0141
   798.5000   2000.0000     23.2951     24.3472   2000.0000    128.2690
   798.7500   2000.0000     24.6738     26.6260   2000.0000    122.1913
   799.0000   2000.0000     26.1576     29.1681   2000.0000    111.8866
   799.2500   2000.0000     27.7865     31.9551   2000.0000    104.3960
   799.5000   2000.0000     29.5887     34.9597   2000.0000     93.6829
   799.7500   2000.0000     31.5640     38.1479   2000.0000     87.7926
