~Version Information
VERS.                      2.0: CWLS Log ASCII Standard - VERSION 2.0
WRAP.                       NO: One line per depth step
~Well Information Block
STRT.FT               485.0000: 
STOP.FT              1030.5000: 
STEP.FT                 0.1000: 
NULL.                -999.2500: 
COMP.          Pioneer Natural Resources: COMPANY
WELL.          Red Raider 22-15: WELL
FLD.           Purgatoire River: FIELD
LOC.           1809' FNL & 2107' FWL: LOCATION
CNTY.               Las Animas: COUNTY
SRVC.                Patterson: SERVICE COMPANY
DATE.          Tue Apr 11 10:06:17 2006: LOG DATE
UWI.           05 071 08718 00: UNIQUE WELL ID
STAT.                 Colorado: STATE
~Curve Information Block
DEPT.FT            0 000 00 00: Depth
DCAL.in                       : CDL Caliper
RHOB.g/cc                     : CDL Bulk Density
RHOC.g/cc                     : CDL Density Correction
DPOR.pu                       : CDL Density Porosity
GR.GAPI                       : Gamma Ray
NPOR.pu                       : Neutron Porosity
~Parameter Information Block
~A  Depth       DCAL        RHOB        RHOC        DPOR         GR         NPOR    
   485.0000      1.5207      2.5186      0.3932      7.9631    149.0489     19.7946
   485.1000      1.5207      2.8873      0.6758    -14.3824    139.7656     20.5144
   485.2000      1.5207      3.1310      0.8929    -29.1533    138.0874     20.6226
   485.3000      1.4810      3.1908      0.9191    -32.7759    144.8742     20.0218
   485.4000      1.4810      3.0529      0.6926    -24.4155    153.4415     19.5517
   485.5000      1.4650      2.7749      0.2911     -7.5703    155.9686     19.9381
   485.6000      1.4650      2.4591     -0.0169     11.5696    152.4945     20.7382
   485.7000      1.4650      2.1772     -0.2080     28.6567    147.8747     20.8447
   485.8000      1.4653      1.9401     -0.3702     43.0234    142.8653     20.0093
   485.9000      1.4653      1.7454     -0.5421     54.8229    135.3291     19.0887
   486.0000      1.4752      1.6108     -0.6021     62.9799    127.4096     19.0830
   486.1000      1.4752      1.5542     -0.5803     66.4150    121.7622     19.9303
   486.2000      1.4752      1.5685     -0.4671     65.5454    120.2721     20.7009
   486.3000      1.5158      1.6251     -0.3754     62.1143    122.8098     21.0553
   486.4000      1.5158      1.6980     -0.3182     57.6959    123.8274     21.1848
   486.5000      1.8849      1.7739     -0.2137     53.0998    122.0084     21.1928
   486.6000      1.8849      1.8550     -0.1472     48.1841    120.2902     20.9072
   486.7000      1.8849      1.9759     -0.1162     40.8547    115.4704     20.4203
   486.8000      3.5171      2.1748      0.0089     28.8018    108.0165     20.5189
   486.9000      3.5171      2.4204      0.1518     13.9146    107.2455     21.2827
   487.0000      6.2039      2.6296      0.2286      1.2369    114.3723     21.3741
   487.1000      6.2039      2.7607      0.2480     -6.7080    121.5814     19.9833
   487.2000      6.2039      2.8071      0.3218     -9.5197    123.8688     18.1031
   487.3000      7.8307      2.7447      0.3431     -5.7418    119.9528     17.0733
   487.4000      7.8307      2.5652      0.2077      5.1377    112.1120     16.9707
   487.5000      8.1944      2.3512     -0.3509     18.1088    106.3126     16.8106
   487.6000      8.1944      2.2188     -0.3402     26.1346    103.9435     15.9890
   487.7000      8.1944      2.1754     -0.2794     28.7662    101.6054     15.1481
   487.8000      8.2259      2.1573     -0.3542     29.8577    100.2318     15.1877
   487.9000      8.2259      2.1330     -0.3948     31.3305    102.7426     16.2202
   488.0000      8.2255      2.1055     -0.4152     32.9997    105.1451     17.2769
   488.1000      8.2255      2.0884     -0.4024     34.0379    100.8141     17.0458
   488.2000      8.2255      2.0942     -0.4442     33.6838     94.0899     15.6243
   488.3000      8.2232      2.1249     -0.3685     31.8270     93.5829     14.5066
   488.4000      8.2232      2.1664     -0.3370     29.3062     97.8438     14.3873
   488.5000      8.2210      2.2096     -0.3786     26.6894    100.4560     14.6767
   488.6000      8.2210      2.2481     -0.2750     24.3592     96.8761     14.6665
   488.7000      8.2210      2.2629     -0.3192     23.4589     89.2022     14.2421
   488.8000      8.2198      2.2471     -0.3368     24.4184     84.0400     13.9402
   488.9000      8.2198      2.2193     -0.4251     26.1032     80.6002     14.1156
   489.0000      8.2221      2.2058     -0.4201     26.9216     75.6864     14.0884
   489.1000      8.2221      2.2185     -0.4049     26.1510     72.6642     13.5265
   489.2000      8.2221      2.2431     -0.3214     24.6636     76.2023     13.2804
   489.3000      8.2243      2.2480     -0.3418     24.3608     86.6698     13.6643
   489.4000      8.2243      2.2243     -0.3695     25.7995     95.2175     14.1175
   489.5000      8.2246      2.1962     -0.3980     27.5040     93.7507     14.1251
   489.6000      8.2246      2.1773     -0.3890     28.6497     88.3390     13.7826
   489.7000      8.2246      2.1619     -0.4524     29.5823     86.5756     13.5166
   489.8000      8.2239      2.1499     -0.3913     30.3080     88.5270     13.4458
   489.9000      8.2239      2.1446     -0.4966     30.6311     91.5205     13.5714
   490.0000      8.2226      2.1444     -0.4610     30.6445     92.4585     14.0635
   490.1000      8.2226      2.1381     -0.4703     31.0226     89.6232     14.8228
   490.2000      8.2226      2.1264     -0.5102     31.7353     83.9967     15.4174
   490.3000      8.2219      2.1242     -0.4402     31.8679     82.0001     15.8811
   490.4000      8.2219      2.1338     -0.4308     31.2863     87.7534     16.3946
   490.5000      8.2222      2.1515     -0.4467     30.2123     96.8450     16.7291
   490.6000      8.2222      2.1752     -0.4154     28.7729    104.9207     16.6294
   490.7000      8.2222      2.1979     -0.4246     27.4019    113.3129     16.3202
   490.8000      8.2234      2.2117     -0.3678     26.5630    121.7652     16.2903
   490.9000      8.2234      2.2078     -0.3139     26.7994    127.5667     16.8472
   491.0000      8.2236      2.1887     -0.4117     27.9579    130.1216     18.0253
   491.1000      8.2236      2.1723     -0.4264     28.9542    128.1250     19.1922
   491.2000      8.2236      2.1631     -0.4384     29.5106    123.9069     19.9012
   491.3000      8.2226      2.1514     -0.4379     30.2155    123.8753     20.3006
   491.4000      8.2226      2.1380     -0.4603     31.0284    133.1925     20.2396
   491.5000      8.2224      2.1308     -0.4764     31.4688    149.0295     19.7476
   491.6000      8.2224      2.1264     -0.4504     31.7353    162.0649     19.2035
   491.7000      8.2224      2.1182     -0.3999     32.2328    163.9897     18.7285
   491.8000      8.2228      2.1207     -0.5319     32.0786    156.4607     18.4005
   491.9000      8.2228      2.1477     -0.3783     30.4431    153.4438     18.1205
   492.0000      8.2235      2.1780     -0.4159     28.6042    161.6147     17.7549
   492.1000      8.2235      2.1926     -0.4363     27.7231    169.9674     17.9051
   492.2000      8.2235      2.1961     -0.4396     27.5105    169.7976     18.8134
   492.3000      8.2256      2.1916     -0.3823     27.7796    165.9294     19.6003
   492.4000      8.2256      2.1781     -0.4267     28.6027    161.7851     19.6053
   492.5000      8.2272      2.1692     -0.4092     29.1407    155.9841     19.2597
   492.6000      8.2272      2.1775     -0.3944     28.6357    154.2000     18.8424
   492.7000      8.2272      2.2022     -0.4151     27.1410    158.3761     18.4756
   492.8000      8.2251      2.2303     -0.4168     25.4386    159.5701     18.1750
   492.9000      8.2251      2.2399     -0.3954     24.8559    156.3238     17.7325
   493.0000      8.2228      2.2219     -0.4399     25.9442    153.9087     17.4150
   493.1000      8.2228      2.1882     -0.4413     27.9901    151.1984     17.5874
   493.2000      8.2228      2.1588     -0.4413     29.7681    148.2878     17.9925
   493.3000      8.2217      2.1526     -0.4909     30.1427    148.2442     18.4237
   493.4000      8.2217      2.1663     -0.4316     29.3148    148.3775     19.0964
   493.5000      8.2203      2.1805     -0.4452     28.4535    145.8840     19.9375
   493.6000      8.2203      2.1899     -0.4002     27.8857    142.0329     20.3894
   493.7000      8.2203      2.1984     -0.4049     27.3712    136.3332     19.7362
   493.8000      8.2201      2.2079     -0.3805     26.7926    127.3860     18.3886
   493.9000      8.2201      2.2164     -0.4227     26.2775    118.3393     17.8762
   494.0000      8.2205      2.2254     -0.4274     25.7356    114.6422     18.2734
   494.1000      8.2205      2.2383     -0.4372     24.9508    116.6358     18.1849
   494.2000      8.2205      2.2518     -0.3723     24.1320    120.1895     17.2133
   494.3000      8.2195      2.2652     -0.4199     23.3213    123.3196     16.1250
   494.4000      8.2195      2.2798     -0.3875     22.4354    125.7629     15.4554
   494.5000      8.2186      2.2897     -0.4300     21.8374    126.8308     15.2405
