~Version Information
VERS.                      2.0: CWLS Log ASCII Standard - VERSION 2.0
WRAP.                       NO: One line per depth step
~Well Information Block
STRT.FT               260.8000: 
STOP.FT              1942.0000: 
STEP.FT                 0.1000: 
NULL.                -999.2500: 
COMP.          XTO Energy Inc.: COMPANY
WELL.          Golden Eagle 19-11: WELL
FLD.           Purgatoire River: FIELD
LOC.           2351' FSL & 1926' FWL--: LOCATION
CNTY.               Las Animas: COUNTY
SRVC.                Patterson: SERVICE COMPANY
DATE.          Thu Mar 09 08:41:38 2006: LOG DATE
UWI.           05 071 08696 00: UNIQUE WELL ID
STAT.                 Colorado: STATE
~Curve Information Block
DEPT.FT            0 000 00 00: Depth
DCAL.in                       : CDL Caliper
RHOB.g/cc                     : CDL Bulk Density
RHOC.g/cc                     : CDL Density Correction
DPOR.pu                       : CDL Density Porosity
NPOR.pu                       : Neutron Porosity
GR.GAPI                       : Gamma Ray
~Parameter Information Block
~A  Depth       DCAL        RHOB        RHOC        DPOR        NPOR         GR     
# ...
  1681.6000      7.8955      2.5011      0.0226      9.0263     27.3846    108.9354
  1681.7000      7.8955      2.4814      0.0379     10.2197     28.1055    105.7405
  1681.8000      7.8905      2.4664      0.0530     11.1257     28.2279    110.0649
  1681.9000      7.8905      2.4593      0.0058     11.5566     27.7912    118.9265
  1682.0000      7.8781      2.4661      0.0015     11.1473     27.1840    124.9776
  1682.1000      7.8781      2.4699      0.0893     10.9149     26.8748    120.2713
  1682.2000      7.8781      2.4531      0.0496     11.9361     26.9770    107.9060
  1682.3000      7.8695      2.4301      0.0559     13.3270     27.0046     98.3187
  1682.4000      7.8695      2.4142      0.0455     14.2897     26.7197     95.4193
  1682.5000      7.8712      2.4028      0.0317     14.9814     26.3338     98.9642
  1682.6000      7.8712      2.3956      0.0523     15.4195     26.1788    105.7400
  1682.7000      7.8712      2.3971      0.0515     15.3269     26.2732    108.0527
  1682.8000      7.8801      2.4143      0.0701     14.2841     26.1382    104.5719
  1682.9000      7.8801      2.4442      0.0818     12.4702     25.8064    103.6523
  1683.0000      7.8879      2.4695      0.0912     10.9375     26.0003    112.4801
  1683.1000      7.8879      2.4776      0.0975     10.4462     26.7391    124.8697
  1683.2000      7.8879      2.4757      0.0753     10.5654     27.1742    128.9655
  1683.3000      7.8890      2.4759      0.0936     10.5518     26.8986    123.9155
  1683.4000      7.8890      2.4773      0.0868     10.4638     26.3225    116.1946
  1683.5000      7.8865      2.4756      0.0751     10.5711     25.9391    112.5917
  1683.6000      7.8865      2.4693      0.0685     10.9514     25.8215    114.4314
  1683.7000      7.8865      2.4595      0.0432     11.5476     25.8613    116.6307
  1683.8000      7.8871      2.4562      0.0478     11.7450     26.1880    119.8367
  1683.9000      7.8871      2.4683      0.0212     11.0123     26.6488    124.9712
  1684.0000      7.8936      2.4909      0.0643      9.6428     26.9657    125.4710
  1684.1000      7.8936      2.5143      0.0806      8.2259     27.2726    119.0723
  1684.2000      7.8936      2.5296      0.1117      7.2949     27.5007    109.1047
  1684.3000      7.9006      2.5293      0.0882      7.3124     27.2531    100.8820
  1684.4000      7.9006      2.5209      0.0367      7.8256     26.7373    101.1416
  1684.5000      7.8951      2.5219      0.0730      7.7606     26.4487    113.1526
  1684.6000      7.8951      2.5334      0.0943      7.0682     26.3361    128.8832
  1684.7000      7.8951      2.5393      0.1296      6.7103     26.2631    133.4740
  1684.8000      7.8803      2.5277      0.1381      7.4121     26.2734    124.2783
  1684.9000      7.8803      2.5047      0.1000      8.8075     26.3505    117.0361
  1685.0000      7.8785      2.4876      0.0461      9.8425     26.3387    122.6892
  1685.1000      7.8785      2.4791      0.0757     10.3574     26.2798    132.2380
  1685.2000      7.8785      2.4636      0.0666     11.2956     26.5139    134.7286
  1685.3000      7.8900      2.4415      0.0124     12.6343     27.0831    130.9146
  1685.4000      7.8900      2.4239      0.0651     13.7023     27.5106    128.3693
  1685.5000      7.8977      2.4065      0.0450     14.7574     27.4050    134.4462
  1685.6000      7.8977      2.3938      0.0054     15.5268     27.0096    143.7814
  1685.7000      7.8977      2.4038     -0.0202     14.9227     26.9761    145.9500
  1685.8000      7.9004      2.4341      0.0362     13.0820     27.4640    143.9764
  1685.9000      7.9004      2.4593      0.0552     11.5603     27.8718    148.3962
  1686.0000      7.9023      2.4650      0.0565     11.2105     27.7098    157.1147
  1686.1000      7.9023      2.4639      0.0646     11.2779     27.2896    158.1466
  1686.2000      7.9023      2.4693      0.0901     10.9503     27.2511    147.1732
  1686.3000      7.9004      2.4789      0.0805     10.3720     27.6276    128.5795
  1686.4000      7.9004      2.4885      0.0896      9.7884     28.0287    112.7797
  1686.5000      7.8956      2.5000      0.0988      9.0932     28.1916    108.0604
  1686.6000      7.8956      2.5099      0.1484      8.4920     27.9236    114.3400
  1686.7000      7.8956      2.5074      0.1227      8.6442     26.8877    127.0969
  1686.8000      7.8919      2.4930      0.0787      9.5127     25.3253    136.6093
  1686.9000      7.8919      2.4848      0.0236     10.0113     24.2831    135.3627
  1687.0000      7.8916      2.4901      0.0785      9.6925     24.1928    133.4361
  1687.1000      7.8916      2.4968      0.0574      9.2876     24.5522    140.8979
  1687.2000      7.8916      2.4976      0.0569      9.2350     24.8272    151.1042
  1687.3000      7.8929      2.4989      0.0329      9.1564     24.9680    155.2017
  1687.4000      7.8929      2.5077      0.0670      8.6262     25.3423    149.6110
  1687.5000      7.8935      2.5165      0.0763      8.0881     26.2217    135.4404
  1687.6000      7.8935      2.5109      0.0969      8.4285     27.1623    120.4952
  1687.7000      7.8935      2.4953      0.0271      9.3758     27.3918    111.1141
  1687.8000      7.8938      2.4918      0.0217      9.5895     27.0698    108.7464
  1687.9000      7.8938      2.5049      0.0348      8.7917     26.9507    113.5941
  1688.0000      7.8965      2.5177      0.0424      8.0190     26.9229    122.8342
  1688.1000      7.8965      2.5144      0.0566      8.2160     26.4377    130.5941
  1688.2000      7.8965      2.4918      0.0606      9.5906     25.7113    132.0005
  1688.3000      7.9036      2.4637      0.0251     11.2924     25.6511    129.7192
  1688.4000      7.9036      2.4511      0.0382     12.0522     26.4839    129.4185
  1688.5000      7.9123      2.4588      0.0446     11.5867     27.3471    128.4986
  1688.6000      7.9123      2.4716      0.0897     10.8134     27.7711    126.9120
  1688.7000      7.9123      2.4724      0.0909     10.7647     27.8672    130.2510
  1688.8000      7.9167      2.4640      0.0553     11.2751     27.4634    134.3694
  1688.9000      7.9167      2.4677      0.0458     11.0462     26.8135    132.4833
  1689.0000      7.9148      2.4977      0.0471      9.2282     26.5216    125.4895
  1689.1000      7.9148      2.5425      0.1124      6.5140     26.2942    115.1708
  1689.2000      7.9148      2.5792      0.1231      4.2927     25.4974    101.8193
  1689.3000      7.9050      2.5972      0.0841      3.2024     24.3141     90.8410
  1689.4000      7.9050      2.5951      0.1225      3.3248     23.3297     88.0700
  1689.5000      7.8902      2.5856      0.0755      3.9014     22.8152     92.3316
  1689.6000      7.8902      2.5914      0.1092      3.5523     22.8781     98.2027
  1689.7000      7.8902      2.6024      0.1536      2.8834     23.2914     99.3193
  1689.8000      7.8786      2.5939      0.0960      3.3978     23.6713     95.0230
  1689.9000      7.8786      2.5668      0.0770      5.0452     24.0736     87.6350
  1690.0000      7.8757      2.5335      0.0592      7.0623     24.4228     80.3177
  1690.1000      7.8757      2.5015      0.0700      8.9983     24.5416     79.4647
  1690.2000      7.8757      2.4773      0.0080     10.4665     24.6636     86.9717
  1690.3000      7.8788      2.4681      0.0321     11.0269     24.8531     94.5085
  1690.4000      7.8788      2.4722      0.0613     10.7774     24.6272     93.4635
  1690.5000      7.8846      2.4879      0.0186      9.8264     24.0924     86.5762
  1690.6000      7.8846      2.5137      0.0537      8.2601     23.6645     80.6705
  1690.7000      7.8846      2.5312      0.1002      7.1985     23.2679     75.9515
  1690.8000      7.8906      2.5210      0.0668      7.8180     22.9971     68.6517
  1690.9000      7.8906      2.4929      0.0240      9.5207     22.8380     61.1856
  1691.0000      7.8945      2.4732      0.0046     10.7141     22.5436     59.2276
  1691.1000      7.8945      2.4674      0.0183     11.0664     22.3992     59.0488
