~Version Information
VERS.                      2.0: CWLS Log ASCII Standard - VERSION 2.0
WRAP.                       NO: One line per depth step
~Well Information Block
STRT.FT               595.7000: 
STOP.FT              1567.2000: 
STEP.FT                 0.1000: 
NULL.                -999.2500: 
COMP.          Pioneer Natural Resources: COMPANY
WELL.           Butch 33-10 Tr: WELL
FLD.           Purgatoire River: FIELD
LOC.           2309' FSL & 1337' FEL--: LOCATION
PROV.                 Colorado: PROVINCE
CNTY.               Las Animas: COUNTRY
SRVC.                Patterson: SERVICE COMPANY
DATE.          Mon Jan 16 07:34:05 2006: LOG DATE
UWI.           05 071 08649 00: UNIQUE WELL ID
~Curve Information Block
DEPT.FT            0 000 00 00: Depth
DCAL.in                       : CDL Caliper
RHOB.g/cc                     : CDL Bulk Density
RHOC.g/cc                     : CDL Density Correction
DPOR.pu                       : CDL Density Porosity
GR.GAPI                       : Gamma Ray
~Parameter Information Block
~A  Depth       DCAL        RHOB        RHOC        DPOR         GR     
# ...
  1222.9000      8.0873      2.5234     -0.0226      7.6734    139.7119
  1223.0000      8.0904      2.5208      0.0437      7.8329    137.2619
  1223.1000      8.0904      2.5198      0.0471      7.8937    140.8375
  1223.2000      8.0904      2.5199      0.0576      7.8848    149.5163
  1223.3000      8.0900      2.5253      0.0636      7.5604    152.1929
  1223.4000      8.0900      2.5363      0.0894      6.8918    146.0143
  1223.5000      8.0859      2.5492      0.0580      6.1085    138.6219
  1223.6000      8.0859      2.5492      0.0865      6.1110    136.4886
  1223.7000      8.0859      2.5221      0.0801      7.7522    136.2575
  1223.8000      8.0838      2.4807      0.0541     10.2597    133.8974
  1223.9000      8.0838      2.4483      0.0237     12.2213    132.5370
  1224.0000      8.0880      2.4244      0.0451     13.6726    136.4783
  1224.1000      8.0880      2.3943      0.0061     15.4959    144.5572
  1224.2000      8.0880      2.3515      0.0064     18.0912    147.8855
  1224.3000      8.1062      2.2885      0.0048     21.9113    142.9507
  1224.4000      8.1062      2.1951     -0.0223     27.5699    135.8458
  1224.5000      8.1351      2.0794     -0.0569     34.5838    129.5253
  1224.6000      8.1351      1.9605     -0.0707     41.7878    123.0289
  1224.7000      8.1351      1.8447     -0.1106     48.8074    117.8285
  1224.8000      8.1620      1.7281     -0.1103     55.8737    116.2775
  1224.9000      8.1620      1.6117     -0.1500     62.9292    116.2739
  1225.0000      8.1871      1.5050     -0.1789     69.3910    110.8331
  1225.1000      8.1871      1.4188     -0.1740     74.6171     97.2126
  1225.2000      8.1871      1.3569     -0.1295     78.3671     79.7967
  1225.3000      8.2181      1.3194     -0.0804     80.6429     64.6858
  1225.4000      8.2181      1.3057     -0.0167     81.4709     56.2029
  1225.5000      8.2434      1.3091      0.0176     81.2667     51.5573
  1225.6000      8.2434      1.3166      0.0362     80.8100     46.5813
  1225.7000      8.2434      1.3219      0.0214     80.4901     42.8070
  1225.8000      8.2335      1.3279      0.0463     80.1299     43.3746
  1225.9000      8.2335      1.3417      0.0209     79.2898     47.5557
  1226.0000      8.2072      1.3759      0.0313     77.2206     51.2883
  1226.1000      8.2072      1.4434      0.0551     73.1256     54.4609
  1226.2000      8.2072      1.5461      0.0824     66.9001     60.2528
  1226.3000      8.2325      1.6647      0.1696     59.7156     66.4630
  1226.4000      8.2325      1.7719      0.2053     53.2192     69.4552
  1226.5000      8.2974      1.8634      0.1969     47.6699     71.4644
  1226.6000      8.2974      1.9504      0.2332     42.3994     73.9622
  1226.7000      8.2974      2.0307      0.2335     37.5359     76.1083
  1226.8000      8.2915      2.1016      0.2223     33.2342     78.5817
  1226.9000      8.2915      2.1707      0.1913     29.0477     80.7407
  1227.0000      8.1984      2.2316      0.1672     25.3555     82.1351
  1227.1000      8.1984      2.2657      0.1381     23.2924     85.4188
  1227.2000      8.1984      2.2788      0.0554     22.4972     93.9621
  1227.3000      8.1306      2.2970      0.0695     21.3943    106.3921
  1227.4000      8.1306      2.3220      0.1017     19.8818    117.8905
  1227.5000      8.1217      2.3356      0.1003     19.0519    124.7676
  1227.6000      8.1217      2.3337      0.0761     19.1678    127.4849
  1227.7000      8.1217      2.3215      0.1095     19.9097    131.2143
  1227.8000      8.1319      2.2935      0.1069     21.6068    139.0446
  1227.9000      8.1319      2.2491      0.0353     24.2952    144.0765
  1228.0000      8.1428      2.2053      0.0080     26.9491    138.3680
  1228.1000      8.1428      2.1772      0.0557     28.6543    126.3326
  1228.2000      8.1428      2.1735      0.0385     28.8791    118.7589
  1228.3000      8.1583      2.1937      0.0875     27.6563    118.4771
  1228.4000      8.1583      2.2206      0.1280     26.0216    121.6647
  1228.5000      8.1811      2.2426      0.1590     24.6894    124.6585
  1228.6000      8.1811      2.2740      0.1572     22.7849    124.4874
  1228.7000      8.1811      2.3319      0.2543     19.2777    122.1886
  1228.8000      8.1994      2.3988      0.3871     15.2267    122.7279
  1228.9000      8.1994      2.4469      0.3546     12.3066    126.2361
  1229.0000      8.1910      2.4791      0.3211     10.3600    132.0782
  1229.1000      8.1910      2.5064      0.2650      8.7026    140.2819
  1229.2000      8.1910      2.5218      0.2202      7.7692    146.3652
  1229.3000      8.1613      2.5174      0.1773      8.0364    147.2231
  1229.4000      8.1613      2.5027      0.1258      8.9246    142.6206
  1229.5000      8.1456      2.4884      0.1039      9.7919    134.5632
  1229.6000      8.1456      2.4724      0.0668     10.7613    125.3909
  1229.7000      8.1456      2.4450      0.0692     12.4228    117.4374
  1229.8000      8.1531      2.4059      0.0259     14.7963    116.0338
  1229.9000      8.1531      2.3774      0.0007     16.5197    120.8944
  1230.0000      8.1600      2.3794      0.0090     16.3978    124.6323
  1230.1000      8.1600      2.3989      0.0402     15.2199    127.8447
  1230.2000      8.1600      2.4053      0.0567     14.8330    136.7026
  1230.3000      8.1513      2.3912      0.0120     15.6824    146.9417
  1230.4000      8.1513      2.3798      0.0432     16.3772    150.8293
  1230.5000      8.1380      2.3863      0.0423     15.9803    146.5353
  1230.6000      8.1380      2.4036      0.0733     14.9316    137.2342
  1230.7000      8.1380      2.4184      0.1240     14.0343    130.0905
  1230.8000      8.1268      2.4287      0.0592     13.4125    129.5113
  1230.9000      8.1268      2.4418      0.0930     12.6168    132.1753
  1231.0000      8.1176      2.4581      0.1014     11.6283    133.6740
  1231.1000      8.1176      2.4758      0.0902     10.5587    133.2186
  1231.2000      8.1176      2.4908      0.1114      9.6490    129.3787
  1231.3000      8.1185      2.4925      0.1020      9.5464    121.8057
  1231.4000      8.1185      2.4770      0.1053     10.4852    114.2400
  1231.5000      8.1221      2.4521      0.0435     11.9915    108.4477
  1231.6000      8.1221      2.4277      0.0793     13.4732    105.4114
  1231.7000      8.1221      2.4083      0.0143     14.6501    110.4054
  1231.8000      8.1152      2.3969      0.0321     15.3383    126.6297
  1231.9000      8.1152      2.3908      0.0589     15.7072    144.3529
  1232.0000      8.1061      2.3866      0.0306     15.9652    148.9168
  1232.1000      8.1061      2.3864      0.0582     15.9775    140.4872
  1232.2000      8.1061      2.3855      0.1287     16.0288    127.6085
  1232.3000      8.1017      2.3704      0.0863     16.9444    117.0165
  1232.4000      8.1017      2.3324      0.0935     19.2511    115.1494
  1232.5000      8.1067      2.2768      0.0193     22.6206    121.3989
  1232.6000      8.1067      2.2092      0.0755     26.7131    129.4046
  1232.7000      8.1067      2.1200      0.0252     32.1230    133.5032
  1232.8000      8.1202      2.0060      0.0292     39.0303    128.1294
  1232.9000      8.1202      1.8774     -0.0310     46.8225    115.6313
  1233.0000      8.1370      1.7495     -0.1241     54.5745    106.1799
  1233.1000      8.1370      1.6505     -0.1372     60.5769    103.0435
  1233.2000      8.1370      1.6069     -0.0937     63.2203    103.2488
  1233.3000      8.1669      1.6197     -0.0605     62.4401    104.6106
  1233.4000      8.1669      1.6717      0.0258     59.2884    102.9611
  1233.5000      8.2498      1.7513      0.0772     54.4673     97.7941
  1233.6000      8.2498      1.8592      0.1405     47.9299     94.6457
  1233.7000      8.2498      1.9857      0.2612     40.2614     94.2031
  1233.8000      8.3588      2.1090      0.2672     32.7870     92.3272
  1233.9000      8.3588      2.2250      0.2726     25.7588     91.6164
  1234.0000      8.3544      2.3362      0.2822     19.0198     96.7229
