~Version Information
VERS.                      2.0: CWLS Log ASCII Standard - VERSION 2.0
WRAP.                       NO: One line per depth step
~Well Information Block
STRT.FT               570.0000: 
STOP.FT              2090.5000: 
STEP.FT                 0.1000: 
NULL.                -999.2500: 
COMP.          XTO Energy Inc.: COMPANY
WELL.          Golden Eagle 19-10: WELL
FLD.           Purgatoire River: FIELD
LOC.           2684' FSL & 1825' FEL: LOCATION
CNTY.               Las Animas: COUNTY
SRVC.                Patterson: SERVICE COMPANY
DATE.          Mon Mar 06 07:05:15 2006: LOG DATE
UWI.           05 071 08697 00: UNIQUE WELL ID
STAT.                 Colorado: STATE
~Curve Information Block
DEPT.FT            0 000 00 00: Depth
DCAL.in                       : CDL Caliper
RHOB.g/cc                     : CDL Bulk Density
RHOC.g/cc                     : CDL Density Correction
DPOR.pu                       : CDL Density Porosity
GR.GAPI                       : Gamma Ray
NPOR.pu                       : Neutron Porosity
~Parameter Information Block
~A  Depth       DCAL        RHOB        RHOC        DPOR         GR         NPOR    
# ...
  1376.4000      7.8017      2.4306      0.0786     13.2965     56.5046     15.9953
  1376.5000      7.8013      2.4447      0.0625     12.4400     62.3703     17.8410
  1376.6000      7.8013      2.4654      0.0716     11.1867     69.5819     19.2853
  1376.7000      7.8013      2.4856      0.0792      9.9665     77.8848     19.9862
  1376.8000      7.8014      2.4898      0.0632      9.7071     87.3240     19.6570
  1376.9000      7.8014      2.4893      0.0389      9.7379     96.4814     18.7121
  1377.0000      7.8019      2.5020      0.0343      8.9674    105.8629     18.3342
  1377.1000      7.8019      2.5208      0.0726      7.8278    117.4157     18.7505
  1377.2000      7.8019      2.5329      0.0545      7.0955    126.7839     18.8040
  1377.3000      7.8024      2.5402      0.0285      6.6522    126.9053     18.0916
  1377.4000      7.8024      2.5394      0.0316      6.7007    121.1946     17.2662
  1377.5000      7.8030      2.5204      0.0305      7.8534    118.4691     16.3686
  1377.6000      7.8030      2.4887      0.0248      9.7782    115.8702     15.0457
  1377.7000      7.8030      2.4625     -0.0273     11.3628    108.9719     13.6519
  1377.8000      7.8045      2.4520     -0.0171     11.9987    102.2184     12.2660
  1377.9000      7.8045      2.4469      0.0283     12.3083     98.1728     10.7388
  1378.0000      7.8096      2.4345      0.0178     13.0610     93.4679      9.8722
  1378.1000      7.8096      2.4164      0.0216     14.1602     86.2138     10.1394
  1378.2000      7.8096      2.4063     -0.0208     14.7670     78.8817     10.7006
  1378.3000      7.8209      2.4120      0.0057     14.4213     72.1185     10.5403
  1378.4000      7.8209      2.4110      0.0519     14.4840     67.3972      9.7877
  1378.5000      7.8298      2.3854      0.0139     16.0387     66.4199      9.4743
  1378.6000      7.8298      2.3600     -0.0053     17.5747     64.9346     10.0725
  1378.7000      7.8298      2.3614      0.0222     17.4917     61.3315     11.0434
  1378.8000      7.8257      2.3802      0.0362     16.3524     56.2556     11.7183
  1378.9000      7.8257      2.3926      0.0785     15.6013     50.5476     12.1209
  1379.0000      7.8153      2.3901      0.0016     15.7539     49.3487     12.5491
  1379.1000      7.8153      2.3831      0.0334     16.1754     51.6149     12.7732
  1379.2000      7.8153      2.3802      0.0394     16.3496     53.3816     12.6968
  1379.3000      7.8128      2.3805      0.0237     16.3344     56.1977     12.8649
  1379.4000      7.8128      2.3794      0.0131     16.3973     57.2880     13.4283
  1379.5000      7.8158      2.3743      0.0228     16.7119     52.6394     13.6181
  1379.6000      7.8158      2.3622      0.0367     17.4409     47.8310     13.0910
  1379.7000      7.8158      2.3442      0.0053     18.5326     46.5786     12.1123
  1379.8000      7.8146      2.3348     -0.0240     19.1053     44.6547     11.3798
  1379.9000      7.8146      2.3437      0.0323     18.5645     42.3156     11.6719
  1380.0000      7.8075      2.3554      0.0619     17.8566     45.3594     12.5093
  1380.1000      7.8075      2.3561      0.0367     17.8103     53.1358     12.5749
  1380.2000      7.8075      2.3559      0.0315     17.8214     59.0830     11.9669
  1380.3000      7.7994      2.3711      0.0174     16.9023     59.2296     11.9794
  1380.4000      7.7994      2.4006      0.0686     15.1175     54.6291     12.7703
  1380.5000      7.7951      2.4238      0.0985     13.7078     50.5469     13.4308
  1380.6000      7.7951      2.4251      0.0615     13.6333     52.4989     13.3048
  1380.7000      7.7951      2.4115      0.0595     14.4523     58.1767     12.6544
  1380.8000      7.7939      2.4022      0.0376     15.0156     61.1236     12.3815
  1380.9000      7.7939      2.4073      0.0138     14.7083     61.7537     12.9600
  1381.0000      7.7937      2.4214      0.0678     13.8564     63.5979     13.5856
  1381.1000      7.7937      2.4310      0.0663     13.2712     65.9004     13.4528
  1381.2000      7.7937      2.4281      0.0841     13.4493     65.9220     13.0792
  1381.3000      7.7939      2.4182      0.0306     14.0470     63.5817     12.9539
  1381.4000      7.7939      2.4093      0.0653     14.5866     61.3421     12.9435
  1381.5000      7.7941      2.3976      0.0275     15.2995     60.5463     12.7217
  1381.6000      7.7941      2.3838      0.0141     16.1358     61.3294     12.4844
  1381.7000      7.7941      2.3778      0.0083     16.4959     63.1164     12.8721
  1381.8000      7.7945      2.3851      0.0287     16.0537     61.8876     13.6004
  1381.9000      7.7945      2.4025      0.0327     15.0026     54.8344     13.5401
  1382.0000      7.7945      2.4204      0.0738     13.9175     47.6035     12.8830
  1382.1000      7.7945      2.4328      0.0533     13.1628     45.7382     12.9333
  1382.2000      7.7945      2.4411      0.0742     12.6629     49.1554     14.0296
  1382.3000      7.7944      2.4454      0.0564     12.3986     54.9551     15.0117
  1382.4000      7.7944      2.4477      0.0673     12.2623     57.1930     15.0209
  1382.5000      7.7955      2.4458      0.0710     12.3743     54.8044     15.2677
  1382.6000      7.7955      2.4323      0.0928     13.1941     52.9078     16.7943
  1382.7000      7.7955      2.4148      0.0101     14.2517     51.7611     18.6812
  1382.8000      7.7958      2.4078      0.0384     14.6789     51.1514     19.3780
  1382.9000      7.7958      2.4046      0.0769     14.8699     54.7192     18.6701
  1383.0000      7.7953      2.3938      0.0381     15.5269     60.0548     17.7345
  1383.1000      7.7953      2.3798      0.0273     16.3771     62.4406     17.5797
  1383.2000      7.7953      2.3755      0.0120     16.6369     62.6359     18.2946
  1383.3000      7.7960      2.3868      0.0080     15.9528     63.0135     19.7047
  1383.4000      7.7960      2.4133     -0.0029     14.3471     63.8922     21.0270
  1383.5000      7.7961      2.4481      0.0628     12.2394     66.0464     21.3237
  1383.6000      7.7961      2.4706      0.0877     10.8717     71.2371     20.7397
  1383.7000      7.7961      2.4702      0.0795     10.8988     76.6068     20.0544
  1383.8000      7.7946      2.4605      0.0645     11.4865     79.4965     19.9130
  1383.9000      7.7946      2.4545      0.0656     11.8471     81.9981     20.2800
  1384.0000      7.7937      2.4499      0.0481     12.1297     85.5498     20.6040
  1384.1000      7.7937      2.4374      0.0768     12.8841     88.2411     20.4719
  1384.2000      7.7937      2.4134      0.0063     14.3368     87.6254     19.8785
  1384.3000      7.7950      2.3816      0.0373     16.2695     82.9012     18.9804
  1384.4000      7.7950      2.3444     -0.0018     18.5202     75.7689     18.1478
  1384.5000      7.7965      2.3170     -0.0102     20.1809     69.8276     17.7960
  1384.6000      7.7965      2.3141      0.0472     20.3549     66.8282     17.7872
  1384.7000      7.7965      2.3219      0.0652     19.8849     63.1163     17.4314
  1384.8000      7.7978      2.3227      0.0382     19.8371     53.1701     16.6070
  1384.9000      7.7978      2.3168      0.0346     20.1922     40.3205     16.2041
  1385.0000      7.7994      2.3098      0.0216     20.6183     33.7068     16.5045
  1385.1000      7.7994      2.3100      0.0228     20.6052     34.9358     16.7577
  1385.2000      7.7994      2.3286      0.0262     19.4773     38.4778     16.4436
  1385.3000      7.8008      2.3582      0.0693     17.6859     39.5590     15.5775
  1385.4000      7.8008      2.3709      0.0862     16.9156     37.3691     14.6744
  1385.5000      7.8013      2.3550      0.0867     17.8782     34.3107     14.3035
  1385.6000      7.8013      2.3315      0.0223     19.3027     32.8100     14.6586
  1385.7000      7.8013      2.3280      0.0344     19.5153     33.2105     15.0332
  1385.8000      7.8019      2.3450      0.0380     18.4828     33.9976     14.5234
  1385.9000      7.8019      2.3634      0.0484     17.3694     33.4384     13.7492
