~Version Information
VERS.                      2.0: CWLS Log ASCII Standard - VERSION 2.0
WRAP.                       NO: One line per depth step
~Well Information Block
STRT.FT               625.0000: 
STOP.FT              2053.7000: 
STEP.FT                 0.1000: 
NULL.                -999.2500: 
COMP.          Pioneer Natural Resources: COMPANY
WELL.            Zink 44-10 Tr: WELL
FLD.           Purgatoire River: FIELD
LOC.           486' FSL & 554' FEL--: LOCATION
PROV.                 Colorado: PROVINCE
CNTY.               Las Animas: COUNTRY
SRVC.                Patterson: SERVICE COMPANY
DATE.          Sun Jul 24 08:46:57 2005: LOG DATE
UWI.           05 071 08446 00: UNIQUE WELL ID
~Curve Information Block
DEPT.FT            0 000 00 00: Depth
DCAL.in                       : CDL Caliper
RHOB.g/cc                     : CDL Bulk Density
RHOC.g/cc                     : CDL Density Correction
DPOR.pu                       : CDL Density Porosity
NPOR.pu                       : Neutron Porosity
GR.GAPI                       : Gamma Ray
~Parameter Information Block
~A  Depth       DCAL        RHOB        RHOC        DPOR        NPOR         GR     
# ...
  1930.6000      7.8690      2.5699      0.0406      4.8536     28.4589    171.9663
  1930.7000      7.8690      2.5511      0.0364      5.9909     27.9817    177.5655
  1930.8000      7.8714      2.5308      0.0442      7.2243     28.3039    177.8702
  1930.9000      7.8714      2.5190      0.0276      7.9414     29.0313    174.5628
  1931.0000      7.8722      2.5215      0.0496      7.7890     29.4637    171.2286
  1931.1000      7.8722      2.5372      0.0533      6.8360     29.1098    170.5156
  1931.2000      7.8722      2.5624      0.0802      5.3097     27.9321    172.5812
  1931.3000      7.8742      2.5903      0.1065      3.6160     26.7951    175.6419
  1931.4000      7.8742      2.6151      0.1105      2.1171     26.7312    177.5453
  1931.5000      7.8752      2.6240      0.1180      1.5776     27.4637    174.8400
  1931.6000      7.8752      2.6069      0.0924      2.6149     28.0173    166.0818
  1931.7000      7.8752      2.5845      0.0746      3.9692     28.1707    153.1385
  1931.8000      7.8723      2.5887      0.0830      3.7124     28.2305    143.0950
  1931.9000      7.8723      2.6176      0.1352      1.9628     28.4466    141.3843
  1932.0000      7.8650      2.6371      0.1760      0.7818     28.5280    146.3442
  1932.1000      7.8650      2.6280      0.0908      1.3304     28.1204    152.6302
  1932.2000      7.8650      2.5986      0.1208      3.1134     28.0492    153.6557
  1932.3000      7.8554      2.5590      0.0759      5.5133     28.9024    151.6275
  1932.4000      7.8554      2.5189      0.0516      7.9438     29.7588    153.6423
  1932.5000      7.8511      2.4809      0.0250     10.2460     30.1800    156.9649
  1932.6000      7.8511      2.4383      0.0571     12.8290     30.6929    154.3406
  1932.7000      7.8511      2.3956      0.0111     15.4160     30.9815    147.7092
  1932.8000      7.8561      2.3721      0.0179     16.8405     30.5717    148.3618
  1932.9000      7.8561      2.3740      0.0230     16.7274     30.0421    160.7236
  1933.0000      7.8656      2.3850      0.0530     16.0620     29.8597    173.8901
  1933.1000      7.8656      2.3915      0.0226     15.6668     29.6673    175.9626
  1933.2000      7.8656      2.4064      0.0310     14.7616     28.9686    168.5290
  1933.3000      7.8720      2.4502      0.0721     12.1083     27.6998    160.9547
  1933.4000      7.8720      2.5144      0.1800      8.2160     26.4677    155.8509
  1933.5000      7.8731      2.5722      0.1897      4.7146     25.4945    150.2927
  1933.6000      7.8731      2.6113      0.1745      2.3472     24.3794    146.4550
  1933.7000      7.8731      2.6302      0.1895      1.1999     23.2163    147.8939
  1933.8000      7.8665      2.6337      0.1199      0.9857     22.4214    150.6379
  1933.9000      7.8665      2.6421      0.0646      0.4803     22.1713    149.4690
  1934.0000      7.8553      2.6556      0.1280     -0.3415     22.4936    145.5669
  1934.1000      7.8553      2.6495      0.0866      0.0286     23.2412    141.7492
  1934.2000      7.8553      2.6247      0.0142      1.5342     23.9702    138.4247
  1934.3000      7.8494      2.6040      0.0267      2.7909     24.3288    136.9029
  1934.4000      7.8494      2.5972      0.0277      3.1980     24.5913    135.2430
  1934.5000      7.8481      2.5968      0.0722      3.2244     25.2153    130.0725
  1934.6000      7.8481      2.5942      0.0333      3.3824     26.0316    125.9355
  1934.7000      7.8481      2.5949      0.0430      3.3383     26.3697    129.5165
  1934.8000      7.8484      2.5983      0.0489      3.1323     26.0948    138.2510
  1934.9000      7.8484      2.6027      0.0031      2.8637     25.7943    144.1142
  1935.0000      7.8485      2.6161      0.0683      2.0540     26.0438    143.4183
  1935.1000      7.8485      2.6245      0.0782      1.5456     26.7307    141.5885
  1935.2000      7.8485      2.6091      0.0743      2.4795     27.1362    141.6891
  1935.3000      7.8496      2.5891     -0.0051      3.6932     27.1598    138.7213
  1935.4000      7.8496      2.5912      0.0651      3.5643     27.0754    134.3580
  1935.5000      7.8515      2.6048      0.0586      2.7365     26.6058    136.1821
  1935.6000      7.8515      2.6111      0.0806      2.3571     25.6378    142.7437
  1935.7000      7.8515      2.6060      0.0846      2.6641     24.8940    146.0329
  1935.8000      7.8525      2.5962      0.0303      3.2589     24.6377    144.5290
  1935.9000      7.8525      2.5957      0.0819      3.2934     24.2899    142.9505
  1936.0000      7.8524      2.6062      0.0490      2.6538     23.9328    142.2690
  1936.1000      7.8524      2.6200      0.0831      1.8184     23.8560    139.7065
  1936.2000      7.8524      2.6322      0.0503      1.0760     23.7169    134.9007
  1936.3000      7.8517      2.6375      0.0990      0.7585     23.4873    128.1092
  1936.4000      7.8517      2.6334      0.0304      1.0048     23.3725    121.4668
  1936.5000      7.8528      2.6263      0.0707      1.4374     23.4872    119.8085
  1936.6000      7.8528      2.6127      0.0885      2.2577     23.9633    123.1497
  1936.7000      7.8528      2.5896      0.0395      3.6601     24.6686    126.4671
  1936.8000      7.8519      2.5676      0.0480      4.9953     25.4012    126.8549
  1936.9000      7.8519      2.5565      0.0195      5.6640     25.9886    125.6396
  1937.0000      7.8461      2.5555      0.0722      5.7287     26.0553    123.6207
  1937.1000      7.8461      2.5546      0.0287      5.7806     25.8944    121.2127
  1937.2000      7.8461      2.5519      0.0412      5.9448     26.2203    119.5390
  1937.3000      7.8436      2.5556      0.0078      5.7209     26.6541    119.9493
  1937.4000      7.8436      2.5706      0.0712      4.8120     26.7532    124.1531
  1937.5000      7.8570      2.5961      0.0297      3.2665     27.0546    131.6707
  1937.6000      7.8570      2.6311      0.1152      1.1476     27.6277    138.9751
  1937.7000      7.8570      2.6674      0.1460     -1.0560     27.8537    144.4014
  1937.8000      7.8716      2.7015      0.1335     -3.1222     27.7216    147.3152
  1937.9000      7.8716      2.7367      0.1344     -5.2531     27.6136    145.3100
  1938.0000      7.8586      2.7685      0.1744     -7.1825     27.4875    138.9199
  1938.1000      7.8586      2.7857      0.1724     -8.2237     27.4705    131.8046
  1938.2000      7.8586      2.7797      0.1411     -7.8585     27.7097    131.3356
  1938.3000      7.8352      2.7492      0.1348     -6.0149     28.0037    138.1288
  1938.4000      7.8352      2.6977      0.0931     -2.8907     28.3759    141.6226
  1938.5000      7.8348      2.6436      0.0524      0.3902     28.8010    139.2882
  1938.6000      7.8348      2.6155      0.0365      2.0935     28.6230    139.2777
  1938.7000      7.8348      2.6113      0.0979      2.3451     27.9413    144.2045
  1938.8000      7.8573      2.6015      0.1142      2.9374     27.5923    149.9389
  1938.9000      7.8573      2.5807      0.0787      4.1997     27.7023    155.4240
  1939.0000      7.8839      2.5679      0.0767      4.9736     27.9867    162.1766
  1939.1000      7.8839      2.5691      0.0785      4.9020     28.2782    165.8857
  1939.2000      7.8839      2.5783      0.0715      4.3427     28.3833    165.6762
  1939.3000      7.8974      2.5901      0.0868      3.6316     28.2251    167.8117
  1939.4000      7.8974      2.5977      0.0929      3.1715     27.9805    170.2674
  1939.5000      7.9011      2.6009      0.0821      2.9733     27.8645    168.0437
  1939.6000      7.9011      2.6020      0.1348      2.9116     27.7936    163.6959
  1939.7000      7.9011      2.6023      0.0738      2.8889     27.3357    158.3726
  1939.8000      7.9025      2.6069      0.0719      2.6146     26.7422    152.2338
  1939.9000      7.9025      2.6078      0.0927      2.5582     26.9333    150.7820
  1940.0000      7.9024      2.6009      0.0615      2.9780     27.8372    155.8779
  1940.1000      7.9024      2.5974      0.0716      3.1902     28.4322    162.5349
