~Version Information
VERS.                      2.0: CWLS Log ASCII Standard - VERSION 2.0
WRAP.                       NO: One line per depth step
~Well Information Block
STRT.FT               860.0000: 
STOP.FT              2362.5000: 
STEP.FT                 0.2500: 
NULL.                -999.2500: 
COMP.          Pioneer Natural Resources: COMPANY
WELL.            Cayenne 23-23: WELL
FLD.           Purgatoire River: FIELD
LOC.           2555' FSL & 2386' FWL: LOCATION
PROV.                 Colorado: PROVINCE
CNTY.               Las Animas: COUNTRY
SRVC.                Patterson: SERVICE COMPANY
DATE.          Wed Aug 17 06:47:40 2005: LOG DATE
UWI.           05 071 08476 00: UNIQUE WELL ID
~Curve Information Block
DEPT.FT            0 000 00 00: Depth
SN.Ohm-m                      : IEL Short Normal
SP.mV                         : IEL Spontaneous Potential
DIR.Ohm-m                     : IEL Induction Resistivity
GR.GAPI                       : Gamma Ray
~Parameter Information Block
~A  Depth        SN          SP         DIR          GR     
# ...
  1831.5000     10.4973    127.9955      9.7074    116.4933
  1831.7500      9.9773    128.0542      9.6128    117.1227
  1832.0000      9.5837    128.0702      9.5119    118.2612
  1832.2500      9.3994    128.0666      9.4274    119.6180
  1832.5000      9.5434    128.0713      9.3737    123.0348
  1832.7500      9.9810    128.1110      9.3526    126.0255
  1833.0000     10.4601    128.2062      9.3543    130.2443
  1833.2500     10.7378    128.3645      9.3648    132.0573
  1833.5000     10.8206    128.5760      9.3718    133.1015
  1833.7500     10.8871    128.8207      9.3699    133.2893
  1834.0000     11.0006    129.0864      9.3599    133.5915
  1834.2500     11.0420    129.3808      9.3455    133.3696
  1834.5000     10.9017    129.7221      9.3278    130.4604
  1834.7500     10.6178    130.1089      9.3010    125.9934
  1835.0000     10.3022    130.4998      9.2540    116.4280
  1835.2500      9.9888    130.8256      9.1771    110.0109
  1835.5000      9.6105    131.0264      9.0687    103.9648
  1835.7500      9.1444    131.0838      8.9369    103.5903
  1836.0000      8.7532    131.0249      8.7949    108.3237
  1836.2500      8.6600    130.9032      8.6542    113.6495
  1836.5000      8.8511    130.7744      8.5208    121.5537
  1836.7500      9.0830    130.6798      8.3941    125.1654
  1837.0000      9.1884    130.6408      8.2678    127.1641
  1837.2500      9.1642    130.6620      8.1332    126.6110
  1837.5000      9.0015    130.7378      7.9829    124.2401
  1837.7500      8.6510    130.8554      7.8142    122.4300
  1838.0000      8.1946    130.9943      7.6319    120.4459
  1838.2500      7.8341    131.1259      7.4473    119.7786
  1838.5000      7.6166    131.2197      7.2748    119.2045
  1838.7500      7.4142    131.2529      7.1269    118.7233
  1839.0000      7.1847    131.2196      7.0101    117.8146
  1839.2500      7.0152    131.1344      6.9244    117.3611
  1839.5000      6.9749    131.0322      6.8653    117.4114
  1839.7500      7.0776    130.9624      6.8261    118.0579
  1840.0000      7.3109    130.9738      6.8004    119.7619
  1840.2500      7.5935    131.0916      6.7826    121.1046
  1840.5000      7.7762    131.2993      6.7688    122.9821
  1840.7500      7.7939    131.5443      6.7568    123.9603
  1841.0000      7.7697    131.7613      6.7455    124.5661
  1841.2500      7.8257    131.8982      6.7352    124.1670
  1841.5000      7.8588    131.9282      6.7265    122.7931
  1841.7500      7.6766    131.8495      6.7209    122.0348
  1842.0000      7.2753    131.6815      6.7208    121.6696
  1842.2500      6.8675    131.4565      6.7297    121.5329
  1842.5000      6.6542    131.2064      6.7506    120.7687
  1842.7500      6.6771    130.9507      6.7842    120.2066
  1843.0000      6.8638    130.6966      6.8272    120.8455
  1843.2500      7.0405    130.4507      6.8737    122.9068
  1843.5000      7.0467    130.2241      6.9172    127.7934
  1843.7500      6.9378    130.0296      6.9522    130.8542
  1844.0000      6.8860    129.8794      6.9748    132.6053
  1844.2500      6.9155    129.7852      6.9843    131.3589
  1844.5000      6.9309    129.7522      6.9832    127.1161
  1844.7500      6.9273    129.7696      6.9765    123.9830
  1845.0000      7.0045    129.8118      6.9699    120.4367
  1845.2500      7.2136    129.8536      6.9681    119.1452
  1845.5000      7.4840    129.8805      6.9744    118.6477
  1845.7500      7.6857    129.8808      6.9916    119.1513
  1846.0000      7.6843    129.8362      7.0213    121.1369
  1846.2500      7.4099    129.7278      7.0613    123.0758
  1846.5000      6.9816    129.5486      7.1033    125.7976
  1846.7500      6.6694    129.3110      7.1346    126.7763
  1847.0000      6.6618    129.0465      7.1427    126.6380
  1847.2500      6.9361    128.7967      7.1213    125.7822
  1847.5000      7.3079    128.5934      7.0727    124.1129
  1847.7500      7.5155    128.4388      7.0063    123.1952
  1848.0000      7.3753    128.3036      6.9342    122.9319
  1848.2500      6.9714    128.1477      6.8680    123.7879
  1848.5000      6.5710    127.9404      6.8167    126.2387
  1848.7500      6.3456    127.6656      6.7864    128.0220
  1849.0000      6.3294    127.3154      6.7817    130.1622
  1849.2500      6.5500    126.8887      6.8054    131.3510
  1849.5000      7.0008    126.3936      6.8575    133.4504
  1849.7500      7.5367    125.8473      6.9328    135.1283
  1850.0000      7.9746    125.2686      7.0207    137.2499
  1850.2500      8.2500    124.6731      7.1066    137.8026
  1850.5000      8.3510    124.0756      7.1767    137.1642
  1850.7500      8.2549    123.4967      7.2213    136.2016
  1851.0000      8.0170    122.9623      7.2380    134.5872
  1851.2500      7.7498    122.4966      7.2313    133.2773
  1851.5000      7.5363    122.1153      7.2117    130.6207
  1851.7500      7.4582    121.8188      7.1922    128.7351
  1852.0000      7.5984    121.5837      7.1858    127.0593
  1852.2500      7.9562    121.3646      7.2035    127.2039
  1852.5000      8.4449    121.1122      7.2538    129.1404
  1852.7500      8.9526    120.7884      7.3424    131.2511
  1853.0000      9.3308    120.3713      7.4729    135.1384
  1853.2500      9.4586    119.8648      7.6457    137.7460
  1853.5000      9.3545    119.3144      7.8569    140.4502
  1853.7500      9.0866    118.7948      8.0976    140.8906
  1854.0000      8.7109    118.3601      8.3557    139.4622
  1854.2500      8.3992    117.9995      8.6170    137.3580
  1854.5000      8.3854    117.6424      8.8678    132.5181
  1854.7500      8.7039    117.2091      9.0970    128.0781
  1855.0000      9.2152    116.6642      9.2984    120.1523
  1855.2500      9.8525    116.0331      9.4737    114.7546
  1855.5000     10.6211    115.3675      9.6317    107.2470
  1855.7500     11.4742    114.7007      9.7849    102.5103
  1856.0000     12.2959    114.0303      9.9435     95.7394
  1856.2500     12.9407    113.3328     10.1114     92.1528
  1856.5000     13.3438    112.5848     10.2845     90.1255
  1856.7500     13.5411    111.7840     10.4516     91.6634
  1857.0000     13.5274    110.9585     10.5966     97.6379
  1857.2500     13.2445    110.1481     10.7017    102.8869
  1857.5000     12.7218    109.3542     10.7487    110.3391
  1857.7500     12.0919    108.4996     10.7233    113.9612
  1858.0000     11.4871    107.4490     10.6179    116.5840
  1858.2500     10.9891    106.0839     10.4359    116.6637
  1858.5000     10.6285    104.3614     10.1925    115.3400
  1858.7500     10.3799    102.3098      9.9104    114.1110
  1859.0000     10.2039     99.9871      9.6148    112.1904
  1859.2500     10.0964     97.4587      9.3271    110.7871
  1859.5000     10.0535     94.8210      9.0619    108.4901
  1859.7500     10.0383     92.2525      8.8257    107.1673
  1860.0000     10.0147     90.0490      8.6186    106.4416
  1860.2500      9.9614     88.5950      8.4392    107.2090
  1860.5000      9.8738     88.2564      8.2886    110.0854
  1860.7500      9.7799     89.2053      8.1721    112.4800
  1861.0000      9.6926     91.2210      8.0961    115.3362
  1861.2500      9.5639     93.6080      8.0633    116.3459
  1861.5000      9.3584     95.4166      8.0688    116.9930
  1861.7500      9.1590     95.9281      8.1019    117.3888
  1862.0000      9.1138     95.0468      8.1506    118.2413
  1862.2500      9.2395     93.3075      8.2080    118.6648
  1862.5000      9.3795     91.5978      8.2734    118.4806
  1862.7500      9.4007     90.8511      8.3493    117.8714
  1863.0000      9.3120     91.7653      8.4361    116.8899
  1863.2500      9.1735     94.4873      8.5285    116.4505
  1863.5000      9.0156     98.4143      8.6174    115.8514
  1863.7500      8.8458    102.4286      8.6943    114.9569
  1864.0000      8.6519    105.5844      8.7549    111.7120
  1864.2500      8.4069    107.7461      8.7996    107.8722
  1864.5000      8.1362    109.6322      8.8304    100.3400
  1864.7500      7.9376    112.2412      8.8478     95.5606
