~Version Information
 VERS.                                  2.0 : CWLS LAS VERSION
 WRAP.                                   NO : WRAPING MODE
 SWARE .                 MController 2.5.0J : SOFTWARE VERSION
~Well Information
 WELL.                        Keiko 14-06Tr : WELL
 COMP.   Pioneer Natural Resources USA Inc. : COMPANY
 FLD.                      Purgatoire River : FIELD
 LOC.                 SW/SW Sec.6 T33S R66W : LOCATION
 DATE.                             12/30/05 : DATE(S) LOGGED
 SRVC.       BLANCO Geological Services LLC : SERVICE COMPANY
 STAT.                                   CO : STATE
 CNTY.                           Las Animas : COUNTY
 CTRY.                                  USA : COUNTRY
 API.                       05-071-08629-00 : API NUMBER
 STRT.FT                             481.00 : START DEPTH
 STOP.FT                            1290.00 : STOP DEPTH
 STEP.FT                               1.00 : DEPTH INCREMENT
 NULL.                                -9999 : NULL VALUE
~Curve information
 DEPTH.FT                                   :
 ROP.MIN/FT                                 :
 GAS.UNITS                                  :
~ASCII Log data
# ...
      1081.0         1.07        738.4 
      1082.0         1.17        728.9 
      1083.0         0.80        749.2 
      1084.0         0.35        764.7 
      1085.0         0.40        764.1 
      1086.0         0.40        761.9 
      1087.0         0.40        759.0 
      1088.0         0.43        750.1 
      1089.0         0.33        740.9 
      1090.0         0.33        729.5 
      1091.0         0.33        725.4 
      1092.0         0.33        727.3 
      1093.0         0.32        723.2 
      1094.0         0.30        724.4 
      1095.0         0.43        739.0 
      1096.0         0.43        744.7 
      1097.0         0.47        745.4 
      1098.0         0.37        720.9 
      1099.0         0.43        678.1 
      1100.0         0.37        634.0 
      1101.0         2.98       1234.8 
      1102.0         0.30        912.9 
      1103.0         0.33        908.8 
      1104.0         0.35        874.5 
      1105.0         0.27        884.1 
      1106.0         0.27        879.9 
      1107.0         0.30        863.4 
      1108.0         0.27        856.5 
      1109.0         0.30        807.3 
      1110.0         0.87        785.0 
      1111.0         0.67        760.0 
      1112.0         0.68        761.6 
      1113.0         0.63        754.3 
      1114.0         0.80        743.8 
      1115.0         0.77        739.3 
      1116.0         0.78        738.4 
      1117.0         0.80        740.3 
      1118.0         0.80        741.2 
      1119.0         0.93        738.4 
      1120.0         0.72        736.8 
      1121.0         0.73        744.4 
      1122.0         0.80        738.4 
      1123.0         0.70        726.0 
      1124.0         0.60        729.8 
      1125.0         0.68        731.4 
      1126.0         0.80        722.8 
      1127.0         0.80        721.9 
      1128.0         1.00        726.3 
      1129.0         0.95        748.5 
      1130.0         0.70        743.1 
      1131.0         5.83       1290.3 
      1132.0         0.20        789.2 
      1133.0         0.10        789.2 
      1134.0         0.23        846.3 
      1135.0         0.40        873.3 
      1136.0         0.47        869.5 
      1137.0         0.57        827.3 
      1138.0         0.57        808.2 
      1139.0         0.45        841.2 
      1140.0         0.40        841.9 
      1141.0         0.47        805.4 
      1142.0         0.43        786.3 
      1143.0         0.50        756.8 
      1144.0         0.47        757.4 
      1145.0         0.43        753.3 
      1146.0         0.48        750.8 
      1147.0         0.43        749.2 
      1148.0         0.43        741.2 
      1149.0         0.43        753.0 
      1150.0         0.47        754.6 
      1151.0         0.43        756.2 
      1152.0         0.53        777.1 
      1153.0         0.33        775.8 
      1154.0         0.28        769.5 
      1155.0         0.23        747.0 
      1156.0         0.23        760.6 
      1157.0         0.30        788.8 
      1158.0         0.37        799.6 
      1159.0         0.37        801.5 
      1160.0         0.37        788.5 
      1161.0         6.50       1224.9 
      1162.0         0.13        826.0 
      1163.0         0.23        826.0 
      1164.0         0.43        876.1 
      1165.0         0.33        869.1 
      1166.0         0.55        849.8 
      1167.0         0.70        833.6 
      1168.0         0.47        789.2 
      1169.0         0.40        760.6 
      1170.0         0.33        756.2 
      1171.0         0.40        747.9 
      1172.0         0.47        743.5 
      1173.0         0.33        745.4 
      1174.0         0.48        745.4 
      1175.0         0.53        733.3 
      1176.0         0.40        739.3 
      1177.0         0.33        750.4 
      1178.0         0.33        749.5 
      1179.0         0.37        747.0 
      1180.0         0.43        743.8 
      1181.0         0.33        738.1 
      1182.0         0.35        732.4 
      1183.0         0.47        739.0 
      1184.0         0.43        743.8 
      1185.0         0.50        734.9 
      1186.0         0.47        751.1 
      1187.0         0.47        759.6 
      1188.0         0.40        763.1 
      1189.0         0.40        766.3 
      1190.0         0.42        766.9 
      1191.0         6.43       1215.1 
      1192.0         0.40        837.1 
      1193.0         0.37        809.5 
      1194.0         0.37        803.8 
      1195.0         0.43        805.7 
      1196.0         0.47        804.7 
      1197.0         0.63        797.1 
      1198.0         0.68        774.2 
      1199.0         0.60        750.8 
      1200.0         0.43        740.6 
      1201.0         0.47        733.3 
      1202.0         0.47        736.5 
      1203.0         0.47        725.1 
      1204.0         0.53        737.1 
      1205.0         0.52        746.3 
      1206.0         0.50        751.1 
      1207.0         0.57        754.3 
      1208.0         0.57        750.8 
      1209.0         0.60        750.1 
      1210.0         0.67        747.9 
      1211.0         0.58        743.1 
      1212.0         0.67        742.8 
      1213.0         0.70        739.3 
      1214.0         0.67        743.5 
      1215.0         0.83        740.3 
      1216.0         0.72        734.3 
      1217.0         0.73        734.6 
      1218.0         0.67        731.7 
      1219.0         0.30        649.5 
      1220.0         0.10        644.8 
      1221.0         5.07       1257.0 
      1222.0         0.73        956.1 
      1223.0         0.40        853.6 
      1224.0         0.40        810.4 
      1225.0         0.43        791.1 
      1226.0         0.43        778.1 
      1227.0         0.45        759.3 
      1228.0         0.43        747.6 
      1229.0         0.40        743.5 
      1230.0         0.43        744.1 
      1231.0         0.43        741.6 
      1232.0         0.43        742.2 
      1233.0         0.47        740.6 
      1234.0         0.43        737.4 
      1235.0         0.48        736.8 
      1236.0         0.43        738.4 
      1237.0         0.43        734.9 
      1238.0         0.43        732.4 
      1239.0         0.43        731.7 
      1240.0         0.43        750.8 
      1241.0         0.33        763.5 
      1242.0         0.37        766.6 
      1243.0         0.38        764.1 
      1244.0         0.33        756.5 
      1245.0         0.37        752.3 
      1246.0         0.37        747.9 
      1247.0         0.37        744.4 
      1248.0         0.37        733.0 
      1249.0         0.37        679.7 
      1250.0         0.33        672.1 
      1251.0         6.13       1580.1 
      1252.0         0.40        897.4 
      1253.0         0.40        860.9 
      1254.0         0.38        832.0 
      1255.0         0.37        805.0 
      1256.0         0.37        781.2 
      1257.0         0.33        770.1 
      1258.0         0.37        762.8 
      1259.0         0.37        752.3 
      1260.0         0.33        747.6 
      1261.0         0.33        741.6 
      1262.0         0.33        740.6 
      1263.0         0.30        739.0 
      1264.0         0.35        744.4 
      1265.0         0.37        750.8 
      1266.0         0.33        746.3 
      1267.0         0.33        743.1 
      1268.0         0.37        738.7 
      1269.0         0.37        738.4 
      1270.0         0.37        735.2 
      1271.0         0.37        724.7 
      1272.0         0.30        706.6 
      1273.0         0.30        707.0 
      1274.0         0.32        722.2 
      1275.0         0.37        731.7 
      1276.0         0.37        735.2 
      1277.0         0.50        741.6 
      1278.0         0.53        735.8 
      1279.0         0.30        658.4 
      1280.0         0.53        617.5 
