~Version Information
VERS.                      2.0: CWLS Log ASCII Standard - VERSION 2.0
WRAP.                       NO: One line per depth step
~Well Information Block
STRT.FT                10.0000: 
STOP.FT              1665.0000: 
STEP.FT                 0.1000: 
NULL.                -999.2500: 
COMP.          Pioneer Natural Resources: COMPANY
WELL.          Stock Canyon 34-33: WELL
FLD.           Purgatorie River: FIELD
LOC.           980' FSL & 2191' FEL: LOCATION
PROV.                 Colorado: PROVINCE
CNTY.               Las Animas: COUNTRY
SRVC.                Patterson: SERVICE COMPANY
DATE.          Mon Dec 05 10:33:50 2005: LOG DATE
UWI.                          : UNIQUE WELL ID
~Curve Information Block
DEPT.FT            0 000 00 00: Depth
DCAL.in                       : CDL Caliper
RHOB.g/cc                     : CDL Bulk Density
RHOC.g/cc                     : CDL Density Correction
DPOR.pu                       : CDL Density Porosity
GR.GAPI                       : Gamma Ray
NPOR.pu                       : Neutron Porosity
~Parameter Information Block
~A  Depth       DCAL        RHOB        RHOC        DPOR         GR         NPOR    
# ...
   115.6000      2.7444      2.4021      2.4867     -0.0050     76.8369     21.1533
   115.7000      2.7444      2.4163      2.4897     -0.0047     75.3886     20.8773
   115.8000      2.7444      2.4312      2.5264     -0.0044     76.3473     20.8744
   115.9000      2.7444      2.4343      2.4998     -0.0043     79.1006     20.8564
   116.0000      2.7444      2.4271      2.4928     -0.0045     81.8509     20.6509
   116.1000      2.7444      2.4151      2.5087     -0.0047     84.2033     20.7381
   116.2000      2.7444      2.4021      2.4773     -0.0050     85.1600     21.3898
   116.3000      2.7444      2.3963      2.4831     -0.0051     84.2369     22.2899
   116.4000      2.7444      2.3997      2.4803     -0.0050     84.3690     22.9363
   116.5000      2.7444      2.4030      2.4873     -0.0049     86.1366     22.8704
   116.6000      2.7444      2.4019      2.5180     -0.0050     86.4670     22.0371
   116.7000      2.7444      2.4019      2.4993     -0.0050     84.9175     21.1069
   116.8000      2.7444      2.4039      2.4949     -0.0049     84.4099     20.9476
   116.9000      2.7444      2.4048      2.4998     -0.0049     85.7803     21.5621
   117.0000      2.7444      2.4110      2.5131     -0.0048     86.6711     22.1905
   117.1000      2.7444      2.4281      2.5036     -0.0044     87.3746     22.1452
   117.2000      2.7444      2.4448      2.5675     -0.0041     90.4035     21.6741
   117.3000      2.7444      2.4477      2.5313     -0.0040     92.8712     21.6401
   117.4000      2.7444      2.4429      2.5091     -0.0041     91.4841     22.3149
   117.5000      2.7444      2.4395      2.5353     -0.0042     90.5581     23.0734
   117.6000      2.7444      2.4372      2.5191     -0.0043     95.0354     23.3402
   117.7000      2.7444      2.4392      2.5073     -0.0042    100.7176     23.3227
   117.8000      2.7444      2.4529      2.5348     -0.0039    102.2583     23.2045
   117.9000      2.7444      2.4771      2.5575     -0.0035    101.8120     23.0258
   118.0000      2.7444      2.5000      2.5438     -0.0030    100.9624     22.9930
   118.1000      2.7444      2.5114      2.5741     -0.0028     99.0535     23.0934
   118.2000      2.7444      2.5167      2.5654     -0.0027     97.9984     23.2405
   118.3000      2.7444      2.5301      2.5514     -0.0024     99.5511     23.5608
   118.4000      2.7444      2.5509      2.6112     -0.0020    102.4133     23.9874
   118.5000      2.7444      2.5669      2.5668     -0.0017    104.8622     24.0709
   118.6000      2.7444      2.5763      2.5835     -0.0015    103.9954     23.7861
   118.7000      2.7444      2.5785      2.5903     -0.0014     97.7891     23.5942
   118.8000      2.7444      2.5759      2.5623     -0.0015     91.4468     23.6111
   118.9000      2.7444      2.5752      2.5742     -0.0015     90.5219     23.3962
   119.0000      2.7444      2.5712      2.5663     -0.0016     93.7730     22.7864
   119.1000      2.7444      2.5584      2.5454     -0.0018     97.2764     22.4465
   119.2000      2.7444      2.5415      2.5204     -0.0022     99.0506     22.8510
   119.3000      2.7444      2.5219      2.5041     -0.0026     98.6855     23.5679
   119.4000      2.7444      2.4995      2.4906     -0.0030     95.7910     23.8403
   119.5000      2.7444      2.4856      2.4486     -0.0033     91.2456     23.4685
   119.6000      2.7444      2.4886      2.4557     -0.0032     87.7495     22.9750
   119.7000      2.7444      2.4940      2.4459     -0.0031     86.6803     22.9184
   119.8000      2.7444      2.4875      2.4081     -0.0033     87.3742     23.2340
   119.9000      2.7444      2.4789      2.4084     -0.0034     89.5562     23.1768
   120.0000      2.7444      2.4768      2.4378     -0.0035     93.2547     22.4584
   120.1000      2.7444      2.4724      2.4193     -0.0036     96.3156     21.9601
   120.2000      2.7444      2.4567      2.4151     -0.0039     97.6568     22.3289
   120.3000      2.7444      2.4318      2.3916     -0.0044     97.6730     23.0430
   120.4000      2.7444      2.4106      2.3691     -0.0048     95.0484     23.3388
   120.5000      2.7444      2.3999      2.4145     -0.0050     89.7828     23.3032
   120.6000      2.7444      2.3929      2.3844     -0.0051     85.8538     23.2801
   120.7000      2.7444      2.3840      2.3841     -0.0053     86.6171     23.1540
   120.8000      2.7444      2.3737      2.3611     -0.0055     90.6537     22.9247
   120.9000      2.7444      2.3657      2.3453     -0.0057     92.2597     22.8497
   121.0000      2.7444      2.3580      2.3893     -0.0058     88.4669     22.7492
   121.1000      2.7444      2.3443      2.3540     -0.0061     83.6900     22.4123
   121.2000      2.7444      2.3285      2.3805     -0.0064     82.4125     22.1798
   121.3000      2.7444      2.3213      2.3098     -0.0066     84.1425     22.4001
   121.4000      2.7444      2.3297      2.3328     -0.0064     86.4309     22.7726
   121.5000      2.7444      2.3481      2.3877     -0.0060     86.8604     22.9407
   121.6000      2.7444      2.3688      2.3927     -0.0056     85.2200     23.0400
   121.7000      2.7444      2.3921      2.4042     -0.0052     84.4667     23.1530
   121.8000      2.7444      2.4123      2.4649     -0.0048     84.4555     23.0934
   121.9000      2.7444      2.4207      2.4860     -0.0046     81.9101     22.8037
   122.0000      2.7444      2.4240      2.4387     -0.0045     79.4926     22.5655
   122.1000      2.7444      2.4277      2.4730     -0.0044     80.5106     22.6360
   122.2000      2.7444      2.4238      2.4673     -0.0045     82.4672     22.8131
   122.3000      2.7444      2.4153      2.4555     -0.0047     83.8394     22.7835
   122.4000      2.7444      2.4108      2.4881     -0.0048     83.9693     22.7286
   122.5000      2.7444      2.4105      2.4592     -0.0048     82.0456     22.8539
   122.6000      2.7444      2.4157      2.4720     -0.0047     79.9086     22.6899
   122.7000      2.7444      2.4282      2.4679     -0.0044     78.4499     21.9556
   122.8000      2.7444      2.4439      2.4898     -0.0041     75.9066     21.1907
   122.9000      2.7444      2.4593      2.4734     -0.0038     72.4999     20.6539
   123.0000      2.7444      2.4718      2.5198     -0.0036     71.9177     20.0046
   123.1000      2.7444      2.4807      2.4885     -0.0034     74.6927     19.3279
   123.2000      2.7444      2.4920      2.4922     -0.0032     78.0681     19.0107
   123.3000      2.7444      2.5011      2.5393     -0.0030     80.9275     18.9542
   123.4000      2.7444      2.4980      2.4917     -0.0030     81.8606     18.7759
   123.5000      2.7444      2.4923      2.4725     -0.0032     80.7761     18.5858
   123.6000      2.7444      2.4946      2.5304     -0.0031     80.0655     18.8296
   123.7000      2.7444      2.4961      2.5176     -0.0031     79.9024     19.3318
   123.8000      2.7444      2.4866      2.4909     -0.0033     78.9277     19.7104
   123.9000      2.7444      2.4724      2.4654     -0.0036     77.9542     20.1137
   124.0000      2.7444      2.4707      2.4240     -0.0036     77.4004     20.5900
   124.1000      2.7444      2.4863      2.4407     -0.0033     76.3378     20.6651
   124.2000      2.7444      2.5056      2.4748     -0.0029     75.9244     20.4029
   124.3000      2.7444      2.5201      2.4383     -0.0026     77.5114     20.4442
   124.4000      2.7444      2.5321      2.4328     -0.0024     79.6860     20.7817
   124.5000      2.7444      2.5368      2.4490     -0.0023     80.0325     20.8826
   124.6000      2.7444      2.5267      2.4326     -0.0025     78.1901     20.6457
   124.7000      2.7444      2.5055      2.4086     -0.0029     75.9413     20.5066
   124.8000      2.7444      2.4843      2.3527     -0.0033     74.5050     20.9048
   124.9000      2.7444      2.4715      2.3596     -0.0036     73.7151     21.6662
   125.0000      2.7444      2.4679      2.3657     -0.0036     73.9762     22.0278
   125.1000      2.7444      2.4734      2.3700     -0.0035     76.4297     21.7671
