~Version Information
VERS.                      2.0: CWLS Log ASCII Standard - VERSION 2.0
WRAP.                       NO: One line per depth step
~Well Information Block
STRT.FT                10.0000: 
STOP.FT              1485.0000: 
STEP.FT                 0.1000: 
NULL.                -999.2500: 
COMP.          Pioneer Natural Resources: COMPANY
WELL.          Old Faithful 21-2: WELL
FLD.           Purgatorie River: FIELD
LOC.           806' FNL & 2509' FWL: LOCATION
PROV.                 Colorado: PROVINCE
CNTY.               Las Animas: COUNTRY
SRVC.                Patterson: SERVICE COMPANY
DATE.          Wed Dec 07 13:17:12 2005: LOG DATE
UWI.                          : UNIQUE WELL ID
~Curve Information Block
DEPT.FT            0 000 00 00: Depth
DCAL.in                       : CDL Caliper
RHOB.g/cc                     : CDL Bulk Density
RHOC.g/cc                     : CDL Density Correction
DPOR.pu                       : CDL Density Porosity
GR.GAPI                       : Gamma Ray
NPOR.pu                       : Neutron Porosity
~Parameter Information Block
~A  Depth       DCAL        RHOB        RHOC        DPOR         GR         NPOR    
# ...
   883.6000      8.0801      2.5790      0.0543      4.3061    129.2238     22.0874
   883.7000      8.0801      2.5725      0.0420      4.6970    136.3472     22.2714
   883.8000      8.0628      2.5719      0.0596      4.7332    142.7067     22.5756
   883.9000      8.0628      2.5725      0.0669      4.6952    148.4893     22.9577
   884.0000      8.0625      2.5720      0.0547      4.7267    152.6513     23.4921
   884.1000      8.0625      2.5747      0.0416      4.5633    155.2351     24.2748
   884.2000      8.0625      2.5847      0.0155      3.9601    157.5648     25.0542
   884.3000      8.0732      2.5989      0.0322      3.0965    157.4225     25.5609
   884.4000      8.0732      2.6089      0.0554      2.4896    152.6792     25.9053
   884.5000      8.0822      2.6144      0.0520      2.1569    146.7542     26.3328
   884.6000      8.0822      2.6219      0.0510      1.7011    143.6629     26.8502
   884.7000      8.0822      2.6293      0.0378      1.2537    142.6075     27.2528
   884.8000      8.0722      2.6255      0.0552      1.4862    140.3323     27.4280
   884.9000      8.0722      2.6109      0.0207      2.3680    136.2460     27.3804
   885.0000      8.0745      2.6009      0.0192      2.9781    131.6374     27.2479
   885.1000      8.0745      2.6038      0.0127      2.7978    128.0936     27.2567
   885.2000      8.0745      2.6177      0.0312      1.9596    125.8499     27.4409
   885.3000      8.0656      2.6345      0.0403      0.9392    124.1138     27.6351
   885.4000      8.0656      2.6443      0.0389      0.3463    124.0517     27.5182
   885.5000      8.0706      2.6460      0.0349      0.2435    124.3739     27.0958
   885.6000      8.0706      2.6476      0.0528      0.1442    122.2242     26.5980
   885.7000      8.0706      2.6478      0.0654      0.1354    119.0732     25.9776
   885.8000      8.0604      2.6367      0.0781      0.8043    118.1880     25.2389
   885.9000      8.0604      2.6128      0.0308      2.2529    121.4233     24.5737
   886.0000      8.0645      2.5811      0.0490      4.1732    128.7978     24.0476
   886.1000      8.0645      2.5586     -0.0410      5.5404    136.8638     23.5432
   886.2000      8.0645      2.5589      0.0396      5.5194    142.9260     23.0076
   886.3000      8.0675      2.5684      0.0095      4.9467    147.1815     22.8803
   886.4000      8.0675      2.5757      0.0166      4.5055    148.9553     23.6000
   886.5000      8.0668      2.5800      0.0674      4.2447    150.2361     24.6386
   886.6000      8.0668      2.5756      0.0545      4.5074    153.3070     25.2071
   886.7000      8.0668      2.5681      0.0052      4.9644    154.6761     25.3322
   886.8000      8.0766      2.5699      0.0564      4.8532    152.9854     25.4255
   886.9000      8.0766      2.5768      0.0456      4.4376    152.5432     25.6461
   887.0000      8.0662      2.5778      0.0528      4.3760    155.1244     25.8742
   887.1000      8.0662      2.5760      0.0456      4.4832    158.4234     25.9757
   887.2000      8.0662      2.5829      0.0403      4.0687    159.4995     26.1162
   887.3000      8.0733      2.5997      0.0860      3.0512    157.2866     26.4107
   887.4000      8.0733      2.6224      0.0384      1.6757    154.0425     26.6452
   887.5000      8.0717      2.6515      0.0658     -0.0928    151.5436     26.7051
   887.6000      8.0717      2.6726      0.1369     -1.3712    149.6059     26.8017
   887.7000      8.0717      2.6610      0.1083     -0.6669    148.8229     27.0401
   887.8000      8.0683      2.6174      0.0867      1.9728    147.9828     27.0836
   887.9000      8.0683      2.5701      0.0038      4.8417    145.1694     26.8627
   888.0000      8.0562      2.5445      0.0053      6.3966    141.7305     26.6097
   888.1000      8.0562      2.5402      0.0258      6.6541    140.5040     26.2439
   888.2000      8.0562      2.5429      0.0363      6.4901    144.0474     25.7777
   888.3000      8.0647      2.5468     -0.0150      6.2550    150.3457     25.4170
   888.4000      8.0647      2.5525     -0.0072      5.9107    153.6088     25.2407
   888.5000      8.0620      2.5575      0.0186      5.6037    153.4932     25.4083
   888.6000      8.0620      2.5668     -0.0107      5.0438    153.4428     25.8726
   888.7000      8.0620      2.5870      0.0703      3.8181    155.1386     26.1561
   888.8000      8.0539      2.6201      0.0244      1.8138    158.1146     26.1545
   888.9000      8.0539      2.6588      0.1146     -0.5304    160.6802     26.1167
   889.0000      8.0711      2.6799      0.0688     -1.8134    158.0319     26.1330
   889.1000      8.0711      2.6789      0.0645     -1.7541    149.2990     26.4258
   889.2000      8.0711      2.6736      0.0683     -1.4302    142.6726     26.9288
   889.3000      8.0554      2.6686      0.0578     -1.1291    142.9319     27.2078
   889.4000      8.0554      2.6588      0.0138     -0.5305    146.1459     27.1961
   889.5000      8.0638      2.6467     -0.0012      0.2030    148.6977     26.9795
   889.6000      8.0638      2.6320      0.0053      1.0930    148.7626     26.5777
   889.7000      8.0638      2.6055      0.0245      2.6966    145.8978     26.2807
   889.8000      8.0758      2.5707     -0.0003      4.8073    144.7432     26.3292
   889.9000      8.0758      2.5423      0.0014      6.5271    150.0544     26.3507
   890.0000      8.1374      2.5279     -0.0321      7.4019    159.4533     25.8950
   890.1000      8.1374      2.5317     -0.0501      7.1712    164.7280     25.0512
   890.2000      8.1374      2.5484      0.0113      6.1590    162.6557     24.4115
   890.3000      8.1683      2.5588      0.0421      5.5261    159.3105     24.3645
   890.4000      8.1683      2.5616      0.0169      5.3573    159.0778     24.5493
   890.5000      8.1789      2.5733      0.0369      4.6473    159.9400     24.6054
   890.6000      8.1789      2.5931      0.0597      3.4510    160.6650     24.5499
   890.7000      8.1789      2.5994      0.0526      3.0648    164.0578     24.4980
   890.8000      8.1346      2.5822      0.0591      4.1088    170.2448     24.5598
   890.9000      8.1346      2.5605      0.0109      5.4239    174.3778     24.5026
   891.0000      8.0958      2.5626      0.0612      5.2966    173.8730     24.2193
   891.1000      8.0958      2.5876      0.0805      3.7834    171.4030     23.9900
   891.2000      8.0958      2.6100      0.1099      2.4269    169.3537     23.8869
   891.3000      8.1174      2.6111      0.1065      2.3580    166.6372     23.8090
   891.4000      8.1174      2.5950      0.0739      3.3343    164.1887     23.8900
   891.5000      8.1031      2.5867     -0.0131      3.8388    164.8697     24.3032
   891.6000      8.1031      2.6038      0.0690      2.8015    167.5110     24.7727
   891.7000      8.1031      2.6282      0.0942      1.3222    168.0916     25.0599
   891.8000      8.1004      2.6371      0.0584      0.7839    163.6623     25.3429
   891.9000      8.1004      2.6340     -0.0039      0.9694    156.1536     25.5872
   892.0000      8.0761      2.6315      0.0413      1.1197    149.6614     25.4716
   892.1000      8.0761      2.6314      0.0773      1.1280    143.8046     25.0140
   892.2000      8.0761      2.6261      0.0608      1.4458    137.8909     24.5243
   892.3000      8.0466      2.6143      0.0223      2.1623    132.4526     24.1880
   892.4000      8.0466      2.6113     -0.0215      2.3426    128.7727     24.1292
   892.5000      8.0343      2.6267      0.0398      1.4098    130.3838     24.3273
   892.6000      8.0343      2.6429      0.0715      0.4273    135.8174     24.5389
   892.7000      8.0343      2.6473      0.0451      0.1667    139.8206     24.6232
   892.8000      8.0476      2.6451      0.0893      0.2990    142.2777     24.5110
   892.9000      8.0476      2.6356      0.0734      0.8711    144.8507     24.1758
   893.0000      8.0605      2.6191     -0.0274      1.8735    147.0884     23.8773
   893.1000      8.0605      2.6027      0.0398      2.8682    149.5044     23.7228
