~Version Information
VERS.                      2.0: CWLS Log ASCII Standard - VERSION 2.0
WRAP.                       NO: One line per depth step
~Well Information Block
STRT.FT               196.3000: 
STOP.FT              1631.0000: 
STEP.FT                 0.1000: 
NULL.                -999.2500: 
COMP.          Petrogulf Corporation: COMPANY
WELL.             State 16-44R: WELL
FLD.           Purgatoire River: FIELD
LOC.           632' FSL & 223' FEL--: LOCATION
PROV.                 Colorado: PROVINCE
CNTY.               Las Animas: COUNTRY
SRVC.                Patterson: SERVICE COMPANY
DATE.          Fri Oct 21 14:20:18 2005: LOG DATE
UWI.           05 071 08457 00: UNIQUE WELL ID
~Curve Information Block
DEPT.FT            0 000 00 00: Depth
DCAL.in                       : CDL Caliper
RHOB.g/cc                     : CDL Bulk Density
RHOC.g/cc                     : CDL Density Correction
DPOR.pu                       : CDL Density Porosity
NPOR.pu                       : Neutron Porosity
GR.GAPI                       : Gamma Ray
~Parameter Information Block
~A  Depth       DCAL        RHOB        RHOC        DPOR        NPOR         GR     
# ...
   205.9000   -999.2500   -999.2500   -999.2500   -999.2500     51.5412    108.0454
   206.0000   -999.2500   -999.2500   -999.2500   -999.2500     51.8325    103.2097
   206.1000   -999.2500   -999.2500   -999.2500   -999.2500     52.2556    104.3594
   206.2000   -999.2500   -999.2500   -999.2500   -999.2500     52.4716    111.0938
   206.3000   -999.2500   -999.2500   -999.2500   -999.2500     52.2858    115.0739
   206.4000   -999.2500   -999.2500   -999.2500   -999.2500     52.0050    113.6554
   206.5000   -999.2500   -999.2500   -999.2500   -999.2500     51.9676    113.0905
   206.6000   -999.2500   -999.2500   -999.2500   -999.2500     52.1567    114.0601
   206.7000   -999.2500   -999.2500   -999.2500   -999.2500     52.3355    113.9598
   206.8000   -999.2500   -999.2500   -999.2500   -999.2500     52.4714    112.4761
   206.9000   -999.2500   -999.2500   -999.2500   -999.2500     52.6151    110.0024
   207.0000   -999.2500   -999.2500   -999.2500   -999.2500     52.6028    107.9657
   207.1000   -999.2500   -999.2500   -999.2500   -999.2500     52.3075    106.1700
   207.2000   -999.2500   -999.2500   -999.2500   -999.2500     51.8173    105.1934
   207.3000   -999.2500   -999.2500   -999.2500   -999.2500     51.3326    106.5303
   207.4000   -999.2500   -999.2500   -999.2500   -999.2500     51.2069    108.6655
   207.5000   -999.2500   -999.2500   -999.2500   -999.2500     51.6547    107.4095
   207.6000   -999.2500   -999.2500   -999.2500   -999.2500     52.2481    104.3244
   207.7000   -999.2500   -999.2500   -999.2500   -999.2500     52.4891    105.3212
   207.8000   -999.2500   -999.2500   -999.2500   -999.2500     52.4128    109.2265
   207.9000   -999.2500   -999.2500   -999.2500   -999.2500     52.2065    110.3830
   208.0000   -999.2500   -999.2500   -999.2500   -999.2500     52.0537    109.9420
   208.1000   -999.2500   -999.2500   -999.2500   -999.2500     52.2471    109.3014
   208.2000   -999.2500   -999.2500   -999.2500   -999.2500     52.7705    106.1998
   208.3000   -999.2500   -999.2500   -999.2500   -999.2500     53.2879    102.8135
   208.4000   -999.2500   -999.2500   -999.2500   -999.2500     53.7135    103.4311
   208.5000   -999.2500   -999.2500   -999.2500   -999.2500     53.9090    103.2365
   208.6000   -999.2500   -999.2500   -999.2500   -999.2500     53.6877     96.7496
   208.7000   -999.2500   -999.2500   -999.2500   -999.2500     53.4343     90.3498
   208.8000   -999.2500   -999.2500   -999.2500   -999.2500     53.4322     90.4112
   208.9000   -999.2500   -999.2500   -999.2500   -999.2500     53.4035     92.3355
   209.0000   -999.2500   -999.2500   -999.2500   -999.2500     53.2662     91.9027
   209.1000   -999.2500   -999.2500   -999.2500   -999.2500     53.1398     92.2748
   209.2000   -999.2500   -999.2500   -999.2500   -999.2500     52.9841     93.9125
   209.3000   -999.2500   -999.2500   -999.2500   -999.2500     52.7940     92.9350
   209.4000   -999.2500   -999.2500   -999.2500   -999.2500     52.6684     89.9953
   209.5000   -999.2500   -999.2500   -999.2500   -999.2500     52.7548     89.3520
   209.6000   -999.2500   -999.2500   -999.2500   -999.2500     53.0664     90.6446
   209.7000   -999.2500   -999.2500     -0.0216   -999.2500     53.3046     88.9154
   209.8000   -999.2500   -999.2500      0.0145   -999.2500     53.1703     84.2463
   209.9000   -999.2500   -999.2500      0.0019   -999.2500     52.9003     81.1164
   210.0000   -999.2500   -999.2500     -0.0352   -999.2500     52.9543     79.6886
   210.1000   -999.2500   -999.2500     -0.0234   -999.2500     53.1982     76.9032
   210.2000   -999.2500      1.8165     -0.0481     50.5130     53.3773     72.7627
   210.3000      0.1320      1.7644     -0.0611     53.6757     53.7122     68.7581
   210.4000      0.1320      1.7144     -0.1058     56.7048     54.2085     64.1138
   210.5000      0.1298      1.6689     -0.1036     59.4617     54.3276     57.5260
   210.6000      0.1298      1.6250     -0.1292     62.1194     53.7532     50.9467
   210.7000      0.1298      1.5867     -0.1685     64.4400     52.9978     49.0730
   210.8000      0.1277      1.5622     -0.1531     65.9252     52.7414     53.6696
   210.9000      0.1277      1.5533     -0.1726     66.4650     52.9087     59.6876
   211.0000      0.1243      1.5543     -0.1500     66.4083     53.0895     61.7246
   211.1000      0.1243      1.5560     -0.1737     66.3013     53.1896     60.0605
   211.2000      0.1243      1.5570     -0.1725     66.2422     53.4158     58.1745
   211.3000      0.1216      1.5651     -0.1868     65.7521     53.8021     59.0779
   211.4000      0.1216      1.5831     -0.1454     64.6578     54.1206     61.0661
   211.5000      0.1264      1.6032     -0.1537     63.4426     54.3464     62.3768
   211.6000      0.1264      1.6239     -0.1722     62.1860     54.4351     64.4804
   211.7000      0.1264      1.6497     -0.1411     60.6252     54.1863     65.8431
   211.8000      0.1350      1.6735     -0.1284     59.1808     53.7761     64.6576
   211.9000      0.1350      1.6836     -0.1029     58.5712     53.5878     62.9627
   212.0000      0.1399      1.6784     -0.1486     58.8831     53.5501     60.9653
   212.1000      0.1399      1.6649     -0.1349     59.7046     53.4801     56.6923
   212.2000      0.1399      1.6476     -0.1537     60.7523     53.4399     52.8872
   212.3000      0.1402      1.6336     -0.1628     61.5989     53.5442     53.6375
   212.4000      0.1402      1.6303     -0.1429     61.8020     53.8547     56.9923
   212.5000      0.1380      1.6350     -0.1599     61.5155     54.1201     57.8684
   212.6000      0.1380      1.6405     -0.1403     61.1817     54.0259     55.1868
   212.7000      0.1380      1.6477     -0.1851     60.7443     53.7071     51.8133
   212.8000      0.1393      1.6645     -0.1317     59.7295     53.5078     49.4161
   212.9000      0.1393      1.6946     -0.1478     57.9014     53.3022     50.0699
   213.0000      0.1443      1.7396     -0.1184     55.1734     52.9575     56.4060
   213.1000      0.1443      1.7964     -0.1002     51.7355     52.7911     65.6455
   213.2000      0.1443      1.8530     -0.0667     48.3050     52.8493     75.4991
   213.3000      0.1486      1.8959     -0.0384     45.7051     52.9969     85.8356
   213.4000      0.1486      1.9270     -0.0749     43.8190     53.1378     91.1314
   213.5000      0.1522      1.9605     -0.0441     41.7895     53.1369     88.6734
   213.6000      0.1522      1.9928      0.0095     39.8302     53.0291     86.2266
   213.7000      0.1522      2.0082     -0.0080     38.8947     52.8020     89.8883
   213.8000      0.1543      2.0064      0.0009     39.0070     52.4982     97.1205
   213.9000      0.1543      1.9985      0.0004     39.4824     52.4747    103.2405
   214.0000      0.1548      1.9959     -0.0252     39.6432     52.7948    105.0839
   214.1000      0.1548      2.0005      0.0318     39.3661     53.0676    102.9555
   214.2000      0.1548      2.0009      0.0447     39.3409     52.9776    100.0813
   214.3000      0.1543      1.9915      0.0097     39.9107     52.6673     97.1867
   214.4000      0.1543      1.9810      0.0072     40.5425     52.5602     94.1615
   214.5000      0.1537      1.9756      0.0268     40.8741     52.7416     92.4838
   214.6000      0.1537      1.9718      0.0039     41.1038     53.0227     91.3339
   214.7000      0.1537      1.9654      0.0219     41.4913     53.1762     88.2811
   214.8000      0.1558      1.9583     -0.0140     41.9222     53.0626     84.8453
   214.9000      0.1558      1.9586      0.0119     41.9004     52.8419     84.5992
   215.0000      0.1593      1.9672      0.0152     41.3789     52.6709     87.0604
   215.1000      0.1593      1.9750      0.0288     40.9121     52.6295     87.8881
   215.2000      0.1593      1.9804      0.0099     40.5792     52.5985     86.6584
   215.3000      0.1622      1.9979      0.0001     39.5235     52.3372     87.7053
   215.4000      0.1622      2.0338      0.0666     37.3449     52.0627     91.9307
