~Version Information
VERS.                      2.0: CWLS Log ASCII Standard - VERSION 2.0
WRAP.                       NO: One line per depth step
~Well Information Block
STRT.FT               233.8000: 
STOP.FT              1692.5000: 
STEP.FT                 0.1000: 
NULL.                -999.2500: 
COMP.          Pioneer Natural Resources: COMPANY
WELL.            Relay 12-7 Tr: WELL
FLD.           Purgatoire River: FIELD
LOC.           2025' FNL & 790' FWL: LOCATION
PROV.                 Colorado: PROVINCE
CNTY.               Las Animas: COUNTRY
SRVC.                Patterson: SERVICE COMPANY
DATE.          Mon Jan 16 13:23:17 2006: LOG DATE
UWI.           05 071 08603 00: UNIQUE WELL ID
~Curve Information Block
DEPT.FT            0 000 00 00: Depth
DCAL.in                       : CDL Caliper
RHOB.g/cc                     : CDL Bulk Density
RHOC.g/cc                     : CDL Density Correction
DPOR.pu                       : CDL Density Porosity
GR.GAPI                       : Gamma Ray
~Parameter Information Block
~A  Depth       DCAL        RHOB        RHOC        DPOR         GR     
# ...
   917.0000      7.9455      2.4979      0.1460      9.2193    143.7455
   917.1000      7.9455      2.4686      0.1124     10.9967    147.2158
   917.2000      7.9455      2.4231      0.0461     13.7514    147.5020
   917.3000      7.9479      2.3805      0.0521     16.3353    143.0165
   917.4000      7.9479      2.3480      0.0038     18.3041    137.2388
   917.5000      7.9988      2.3299     -0.0144     19.4005    134.9830
   917.6000      7.9988      2.3372     -0.0348     18.9595    137.0312
   917.7000      7.9988      2.3635      0.0515     17.3648    138.9547
   917.8000      8.0417      2.3822      0.0760     16.2289    138.9087
   917.9000      8.0417      2.3927      0.0245     15.5923    140.1106
   918.0000      8.0505      2.4159      0.1337     14.1862    144.4276
   918.1000      8.0505      2.4498      0.2296     12.1335    146.6198
   918.2000      8.0505      2.4831      0.2576     10.1180    141.0346
   918.3000      7.9864      2.5111      0.2944      8.4190    134.4770
   918.4000      7.9864      2.5248      0.3302      7.5854    135.9008
   918.5000      7.8114      2.5230      0.2946      7.6967    140.8235
   918.6000      7.8114      2.5183      0.2321      7.9806    141.7122
   918.7000      7.8114      2.5135      0.2405      8.2735    140.9700
   918.8000      7.7527      2.4953      0.2184      9.3732    143.6823
   918.9000      7.7527      2.4630      0.1415     11.3313    148.7524
   919.0000      7.8063      2.4374      0.1116     12.8866    151.8794
   919.1000      7.8063      2.4273      0.1620     13.4982    151.3575
   919.2000      7.8063      2.4204      0.1496     13.9132    149.1201
   919.3000      7.9364      2.4109      0.1323     14.4914    146.5219
   919.4000      7.9364      2.4017      0.1191     15.0479    145.3065
   919.5000      7.9719      2.3934      0.1170     15.5504    146.7924
   919.6000      7.9719      2.3846      0.1070     16.0862    147.8060
   919.7000      7.9719      2.3746      0.1029     16.6903    148.1857
   919.8000      7.9813      2.3661      0.1345     17.2086    150.4878
   919.9000      7.9813      2.3542      0.1485     17.9276    152.2839
   920.0000      7.9666      2.3268      0.1749     19.5851    152.5651
   920.1000      7.9666      2.2845      0.1868     22.1494    151.7733
   920.2000      7.9666      2.2429      0.1576     24.6733    148.7026
   920.3000      7.9985      2.2174      0.0791     26.2192    144.2247
   920.4000      7.9985      2.2077      0.1383     26.8063    140.1967
   920.5000      8.1123      2.2028      0.0724     27.1011    138.0153
   920.6000      8.1123      2.2027      0.1147     27.1117    139.5781
   920.7000      8.1123      2.2035      0.1803     27.0618    143.8039
   920.8000      8.1012      2.1995      0.1391     27.3022    147.2012
   920.9000      8.1012      2.1970      0.1474     27.4560    147.4173
   921.0000      7.9965      2.1976      0.0878     27.4202    143.3143
   921.1000      7.9965      2.2044      0.0643     27.0089    137.9063
   921.2000      7.9965      2.2304      0.0387     25.4330    135.7244
   921.3000      7.9860      2.2764      0.0882     22.6423    137.4272
   921.4000      7.9860      2.3231      0.1616     19.8103    139.6029
   921.5000      8.0231      2.3571      0.1405     17.7533    138.6345
   921.6000      8.0231      2.3844      0.1495     16.0941    137.8733
   921.7000      8.0231      2.4051      0.1307     14.8400    142.8385
   921.8000      8.0316      2.4086      0.0989     14.6281    150.9963
   921.9000      8.0316      2.3960      0.1198     15.3932    156.3691
   922.0000      8.0005      2.3755      0.1062     16.6365    156.7399
   922.1000      8.0005      2.3590      0.0698     17.6335    152.5229
   922.2000      8.0005      2.3600      0.1014     17.5786    146.0211
   922.3000      8.0072      2.3677      0.1703     17.1082    142.8335
   922.4000      8.0072      2.3580      0.1503     17.6969    147.3290
   922.5000      8.0357      2.3357      0.1049     19.0511    155.2361
   922.6000      8.0357      2.3211      0.1628     19.9358    156.9565
   922.7000      8.0357      2.3120      0.1541     20.4869    151.6137
   922.8000      8.0717      2.3011      0.1486     21.1437    145.0775
   922.9000      8.0717      2.2936      0.1346     21.6008    140.3017
   923.0000      8.0696      2.2944      0.1536     21.5520    138.7266
   923.1000      8.0696      2.3043      0.1761     20.9491    142.2419
   923.2000      8.0696      2.3273      0.1351     19.5551    148.1145
   923.3000      8.0862      2.3575      0.1939     17.7298    150.8643
   923.4000      8.0862      2.3729      0.1761     16.7934    149.8325
   923.5000      8.0173      2.3769      0.1812     16.5531    147.7175
   923.6000      8.0173      2.3899      0.2405     15.7642    147.1087
   923.7000      8.0173      2.4091      0.2277     14.6000    149.5780
   923.8000      7.9726      2.4191      0.2639     13.9910    154.5416
   923.9000      7.9726      2.4176      0.2123     14.0837    158.4373
   924.0000      7.9771      2.4110      0.2488     14.4877    157.7388
   924.1000      7.9771      2.3936      0.2379     15.5416    151.4628
   924.2000      7.9771      2.3675      0.1717     17.1188    143.9247
   924.3000      8.0729      2.3642      0.1115     17.3215    142.1973
   924.4000      8.0729      2.4082      0.1526     14.6530    147.1961
   924.5000      8.3482      2.4767      0.2008     10.5048    152.4149
   924.6000      8.3482      2.5196      0.2191      7.9024    153.5489
   924.7000      8.3482      2.5201      0.0813      7.8724    150.4074
   924.8000      8.4450      2.5028      0.0783      8.9226    146.4811
   924.9000      8.4450      2.4852      0.0515      9.9900    143.9665
   925.0000      8.1212      2.4599      0.0476     11.5219    141.8318
   925.1000      8.1212      2.4189      0.0047     14.0055    138.8182
   925.2000      8.1212      2.3606      0.0274     17.5372    133.0595
   925.3000      8.0079      2.2799     -0.0119     22.4330    126.0246
   925.4000      8.0079      2.1842     -0.0371     28.2318    122.9843
   925.5000      7.9854      2.1015     -0.0718     33.2406    124.2258
   925.6000      7.9854      2.0536     -0.1237     36.1474    125.8957
   925.7000      7.9854      2.0253     -0.0631     37.8620    126.8541
   925.8000      7.9537      1.9752     -0.0175     40.8944    127.2351
   925.9000      7.9537      1.8935     -0.0358     45.8498    127.7765
   926.0000      8.0431      1.8081      0.0088     51.0243    128.2758
   926.1000      8.0431      1.7282      0.1175     55.8672    126.9679
   926.2000      8.0431      1.6421      0.0170     61.0870    124.2903
   926.3000      8.1669      1.5551     -0.0508     66.3572    122.0854
   926.4000      8.1669      1.4760     -0.0597     71.1541    121.0946
   926.5000      8.1612      1.4012     -0.0561     75.6827    117.3561
   926.6000      8.1612      1.3384     -0.1044     79.4922    107.6613
   926.7000      8.1612      1.3053     -0.0303     81.4973     97.1489
   926.8000      8.0523      1.3005      0.0185     81.7850     89.4919
   926.9000      8.0523      1.3071      0.0623     81.3867     83.4634
   927.0000      8.1238      1.3178      0.0487     80.7419     81.2241
   927.1000      8.1238      1.3353      0.0580     79.6775     82.3362
   927.2000      8.1238      1.3578      0.1049     78.3131     81.9251
   927.3000      8.4350      1.3843      0.0895     76.7090     79.1707
   927.4000      8.4350      1.4322      0.0792     73.8053     76.9492
   927.5000      8.4105      1.5242      0.1161     68.2328     76.4904
   927.6000      8.4105      1.6541      0.2149     60.3602     78.3795
   927.7000      8.4105      1.7923      0.2998     51.9799     83.3302
   927.8000      8.1057      1.9237      0.3303     44.0154     90.0163
   927.9000      8.1057      2.0492      0.3554     36.4126     93.7127
   928.0000      8.1736      2.1641      0.3467     29.4473     92.9219
   928.1000      8.1736      2.2653      0.3286     23.3154     91.4576
