~Version Information
VERS.                      2.0: CWLS Log ASCII Standard - VERSION 2.0
WRAP.                       NO: One line per depth step
~Well Information Block
STRT.FT               845.0000: 
STOP.FT              2102.0000: 
STEP.FT                 0.1000: 
NULL.                -999.2500: 
COMP.          Petrogulf Corporation: COMPANY
WELL.               YWAM 7-32R: WELL
FLD.           Purgatorie River: FIELD
LOC.           2355' FNL & 2376' FEL: LOCATION
PROV.                 Colorado: PROVINCE
CNTY.               Las Animas: COUNTRY
SRVC.                Patterson: SERVICE COMPANY
DATE.          Fri Sep 30 11:07:31 2005: LOG DATE
UWI.                          : UNIQUE WELL ID
~Curve Information Block
DEPT.FT            0 000 00 00: Depth
DCAL.in                       : CDL Caliper
RHOB.g/cc                     : CDL Bulk Density
RHOC.g/cc                     : CDL Density Correction
DPOR.pu                       : CDL Density Porosity
GR.GAPI                       : Gamma Ray
NPOR.pu                       : Neutron Porosity
~Parameter Information Block
~A  Depth       DCAL        RHOB        RHOC        DPOR         GR         NPOR    
# ...
  1757.0000      8.9634      2.6181      0.3309      1.9308    155.0819     30.9056
  1757.1000      8.9634      2.5683      0.2386      4.9513    158.6120     30.7662
  1757.2000      8.9634      2.4971      0.1228      9.2650    160.8067     30.2566
  1757.3000      8.6230      2.4335      0.1144     13.1183    163.5861     29.7312
  1757.4000      8.6230      2.3883      0.0383     15.8635    166.1853     29.5079
  1757.5000      8.1014      2.3708     -0.0076     16.9198    163.9303     29.4977
  1757.6000      8.1014      2.3810      0.0468     16.3056    157.6814     29.5891
  1757.7000      8.1014      2.3944      0.0743     15.4909    151.3779     29.7834
  1757.8000      7.9694      2.3948      0.0385     15.4643    147.9782     29.8823
  1757.9000      7.9694      2.3891      0.0459     15.8111    147.5780     29.7259
  1758.0000      8.0031      2.3833      0.0762     16.1650    148.0400     29.3480
  1758.1000      8.0031      2.3814     -0.0006     16.2803    148.2543     28.8076
  1758.2000      8.0031      2.3913      0.0704     15.6793    146.2980     28.4918
  1758.3000      7.9552      2.4081      0.0515     14.6619    142.4950     28.9363
  1758.4000      7.9552      2.4142      0.1037     14.2910    140.8547     29.7892
  1758.5000      7.9534      2.4059      0.0240     14.7936    142.1431     30.3429
  1758.6000      7.9534      2.4065      0.0040     14.7546    143.0098     30.4128
  1758.7000      7.9534      2.4354      0.0242     13.0048    141.0569     29.8545
  1758.8000      7.9529      2.4868      0.0674      9.8926    136.7012     28.9085
  1758.9000      7.9529      2.5456      0.0667      6.3269    130.6758     28.2500
  1759.0000      7.9219      2.5939      0.1124      3.4003    123.6876     27.9713
  1759.1000      7.9219      2.6167      0.0862      2.0170    117.1675     27.7486
  1759.2000      7.9219      2.6256      0.0431      1.4781    111.7500     27.3143
  1759.3000      7.8899      2.6406      0.0988      0.5690    107.5613     26.6364
  1759.4000      7.8899      2.6576      0.1082     -0.4576    104.9238     25.9287
  1759.5000      7.8708      2.6716      0.0866     -1.3094    102.2798     25.4560
  1759.6000      7.8708      2.6887      0.0988     -2.3431     97.4651     25.4364
  1759.7000      7.8708      2.7026      0.1184     -3.1851     90.6689     25.5308
  1759.8000      7.8529      2.7078      0.0248     -3.5048     84.0126     25.1398
  1759.9000      7.8529      2.7098      0.0559     -3.6251     80.2547     24.2674
  1760.0000      7.8608      2.7086      0.0548     -3.5527     78.1949     23.4687
  1760.1000      7.8608      2.7096      0.0536     -3.6148     74.2153     23.1056
  1760.2000      7.8608      2.7170      0.0543     -4.0589     69.8772     22.8139
  1760.3000      7.8819      2.7153      0.0534     -3.9571     68.3991     22.1838
  1760.4000      7.8819      2.6899      0.0396     -2.4152     68.6976     21.3848
  1760.5000      7.9047      2.6503      0.0319     -0.0155     69.4402     20.7735
  1760.6000      7.9047      2.6159     -0.0339      2.0660     72.1881     20.3846
  1760.7000      7.9047      2.5917      0.0157      3.5348     77.6589     20.1886
  1760.8000      7.9012      2.5688      0.0130      4.9211     85.3848     20.2451
  1760.9000      7.9012      2.5450     -0.0273      6.3623     93.7886     20.5505
  1761.0000      7.8936      2.5218      0.0198      7.7726     99.3836     21.0760
  1761.1000      7.8936      2.4964     -0.0053      9.3083    103.4952     21.7474
  1761.2000      7.8936      2.4780     -0.0013     10.4228    111.4670     22.3797
  1761.3000      7.8973      2.4807      0.0388     10.2632    122.2536     22.8814
  1761.4000      7.8973      2.5047      0.0776      8.8050    130.4606     23.3083
  1761.5000      7.8702      2.5392      0.0690      6.7135    133.8619     23.6901
  1761.6000      7.8702      2.5694      0.1399      4.8838    133.3931     23.9134
  1761.7000      7.8702      2.5862      0.1227      3.8667    131.1368     24.0148
  1761.8000      7.8335      2.5954      0.1417      3.3092    128.7361     24.2050
  1761.9000      7.8335      2.6040      0.1422      2.7861    126.5725     24.5820
  1762.0000      7.8176      2.6093      0.1600      2.4652    123.9192     24.9017
  1762.1000      7.8176      2.6053      0.1413      2.7075    122.6333     24.9067
  1762.2000      7.8176      2.5915      0.1238      3.5450    124.8645     24.7925
  1762.3000      7.8144      2.5809      0.0213      4.1882    128.9330     25.0284
  1762.4000      7.8144      2.5874      0.0820      3.7968    133.2930     25.7274
  1762.5000      7.7179      2.6014      0.1115      2.9474    136.0101     26.3615
  1762.6000      7.7179      2.6084      0.1078      2.5206    136.9724     26.5969
  1762.7000      7.7179      2.6031      0.1600      2.8433    138.8200     26.7260
  1762.8000      7.7254      2.5833      0.0806      4.0395    140.1347     26.9939
  1762.9000      7.7254      2.5620      0.0706      5.3321    137.6688     27.3753
  1763.0000      7.9008      2.5507      0.0616      6.0200    133.9387     27.7462
  1763.1000      7.9008      2.5410      0.0576      6.6049    134.8790     27.7544
  1763.2000      7.9008      2.5250      0.0272      7.5782    140.9375     27.3527
  1763.3000      7.9460      2.5102      0.0114      8.4731    145.2933     27.0601
  1763.4000      7.9460      2.5076      0.0277      8.6307    144.3048     27.0659
  1763.5000      7.9779      2.5215     -0.0101      7.7903    142.2433     27.0966
  1763.6000      7.9779      2.5453      0.0506      6.3466    141.8446     27.0996
  1763.7000      7.9779      2.5579      0.0720      5.5812    141.8275     27.2416
  1763.8000      8.0257      2.5508      0.0111      6.0118    141.7003     27.3910
  1763.9000      8.0257      2.5389      0.0331      6.7342    141.7114     27.4164
  1764.0000      8.0599      2.5328      0.0381      7.1017    141.8661     27.5758
  1764.1000      8.0599      2.5297      0.0610      7.2891    142.1365     27.8948
  1764.2000      8.0599      2.5192      0.0915      7.9272    142.4779     27.9891
  1764.3000      8.0872      2.4975      0.0253      9.2433    143.3330     27.7793
  1764.4000      8.0872      2.4742      0.0632     10.6532    145.6550     27.5920
  1764.5000      8.1447      2.4585     -0.0070     11.6045    149.3656     27.5036
  1764.6000      8.1447      2.4534     -0.0383     11.9132    152.6747     27.3213
  1764.7000      8.1447      2.4506      0.0320     12.0830    153.6629     27.1410
  1764.8000      8.1260      2.4386      0.0033     12.8116    151.7190     27.2264
  1764.9000      8.1260      2.4238     -0.0103     13.7098    148.1787     27.5478
  1765.0000      8.0819      2.4229     -0.0103     13.7659    145.6255     28.1105
  1765.1000      8.0819      2.4397      0.0083     12.7453    145.3401     28.9825
  1765.2000      8.0819      2.4569      0.0348     11.7057    145.7390     29.8249
  1765.3000      8.0635      2.4568      0.0533     11.7102    145.4352     30.1869
  1765.4000      8.0635      2.4479      0.0034     12.2469    146.4345     29.7870
  1765.5000      8.0545      2.4475      0.0407     12.2734    149.1574     28.7629
  1765.6000      8.0545      2.4454      0.0701     12.3985    150.6983     27.8217
  1765.7000      8.0545      2.4134      0.0384     14.3410    150.1006     27.4324
  1765.8000      8.0540      2.3457      0.0347     18.4412    148.7569     27.4518
  1765.9000      8.0540      2.2725     -0.0275     22.8777    148.3872     27.8713
  1766.0000      8.0251      2.2227     -0.0060     25.8942    149.8069     28.7851
  1766.1000      8.0251      2.1965      0.0052     27.4876    149.7384     29.5657
  1766.2000      8.0251      2.1864     -0.0172     28.0969    146.3382     29.5247
  1766.3000      7.9910      2.1969     -0.0129     27.4591    141.2101     28.9676
  1766.4000      7.9910      2.2293      0.0738     25.4951    136.7215     28.6409
  1766.5000      7.9928      2.2680      0.1906     23.1523    133.3879     28.9003
