~Version Information
 VERS.                                  2.0 : CWLS LAS VERSION
 WRAP.                                   NO : WRAPING MODE
 SWARE .                 MController 2.5.0N : SOFTWARE VERSION
~Well Information
 WELL.                 Flying Horse 12-11Tr : WELL
 COMP.    Pioneer Natural Resources USA Inc : COMPANY
 FLD.                      Purgatoire River : FIELD
 LOC.                 SW/NW SEC11 T32S R66W : LOCATION
 DATE.                             09/03/05 : DATE(S) LOGGED
 SRVC.       Blanco Geological Services LLC : SERVICE COMPANY
 STAT.                             Colorado : STATE
 CNTY.                           Las Animas : COUNTY
 CTRY.                                 USA : COUNTRY
 API.                       05-071-08485-00 : API NUMBER
 STRT.FT                             565.00 : START DEPTH
 STOP.FT                            1978.00 : STOP DEPTH
 STEP.FT                               1.00 : DEPTH INCREMENT
 NULL.                                -9999 : NULL VALUE
~Curve information
 DEPTH.FT                                   :
 ROP.MIN/FT                                 :
 GAS.UNITS                                  :
~ASCII Log data
# ...
      1165.0         0.23         58.2 
      1166.0         1.72        230.9 
      1167.0         0.53        176.5 
      1168.0         0.37        148.2 
      1169.0         0.27        144.5 
      1170.0         0.17        134.6 
      1171.0         0.17        131.3 
      1172.0         0.28        121.1 
      1173.0         0.20        108.4 
      1174.0         0.27        106.9 
      1175.0         0.27        106.8 
      1176.0         0.27        104.9 
      1177.0         0.20        102.2 
      1178.0         0.17        100.9 
      1179.0         0.20         98.6 
      1180.0         0.17         98.4 
      1181.0         0.17        104.5 
      1182.0         0.20        116.6 
      1183.0         0.27        117.2 
      1184.0         0.17        107.8 
      1185.0         0.20        107.8 
      1186.0         0.17         97.4 
      1187.0         0.20         85.4 
      1188.0         0.18         85.4 
      1189.0         0.23         84.3 
      1190.0         0.27         70.6 
      1191.0         0.20         57.6 
      1192.0         0.23         52.9 
      1193.0         0.20         52.0 
      1194.0         0.20         59.0 
      1195.0         0.20         92.6 
      1196.0         1.95        181.6 
      1197.0         0.33        122.7 
      1198.0         0.30        122.7 
      1199.0         0.27        119.8 
      1200.0         0.23        113.6 
      1201.0         0.20        107.7 
      1202.0         0.07        103.6 
      1203.0         0.17        100.6 
      1204.0         0.27         98.3 
      1205.0         0.23         97.2 
      1206.0         0.27         96.8 
      1207.0         0.27         94.7 
      1208.0         0.20         93.4 
      1209.0         0.28         90.6 
      1210.0         0.23         89.8 
      1211.0         0.23         91.8 
      1212.0         0.27         90.7 
      1213.0         0.23         89.7 
      1214.0         0.23         87.0 
      1215.0         0.27         84.8 
      1216.0         0.20         79.3 
      1217.0         0.17         77.5 
      1218.0         0.20         68.9 
      1219.0         0.20         60.1 
      1220.0         0.17         59.0 
      1221.0         0.20         54.6 
      1222.0         0.20         58.7 
      1223.0         0.23         91.8 
      1224.0         0.20        147.7 
      1225.0         0.35        258.4 
      1226.0         1.17        352.5 
      1227.0         0.13        327.4 
      1228.0         0.50        313.2 
      1229.0         0.43        310.4 
      1230.0         0.27        317.6 
      1231.0         0.13        318.9 
      1232.0         0.10        318.9 
      1233.0         0.17        318.1 
      1234.0         0.13        315.3 
      1235.0         0.12        309.4 
      1236.0         0.10        309.4 
      1237.0         0.30        301.5 
      1238.0         0.23        287.5 
      1239.0         0.20        285.6 
      1240.0         0.30        255.3 
      1241.0         0.27        253.5 
      1242.0         0.17        247.8 
      1243.0         0.20        247.8 
      1244.0         0.17        235.2 
      1245.0         0.23        230.1 
      1246.0         0.27        227.8 
      1247.0         0.23        219.2 
      1248.0         0.20        214.4 
      1249.0         0.13        203.2 
      1250.0         0.17        176.1 
      1251.0         0.22        167.4 
      1252.0         0.20        155.3 
      1253.0         0.23        161.0 
      1254.0         0.30        228.6 
      1255.0         0.27        310.4 
      1256.0         2.48        985.3 
      1257.0         0.40        621.8 
      1258.0         0.37        600.5 
      1259.0         0.30        588.3 
      1260.0         0.20        569.0 
      1261.0         0.20        548.0 
      1262.0         0.33        536.1 
      1263.0         0.30        510.6 
      1264.0         0.23        503.9 
      1265.0         0.27        499.0 
      1266.0         0.27        500.0 
      1267.0         0.32        503.9 
      1268.0         0.27        510.6 
      1269.0         0.27        509.7 
      1270.0         0.23        507.7 
      1271.0         0.23        502.9 
      1272.0         0.27        491.6 
      1273.0         0.27        500.0 
      1274.0         0.40        486.8 
      1275.0         0.23        448.7 
      1276.0         0.27        442.3 
      1277.0         0.27        440.0 
      1278.0         0.23        214.9 
      1279.0         0.23        190.4 
      1280.0         0.25        137.7 
      1281.0         0.20        137.7 
      1282.0         0.27        143.5 
      1283.0         0.23        203.3 
      1284.0         0.23        292.1 
      1285.0         0.20        332.3 
      1286.0         1.43       1076.5 
      1287.0         0.37       1007.9 
      1288.0         0.68        784.2 
      1289.0         0.40        591.2 
      1290.0         0.30        584.7 
      1291.0         0.30        577.0 
      1292.0         0.27        550.3 
      1293.0         0.27        535.8 
      1294.0         0.27        527.4 
      1295.0         0.33        526.1 
      1296.0         0.30        523.2 
      1297.0         0.13        519.0 
      1298.0         0.10        519.0 
      1299.0         0.35        512.6 
      1300.0         0.30        504.8 
      1301.0         0.27        505.5 
      1302.0         0.27        514.8 
      1303.0         0.27        491.6 
      1304.0         0.27        479.7 
      1305.0         0.27        464.5 
      1306.0         0.27        461.3 
      1307.0         0.27        440.0 
      1308.0         0.23        440.0 
      1309.0         0.23        156.2 
      1310.0         0.23        163.7 
      1311.0         0.27        173.6 
      1312.0         0.25        239.4 
      1313.0         0.30        322.9 
      1314.0         0.13        367.0 
      1315.0         0.90        928.9 
      1316.0         0.53        756.8 
      1317.0         0.50        669.5 
      1318.0         0.47        602.1 
      1319.0         0.42        549.0 
      1320.0         0.23        547.4 
      1321.0         0.20        540.6 
      1322.0         0.20        527.4 
      1323.0         0.23        509.3 
      1324.0         0.27        514.2 
      1325.0         0.30        559.9 
      1326.0         0.27        629.2 
      1327.0         0.27        642.8 
      1328.0         0.20        653.7 
      1329.0         0.13        652.1 
      1330.0         0.10        659.8 
      1331.0         0.13        659.8 
      1332.0         0.10        675.6 
      1333.0         0.13        675.6 
      1334.0         0.20        636.3 
      1335.0         0.20        597.6 
      1336.0         0.32        592.8 
      1337.0         0.33        554.5 
      1338.0         0.27        507.4 
      1339.0         0.27        473.2 
      1340.0         0.23        440.0 
      1341.0         0.30        153.3 
      1342.0         0.20        168.8 
      1343.0         0.23        196.5 
      1344.0         0.17        260.5 
      1345.0         0.13        291.7 
      1346.0         1.25        982.4 
      1347.0         0.30        891.2 
      1348.0         0.37        874.1 
      1349.0         0.43        772.3 
      1350.0         0.33        732.0 
      1351.0         0.43        751.7 
      1352.0         0.33        743.3 
      1353.0         0.27        704.0 
      1354.0         0.20        686.6 
      1355.0         0.30        659.8 
      1356.0         0.32        650.8 
      1357.0         0.23        605.0 
      1358.0         0.27        593.4 
      1359.0         0.27        578.3 
      1360.0         0.23        578.3 
      1361.0         0.23        587.0 
      1362.0         0.20        587.0 
      1363.0         0.23        619.9 
      1364.0         0.23        653.7 
