~Version Information
 VERS.                                  2.0 : CWLS LAS VERSION
 WRAP.                                   NO : WRAPING MODE
 SWARE .                  MController 2.5.1 : SOFTWARE VERSION
~Well Information
 WELL.                     Lucky Lady 42-29 : WELL
 COMP.  Pioneer Natural Resources USA, Inc. : COMPANY
 FLD.                      Purgatoire River : FIELD
 LOC.             SE/NE Sec. 29, T34S, R65W : LOCATION
 DATE.                03/09/2006-03/09/2006 : DATE(S) LOGGED
 SRVC.                  Entrada GeoSciences : SERVICE COMPANY
 STAT.                             Colorado : STATE
 CNTY.                           Las Animas : COUNTY
 CTRY.                        United States : COUNTRY
 API.                                   N/A : API NUMBER
 STRT.FT                             250.00 : START DEPTH
 STOP.FT                            1215.00 : STOP DEPTH
 STEP.FT                               1.00 : DEPTH INCREMENT
 NULL.                                -9999 : NULL VALUE
~Curve information
 DEPTH.FT                                   :
 ROP.MIN/FT                                 :
 GAS.UNITS                                  :
~ASCII Log data
      250.00      2544.07         14.1 
      251.00         0.17          2.5 
      252.00         0.17          2.5 
      253.00         0.13          3.2 
      254.00         0.13          2.9 
      255.00         0.17          3.8 
      256.00         0.13          2.6 
      257.00         0.17          2.6 
      258.00         0.17          3.4 
      259.00         0.17          3.0 
      260.00         0.27          3.9 
      261.00         0.30          3.4 
      262.00         0.22          2.6 
      263.00         0.27          2.9 
      264.00         0.17          2.4 
      265.00         0.37          3.5 
      266.00         0.33          3.1 
      267.00         0.35          2.7 
      268.00         0.20          2.9 
      269.00         0.13          2.9 
      270.00         0.23          3.5 
      271.00         0.17          2.9 
      272.00         0.27          3.7 
      273.00         0.13          3.3 
      274.00         0.23          2.2 
      275.00         0.13          3.6 
      276.00         0.20          3.6 
      277.00         0.27          3.0 
      278.00         0.20          2.2 
      279.00         0.23          2.6 
      280.00         0.23          2.5 
      281.00         0.23          3.7 
      282.00         0.20          3.7 
      283.00         0.25          2.8 
      284.00         0.23          3.6 
      285.00         0.23          2.2 
      286.00         0.20          3.6 
      287.00         0.23          4.0 
      288.00         0.23          3.7 
      289.00         0.20          3.7 
      290.00         0.20          3.8 
      291.00         0.20          2.3 
      292.00         0.27          2.9 
      293.00         0.27          5.6 
      294.00         0.27         40.4 
      295.00         0.27         44.5 
      296.00         0.20          2.8 
      297.00         0.32          3.4 
      298.00         0.27          2.4 
      299.00         0.27         34.1 
      300.00         0.13         67.7 
      301.00         0.33         78.3 
      302.00         0.23         81.2 
      303.00         0.20         81.0 
      304.00         0.23         81.3 
      305.00         0.23         81.9 
      306.00         0.23         83.0 
      307.00         0.23         83.2 
      308.00         0.27         83.3 
      309.00         0.20         83.3 
      310.00         0.23         83.8 
      311.00         0.28         83.7 
      312.00         0.23         83.5 
      313.00         0.27         83.3 
      314.00         0.23         85.1 
      315.00         0.27        480.4 
      316.00         0.23        480.4 
      317.00         0.27       2098.4 
      318.00         0.27       1602.1 
      319.00         0.23        842.7 
      320.00         0.27        400.0 
      321.00         0.23        400.0 
      322.00         0.33        105.2 
      323.00         0.23         88.7 
      324.00         0.28         81.6 
      325.00         0.20         74.9 
      326.00         0.35         73.3 
      327.00         0.23         72.4 
      328.00         0.23         72.0 
      329.00         0.20         71.9 
      330.00         0.23         71.8 
      331.00         0.20         71.7 
      332.00         0.20         71.7 
      333.00         0.23         71.7 
      334.00         0.20         72.2 
      335.00         0.20         71.7 
      336.00         0.23         71.7 
      337.00         0.23         72.4 
      338.00         0.23         72.4 
      339.00         0.20         72.5 
      340.00         0.20         72.5 
      341.00         0.25         72.1 
      342.00         0.23         72.0 
      343.00         0.17         71.8 
      344.00         0.13         71.8 
      345.00         0.30         71.8 
      346.00         0.23        276.4 
      347.00         0.27        276.4 
      348.00         0.23        496.9 
      349.00         0.23       1012.9 
      350.00         0.20        639.1 
      351.00         0.27        439.0 
      352.00         0.23        400.0 
      353.00         0.17        101.1 
      354.00         0.37         82.4 
      355.00         0.17         73.6 
      356.00         0.28         72.8 
      357.00         0.20         65.4 
      358.00         0.23         68.1 
      359.00         0.20         70.8 
      360.00         0.20         70.3 
      361.00         0.17         70.3 
      362.00         0.17         69.5 
      363.00         0.27         69.5 
      364.00         0.17         68.9 
      365.00         0.13         68.3 
      366.00         0.23         68.2 
      367.00         0.32         68.0 
      368.00         0.23         67.7 
      369.00         0.23         67.6 
      370.00         0.27         67.3 
      371.00         0.27         67.1 
      372.00         0.27         66.2 
      373.00         0.30         66.9 
      374.00         0.27         68.9 
      375.00         0.27         69.3 
      376.00         0.27        194.7 
      377.00         0.23        194.7 
      378.00         0.30        379.2 
      379.00         0.28        397.0 
      380.00         0.13        201.2 
      381.00         0.23        146.5 
      382.00         0.27        138.0 
      383.00         0.23         88.4 
      384.00         0.20         77.1 
      385.00         0.30         73.4 
      386.00         0.27         65.9 
      387.00         0.37         63.1 
      388.00         0.23         61.8 
      389.00         0.23         61.5 
      390.00         0.23         61.4 
      391.00         0.20         61.9 
      392.00         0.23         61.9 
      393.00         0.20         61.9 
      394.00         0.23         61.9 
      395.00         0.23         62.0 
      396.00         0.23         62.3 
      397.00         0.20         62.7 
      398.00         0.20         62.9 
      399.00         0.22         62.8 
      400.00         0.17         62.9 
      401.00         0.20         62.4 
      402.00         0.20         62.2 
      403.00         0.17         62.2 
      404.00         0.23         62.0 
      405.00         0.17        363.2 
      406.00         0.20        363.2 
      407.00         0.20       1038.4 
      408.00         0.23        884.0 
      409.00         0.23        524.6 
      410.00         0.20        400.0 
      411.00         0.20         91.5 
      412.00         0.23         89.3 
      413.00         0.20         69.6 
      414.00         0.20         68.2 
      415.00         0.20         65.7 
      416.00         0.28         63.6 
      417.00         0.23         63.0 
      418.00         0.23         62.9 
      419.00         0.23         62.3 
      420.00         0.23         62.9 
      421.00         0.20         62.9 
      422.00         0.22         63.2 
      423.00         0.20         63.2 
      424.00         0.23         62.6 
      425.00         0.20         62.5 
      426.00         0.23         62.7 
      427.00         0.27         62.6 
      428.00         0.27         62.6 
      429.00         0.20         62.4 
      430.00         0.23         61.8 
      431.00         0.23         61.6 
      432.00         0.30         61.7 
      433.00         0.20        401.1 
      434.00         0.23        401.1 
      435.00         0.17        401.1 
      436.00         0.18        423.9 
      437.00         0.17        312.0 
      438.00         0.13        196.7 
      439.00         0.17        149.7 
      440.00         0.20        123.0 
      441.00         0.17         94.7 
      442.00         0.23         89.6 
      443.00         0.17         71.9 
      444.00         0.17         71.9 
      445.00         0.20         70.9 
      446.00         0.27         67.6 
      447.00         0.22         66.8 
      448.00         0.23         66.4 
      449.00         0.20         66.0 
