~Version Information
VERS.                      2.0: CWLS Log ASCII Standard - VERSION 2.0
WRAP.                       NO: One line per depth step
~Well Information Block
STRT.FT                -3.0000: 
STOP.FT              1123.0000: 
STEP.FT                 0.2500: 
NULL.                -999.2500: 
COMP.          Pioneer Natural Resources: COMPANY
WELL.               Ryan 41-17: WELL
FLD.           Purgatoire River: FIELD
LOC.           822' FNL & 532' FEL--: LOCATION
CNTY.               Las Animas: COUNTY
SRVC.                Patterson: SERVICE COMPANY
DATE.          Mon Mar 27 14:50:31 2006: LOG DATE
UWI.           05 071 08719 00: UNIQUE WELL ID
STAT.                 Colorado: STATE
~Curve Information Block
DEPT.FT            0 000 00 00: Depth
CCL.                          : Casing Collar Locator
TT3.usec                      : CBL 3' Travel Time
AMP3.mV                       : CBL 3' Amplitude
GR.GAPI                       : Gamma Ray
~Parameter Information Block
~A  Depth       CCL         TT3         AMP3         GR     
# ...
   298.5000      0.0000    301.1722     50.9569     58.8432
   298.7500      0.0000    303.4719     49.4618     50.4243
   299.0000      0.0000    305.4119     48.6405     46.6805
   299.2500      0.0000    306.1332     48.6807     48.9441
   299.5000     -2.0000    306.7123     49.0070     56.3853
   299.7500      0.0000    306.8057     49.1869     62.2078
   300.0000      0.0000    306.2878     49.3192     69.8979
   300.2500      0.0000    305.1747     49.4504     73.8343
   300.5000      0.0000    301.6469     50.3159     78.6618
   300.7500      0.0000    297.8746     51.7780     81.8174
   301.0000      0.0000    290.5975     55.5829     86.1545
   301.2500      0.0000    285.2644     58.8918     87.5480
   301.5000      0.0000    277.3930     64.0663     85.0600
   301.7500      0.0000    272.5651     67.1821     79.8188
   302.0000      0.0000    266.5739     70.8867     67.5528
   302.2500      0.0000    263.7440     72.6084     57.9213
   302.5000      0.0000    261.2979     74.1512     44.5022
   302.7500      0.0000    260.5706     74.6514     37.6822
   303.0000      0.0000    260.1844     74.9567     31.5172
   303.2500      0.0000    260.1255     75.0302     30.1834
   303.5000      0.0000    260.1042     75.1077     33.0499
   303.7500      0.0000    260.0919     75.1602     38.7298
   304.0000      0.0000    260.0664     75.2265     52.2505
   304.2500      0.0000    260.0512     75.2506     62.9334
   304.5000      0.0000    260.0417     75.2386     77.7885
   304.7500      0.0000    260.0459     75.1913     85.4729
   305.0000      0.0000    260.0637     75.0708     93.8634
   305.2500      0.0000    260.0790     74.9779     98.8409
   305.5000      0.0000    260.1001     74.8519    107.6681
   305.7500      0.0000    260.1102     74.7794    114.2255
   306.0000      0.0000    260.1170     74.6779    122.5097
   306.2500      0.0000    260.1158     74.6181    125.8260
   306.5000      0.0000    260.1064     74.5655    127.1727
   306.7500      0.0000    260.0963     74.5645    125.8053
   307.0000      0.0000    260.0796     74.5951    120.8248
   307.2500      0.0000    260.0704     74.6139    116.6987
   307.5000      0.0000    260.0661     74.6120    112.9249
   307.7500      0.0000    260.0726     74.5897    113.7150
   308.0000      0.0000    260.0963     74.5365    119.4171
   308.2500      0.0000    260.1165     74.4968    124.3373
   308.5000      0.0000    260.1413     74.4514    130.6680
   308.7500      0.0000    260.1495     74.4460    134.0765
   309.0000      0.0000    260.1505     74.4915    138.9190
   309.2500      0.0000    260.1479     74.5513    141.8064
   309.5000      0.0000    260.1446     74.6541    144.4071
   309.7500      0.0000    260.1425     74.7166    145.0669
   310.0000      0.0000    260.1362     74.7990    146.5148
   310.2500      0.0000    260.1299     74.8495    148.6896
   310.5000      0.0000    260.1215     74.9062    152.5791
   310.7500      0.0000    260.1194     74.9162    153.8797
   311.0000      0.0000    260.1222     74.8798    151.9573
   311.2500      0.0000    260.1258     74.8333    148.3105
   311.5000      0.0000    260.1309     74.7603    141.3924
   311.7500      0.0000    260.1345     74.7149    137.4558
   312.0000      0.0000    260.1431     74.6399    135.0856
   312.2500      0.0000    260.1514     74.5842    136.5960
   312.5000      0.0000    260.1630     74.5196    142.5166
   312.7500      0.0000    260.1664     74.5087    146.7483
   313.0000      0.0000    260.1616     74.5438    148.2038
   313.2500      0.0000    260.1534     74.5845    143.8711
   313.5000      0.0000    260.1398     74.6431    131.6497
   313.7500      0.0000    260.1328     74.6782    123.8827
   314.0000      0.0000    260.1263     74.7343    119.0394
   314.2500      0.0000    260.1242     74.7726    120.7898
   314.5000      0.0000    260.1245     74.8170    127.2390
   314.7500      0.0000    260.1272     74.8349    131.8789
   315.0000      0.0000    260.1329     74.8587    137.7796
   315.2500      0.0000    260.1359     74.8811    140.7125
   315.5000      0.0000    260.1384     74.9176    142.6382
   315.7500      0.0000    260.1397     74.9326    141.6344
   316.0000      0.0000    260.1438     74.9322    136.8854
   316.2500      0.0000    260.1496     74.9188    132.5963
   316.5000      0.0000    260.1637     74.8783    126.8039
   316.7500      0.0000    260.1755     74.8317    124.3607
   317.0000      0.0000    260.1921     74.7319    123.4446
   317.2500      0.0000    260.1997     74.6592    124.4353
   317.5000      0.0000    260.2030     74.5720    127.0552
   317.7500      0.0000    260.2004     74.5352    128.6612
   318.0000      0.0000    260.1937     74.4983    129.8899
   318.2500      0.0000    260.1910     74.4756    129.8354
   318.5000      0.0000    260.1953     74.4432    128.8066
   318.7500      0.0000    260.2045     74.4281    127.7224
   319.0000      0.0000    260.2238     74.4164    125.4280
   319.2500      0.0000    260.2355     74.4121    123.2989
   319.5000      0.0000    260.2433     74.4134    119.8498
   319.7500      0.0000    260.2401     74.4264    118.4606
   320.0000      0.0000    260.2269     74.4662    119.3425
   320.2500      0.0000    260.2176     74.4954    121.7466
   320.5000      0.0000    260.2106     74.5181    125.8497
   320.7500      0.0000    260.2124     74.5151    127.3639
   321.0000      0.0000    260.2225     74.4995    126.7186
   321.2500      0.0000    260.2310     74.4933    125.0601
   321.5000      0.0000    260.2414     74.4897    123.1698
   321.7500      0.0000    260.2453     74.4805    123.3184
   322.0000      0.0000    260.2470     74.4461    125.5413
   322.2500      0.0000    260.2459     74.4174    127.6467
   322.5000      0.0000    260.2415     74.3865    130.9210
   322.7500      0.0000    260.2372     74.3729    133.0977
   323.0000      0.0000    260.2324     74.3344    135.9234
   323.2500      0.0000    260.2335     74.2815    136.6831
   323.5000      0.0000    260.2453     74.1626    134.5292
   323.7500      0.0000    260.2594     74.0705    130.7150
   324.0000      0.0000    260.2840     73.9472    123.1126
   324.2500      0.0000    260.2973     73.9004    118.5941
   324.5000      0.0000    260.3062     73.9199    115.9148
   324.7500      0.0000    260.3059     73.9922    117.9958
   325.0000      0.0000    260.3044     74.1428    125.8327
   325.2500      0.0000    260.3080     74.2368    131.7072
   325.5000      0.0000    260.3222     74.3436    136.3262
   325.7500      0.0000    260.3352     74.4020    134.8582
   326.0000      0.0000    260.3530     74.4963    127.1036
   326.2500      0.0000    260.3606     74.5647    121.0973
   326.5000      0.0000    260.3648     74.6521    115.7657
   326.7500      0.0000    260.3653     74.6887    115.5038
   327.0000      0.0000    260.3670     74.7205    117.7040
   327.2500      0.0000    260.3688     74.7421    119.0592
   327.5000      0.0000    260.3703     74.7833    119.8220
   327.7500      0.0000    260.3706     74.8008    120.0840
   328.0000      0.0000    260.3740     74.7786    121.4907
   328.2500      0.0000    260.3794     74.7319    123.3994
   328.5000      0.0000    260.3880     74.6559    127.2289
   328.7500      0.0000    260.3903     74.6308    129.7103
   329.0000      0.0000    260.3854     74.6562    131.3438
   329.2500      0.0000    260.3777     74.7151    129.7818
   329.5000      0.0000    260.3627     74.8525    122.9499
   329.7500      0.0000    260.3530     74.9614    116.7401
   330.0000      0.0000    260.3441     75.1064    108.4975
   330.2500      0.0000    260.3448     75.1623    104.9196
   330.5000      0.0000    260.3556     75.1578    102.1664
   330.7500      0.0000    260.3666     75.1006    101.4803
   331.0000      0.0000    260.3833     74.9652    101.7155
   331.2500      0.0000    260.3931     74.8597    102.5708
   331.5000      0.0000    260.4075     74.6953    104.3363
   331.7500      0.0000    260.4184     74.5904    105.5441
