~Version Information
VERS.                      2.0: CWLS Log ASCII Standard - VERSION 2.0
WRAP.                       NO: One line per depth step
~Well Information Block
STRT.FT               538.0000: 
STOP.FT              1769.0000: 
STEP.FT                 0.1000: 
NULL.                -999.2500: 
COMP.          Pioneer Natural Resources: COMPANY
WELL.            Dude 43-34 Tr: WELL
FLD.           Purgatoire River: FIELD
LOC.           2083' FSL & 1042' FEL: LOCATION
PROV.                 Colorado: PROVINCE
CNTY.               Las Animas: COUNTRY
SRVC.                Patterson: SERVICE COMPANY
DATE.          Thu Jan 26 07:02:09 2006: LOG DATE
UWI.           05 071 08676 00: UNIQUE WELL ID
~Curve Information Block
DEPT.FT            0 000 00 00: Depth
DCAL.in                       : CDL Caliper
RHOB.g/cc                     : CDL Bulk Density
RHOC.g/cc                     : CDL Density Correction
DPOR.pu                       : CDL Density Porosity
GR.GAPI                       : Gamma Ray
~Parameter Information Block
~A  Depth       DCAL        RHOB        RHOC        DPOR         GR     
# ...
   874.0000      7.9532      3.1054      0.2110    -27.5993     80.1198
   874.1000      7.9532      2.9985      0.0598    -21.1202     79.8545
   874.2000      7.9532      2.8946      0.0063    -14.8229     82.4444
   874.3000      7.8861      2.8216     -0.0635    -10.4012     85.3829
   874.4000      7.8861      2.7605     -0.0317     -6.6941     90.1655
   874.5000      7.9207      2.6878     -0.0580     -2.2939     96.7617
   874.6000      7.9207      2.6241      0.0664      1.5714    101.3375
   874.7000      7.9207      2.5914      0.0966      3.5492    106.1037
   874.8000      8.1213      2.5792      0.0499      4.2891    114.3559
   874.9000      8.1213      2.5667      0.0860      5.0466    121.6949
   875.0000      8.1458      2.5490      0.0800      6.1229    127.5653
   875.1000      8.1458      2.5319      0.0493      7.1572    135.2518
   875.2000      8.1458      2.5146      0.0200      8.2079    143.2330
   875.3000      8.1438      2.4909      0.0386      9.6403    149.0127
   875.4000      8.1438      2.4661      0.0378     11.1439    148.5489
   875.5000      8.1221      2.4645     -0.0025     11.2437    139.0163
   875.6000      8.1221      2.4966      0.0633      9.2997    130.1828
   875.7000      8.1221      2.5304      0.0976      7.2502    131.1662
   875.8000      8.1152      2.5312      0.0585      7.1987    134.9509
   875.9000      8.1152      2.5050      0.0272      8.7897    135.4066
   876.0000      8.0771      2.4806      0.0204     10.2684    137.7313
   876.1000      8.0771      2.4741      0.0226     10.6586    141.9318
   876.2000      8.0771      2.4815      0.0498     10.2104    143.1239
   876.3000      8.0947      2.4922      0.0786      9.5623    145.0636
   876.4000      8.0947      2.4988      0.0794      9.1663    149.2684
   876.5000      8.0650      2.4992      0.0337      9.1400    152.3093
   876.6000      8.0650      2.4867      0.0492      9.8959    153.1267
   876.7000      8.0650      2.4450      0.0627     12.4218    150.5919
   876.8000      8.0659      2.3807     -0.0278     16.3204    148.7311
   876.9000      8.0659      2.3185      0.0474     20.0930    153.7246
   877.0000      8.0751      2.2533      0.0086     24.0424    161.3192
   877.1000      8.0751      2.1802     -0.0044     28.4701    165.0856
   877.2000      8.0751      2.1250     -0.0775     31.8155    166.2566
   877.3000      8.0838      2.1046     -0.0063     33.0525    165.5462
   877.4000      8.0838      2.1060      0.0615     32.9673    162.1785
   877.5000      8.1072      2.1341      0.0437     31.2686    160.9600
   877.6000      8.1072      2.2191      0.1724     26.1154    164.4619
   877.7000      8.1072      2.3399      0.4887     18.7956    164.7800
   877.8000      8.1350      2.4325      0.5206     13.1832    159.7637
   877.9000      8.1350      2.4760      0.5069     10.5454    157.2455
   878.0000      8.2154      2.4765      0.5224     10.5137    161.2925
   878.1000      8.2154      2.4296      0.4422     13.3573    169.1991
   878.2000      8.2154      2.3551      0.1982     17.8725    171.1788
   878.3000      8.3579      2.2934      0.2462     21.6117    163.5211
   878.4000      8.3579      2.2581      0.2082     23.7528    155.0155
   878.5000      8.2140      2.2362      0.2507     25.0758    147.6724
   878.6000      8.2140      2.2098      0.2503     26.6797    140.6169
   878.7000      8.2140      2.1635      0.3069     29.4875    139.5138
   878.8000      8.1138      2.0901      0.2570     33.9320    145.5417
   878.9000      8.1138      2.0043      0.1721     39.1316    151.7126
   879.0000      8.2006      1.9274      0.1071     43.7960    151.3570
   879.1000      8.2006      1.8556      0.0846     48.1479    143.0486
   879.2000      8.2006      1.7700      0.0514     53.3333    130.5322
   879.3000      8.1858      1.6702      0.0433     59.3813    123.4744
   879.4000      8.1858      1.5812      0.0049     64.7728    128.3720
   879.5000      8.0827      1.5277      0.0648     68.0173    135.3972
   879.6000      8.0827      1.5071      0.1018     69.2665    130.9639
   879.7000      8.0827      1.5068      0.1420     69.2865    117.8610
   879.8000      8.1502      1.5303      0.1320     67.8584    108.5064
   879.9000      8.1502      1.5863      0.1773     64.4694    106.3668
   880.0000      8.3666      1.6722      0.1818     59.2610    104.5765
   880.1000      8.3666      1.7809      0.2389     52.6733    100.9700
   880.2000      8.3666      1.8961      0.3042     45.6928     97.5554
   880.3000      8.4962      1.9957      0.2853     39.6536     93.0516
   880.4000      8.4962      2.0769      0.2770     34.7338     89.9246
   880.5000      8.4984      2.1528      0.1947     30.1338     94.9388
   880.6000      8.4984      2.2230      0.2164     25.8767    106.1044
   880.7000      8.4984      2.2751      0.1284     22.7191    114.6629
   880.8000      8.4727      2.3070      0.1156     20.7870    116.6285
   880.9000      8.4727      2.3226      0.0721     19.8405    116.7215
   881.0000      8.2737      2.3247      0.1156     19.7168    121.8945
   881.1000      8.2737      2.3217      0.0704     19.8966    128.1099
   881.2000      8.2737      2.3339      0.0820     19.1550    127.4499
   881.3000      8.2586      2.3769      0.0870     16.5525    124.7390
   881.4000      8.2586      2.4484      0.1808     12.2179    127.8885
   881.5000      8.2713      2.5322      0.2479      7.1388    133.3074
   881.6000      8.2713      2.6049      0.3062      2.7330    136.6943
   881.7000      8.2713      2.6470      0.3410      0.1828    138.7411
   881.8000      8.3116      2.6656      0.3025     -0.9459    139.2311
   881.9000      8.3116      2.6787      0.3418     -1.7365    140.7512
   882.0000      8.2428      2.6800      0.2845     -1.8211    143.9037
   882.1000      8.2428      2.6618      0.2179     -0.7158    145.0230
   882.2000      8.2428      2.6393      0.1394      0.6462    143.3646
   882.3000      8.2440      2.6346      0.1192      0.9350    138.2043
   882.4000      8.2440      2.6374      0.1813      0.7609    131.6023
   882.5000      8.2924      2.6191      0.0244      1.8705    128.3616
   882.6000      8.2924      2.5826      0.0350      4.0854    129.5029
   882.7000      8.2924      2.5450     -0.0348      6.3635    128.7990
   882.8000      8.2065      2.5157     -0.0376      8.1410    121.4001
   882.9000      8.2065      2.5018     -0.0449      8.9830    114.5153
   883.0000      8.1188      2.5081     -0.0412      8.5999    113.1303
   883.1000      8.1188      2.5309      0.0167      7.2201    112.7499
   883.2000      8.1188      2.5582      0.0040      5.5664    111.7831
   883.3000      8.0801      2.5779      0.0796      4.3707    113.1409
   883.4000      8.0801      2.5809      0.0506      4.1896    116.1421
   883.5000      8.0915      2.5691      0.0362      4.9045    118.2121
   883.6000      8.0915      2.5479      0.0316      6.1856    120.7808
   883.7000      8.0915      2.5243      0.0437      7.6186    125.3359
   883.8000      8.0720      2.5068      0.0696      8.6792    130.5130
   883.9000      8.0720      2.4953      0.0095      9.3745    133.6197
   884.0000      8.0637      2.4861      0.0068      9.9339    132.1657
   884.1000      8.0637      2.4808     -0.0256     10.2575    129.1504
   884.2000      8.0637      2.4790      0.0162     10.3644    128.7292
   884.3000      8.0631      2.4778     -0.0250     10.4388    131.6812
   884.4000      8.0631      2.4891     -0.0418      9.7500    133.6438
   884.5000      8.0490      2.5227      0.0403      7.7146    128.9402
   884.6000      8.0490      2.5551      0.1217      5.7521    121.5782
   884.7000      8.0490      2.5586      0.1014      5.5404    122.2598
   884.8000      8.0452      2.5371      0.0454      6.8444    132.9482
   884.9000      8.0452      2.5103      0.0618      8.4648    144.7065
   885.0000      8.0225      2.4970      0.0007      9.2735    153.8399
   885.1000      8.0225      2.5028      0.0681      8.9190    159.9686
