~Version Information
VERS.                      2.0: CWLS Log ASCII Standard - VERSION 2.0
WRAP.                       NO: One line per depth step
~Well Information Block
STRT.FT               260.0000: 
STOP.FT              1229.5000: 
STEP.FT                 0.1000: 
NULL.                -999.2500: 
COMP.          Pioneer Natural Resources: COMPANY
WELL.             Mahalo 12-20: WELL
FLD.           Purgatoire River: FIELD
LOC.           1689' FNL & 479' FWL: LOCATION
CNTY.               Las Animas: COUNTY
SRVC.                Patterson: SERVICE COMPANY
DATE.          Mon Feb 27 07:00:19 2006: LOG DATE
UWI.           05 071 08700 00: UNIQUE WELL ID
STAT.                 Colorado: STATE
~Curve Information Block
DEPT.FT            0 000 00 00: Depth
DCAL.in                       : CDL Caliper
RHOB.g/cc                     : CDL Bulk Density
RHOC.g/cc                     : CDL Density Correction
DPOR.pu                       : CDL Density Porosity
GR.GAPI                       : Gamma Ray
NPOR.pu                       : Neutron Porosity
~Parameter Information Block
~A  Depth       DCAL        RHOB        RHOC        DPOR         GR         NPOR    
# ...
   836.0000      7.7543      2.5272      0.0207      7.4412    155.1801     29.6425
   836.1000      7.7543      2.5307      0.0209      7.2321    163.3642     29.4527
   836.2000      7.7543      2.5250      0.0407      7.5763    165.4193     28.8617
   836.3000      7.7538      2.5079     -0.0028      8.6124    162.0905     28.0362
   836.4000      7.7538      2.4894     -0.0309      9.7353    162.9381     27.8286
   836.5000      7.7541      2.4806     -0.0332     10.2693    168.4338     28.8718
   836.6000      7.7541      2.4825      0.0164     10.1530    162.8755     29.9599
   836.7000      7.7541      2.4833      0.0287     10.1005    145.8533     29.6724
   836.8000      7.7536      2.4763     -0.0183     10.5280    131.1808     28.4502
   836.9000      7.7536      2.4681      0.0204     11.0231    125.6464     27.6653
   837.0000      7.7522      2.4638      0.0288     11.2852    129.0054     27.6324
   837.1000      7.7522      2.4630      0.0201     11.3313    136.0906     27.3675
   837.2000      7.7522      2.4590      0.0334     11.5729    141.0149     26.8685
   837.3000      7.7536      2.4451      0.0154     12.4155    142.2464     27.1285
   837.4000      7.7536      2.4304     -0.0003     13.3064    142.1496     28.1068
   837.5000      7.7542      2.4275     -0.0157     13.4868    143.9293     28.9356
   837.6000      7.7542      2.4362      0.0176     12.9561    146.3052     29.0897
   837.7000      7.7542      2.4524      0.0412     11.9730    144.1131     28.7275
   837.8000      7.7522      2.4713      0.0495     10.8291    136.8675     27.8853
   837.9000      7.7522      2.4841      0.0311     10.0525    128.6625     26.5940
   838.0000      7.7529      2.4832      0.0430     10.1112    124.0645     25.5864
   838.1000      7.7529      2.4701      0.0240     10.9042    124.2960     25.6618
   838.2000      7.7529      2.4612     -0.0341     11.4453    123.9246     26.8723
   838.3000      7.7540      2.4684      0.0133     11.0059    120.2207     28.2533
   838.4000      7.7540      2.4826      0.0251     10.1448    118.9193     28.7322
   838.5000      7.7537      2.4928      0.0329      9.5259    123.0654     28.2225
   838.6000      7.7537      2.4993      0.0354      9.1359    128.7792     27.5184
   838.7000      7.7537      2.5061      0.0667      8.7214    130.6205     27.3848
   838.8000      7.7532      2.5195      0.0344      7.9072    125.6144     27.4358
   838.9000      7.7532      2.5398      0.0546      6.6818    116.7367     27.1244
   839.0000      7.7545      2.5504      0.0811      6.0356    109.3078     26.9381
   839.1000      7.7545      2.5415      0.0249      6.5749    102.9742     27.3333
   839.2000      7.7545      2.5303      0.0033      7.2534     98.1406     27.5696
   839.3000      7.7532      2.5318      0.0507      7.1612     98.2077     26.5326
   839.4000      7.7532      2.5357      0.0422      6.9276     99.7180     24.4448
   839.5000      7.7537      2.5319      0.0280      7.1603     99.2801     22.8141
   839.6000      7.7537      2.5320      0.0206      7.1517    101.1372     22.6912
   839.7000      7.7537      2.5486      0.0395      6.1459    104.6791     23.5034
   839.8000      7.7536      2.5737      0.0476      4.6247    103.5861     23.9037
   839.9000      7.7536      2.5895      0.0610      3.6642     98.8062     23.5436
   840.0000      7.7502      2.5894      0.0511      3.6718     95.8452     23.0677
   840.1000      7.7502      2.5896      0.0387      3.6623     93.2418     23.0117
   840.2000      7.7502      2.6094      0.0161      2.4594     87.4118     23.2488
   840.3000      7.7496      2.6349      0.1120      0.9132     84.8290     23.5367
   840.4000      7.7496      2.6340      0.0837      0.9714     91.3734     23.9223
   840.5000      7.7491      2.6137      0.0266      2.1980     98.6736     24.2424
   840.6000      7.7491      2.6022      0.0285      2.8962     98.1030     24.2533
   840.7000      7.7491      2.5957      0.0855      3.2909     94.5027     23.8955
   840.8000      7.7523      2.5833      0.0305      4.0439     92.6324     23.5326
   840.9000      7.7523      2.5780      0.0358      4.3610     90.9512     23.5749
   841.0000      7.7491      2.5862      0.0385      3.8655     90.5891     23.7536
   841.1000      7.7491      2.5970      0.0272      3.2095     93.0961     23.5806
   841.2000      7.7491      2.6064      0.0209      2.6428     95.3081     23.2760
   841.3000      7.7523      2.6114      0.0512      2.3365     93.2544     23.1463
   841.4000      7.7523      2.6074      0.0204      2.5830     87.8336     23.1141
   841.5000      7.7543      2.5981      0.0499      3.1451     84.3515     23.4213
   841.6000      7.7543      2.5798      0.0444      4.2566     84.1720     24.0117
   841.7000      7.7543      2.5471     -0.0133      6.2374     84.9101     23.9898
   841.8000      7.7539      2.5153     -0.0217      8.1652     87.3825     23.0450
   841.9000      7.7539      2.5033     -0.0294      8.8922     91.4030     21.9440
   842.0000      7.7514      2.5138     -0.0197      8.2530     91.5301     21.3752
   842.1000      7.7514      2.5300      0.0358      7.2711     88.0212     21.2989
   842.2000      7.7514      2.5353      0.0462      6.9537     88.6520     21.4847
   842.3000      7.7522      2.5364      0.0119      6.8864     92.9266     21.6668
   842.4000      7.7522      2.5413      0.0366      6.5895     93.8595     21.4529
   842.5000      7.7513      2.5382      0.0314      6.7730     91.8048     21.1107
   842.6000      7.7513      2.5223      0.0135      7.7421     93.1083     21.0837
   842.7000      7.7513      2.5060      0.0124      8.7264     98.0704     21.1502
   842.8000      7.7502      2.4968      0.0118      9.2839    100.5258     21.1526
   842.9000      7.7502      2.4980     -0.0113      9.2104     98.2782     21.5509
   843.0000      7.7504      2.5176      0.0339      8.0256     93.4612     22.4059
   843.1000      7.7504      2.5515      0.0123      5.9711     90.0473     22.9394
   843.2000      7.7504      2.5800      0.0852      4.2407     89.6505     23.0131
   843.3000      7.7520      2.5867      0.0524      3.8368     89.1683     23.0815
   843.4000      7.7520      2.5812      0.0496      4.1708     85.7370     22.9204
   843.5000      7.7508      2.5817      0.0698      4.1400     78.5509     22.3427
   843.6000      7.7508      2.5839      0.0503      4.0041     70.3712     22.1575
   843.7000      7.7508      2.5774      0.0510      4.4002     67.1996     22.5256
   843.8000      7.7562      2.5644      0.0518      5.1906     70.7279     22.1692
   843.9000      7.7562      2.5494      0.0026      6.0972     76.2949     20.8354
   844.0000      7.7539      2.5372     -0.0054      6.8371     81.0896     19.7695
   844.1000      7.7539      2.5326      0.0123      7.1144     85.2139     19.5390
   844.2000      7.7539      2.5327      0.0132      7.1089     86.7932     19.7576
   844.3000      7.7518      2.5310      0.0288      7.2149     83.4149     19.9331
   844.4000      7.7518      2.5275      0.0257      7.4268     77.3757     20.0742
   844.5000      7.7529      2.5129      0.0643      8.3082     72.2551     20.6159
   844.6000      7.7529      2.4733      0.0064     10.7094     67.1328     21.7716
   844.7000      7.7529      2.4290     -0.0290     13.3958     62.2545     22.7422
   844.8000      7.7489      2.4085      0.0034     14.6349     61.6399     22.5734
   844.9000      7.7489      2.4101     -0.0216     14.5416     65.1822     21.9239
   845.0000      7.7532      2.4171      0.0293     14.1139     66.5708     21.8433
   845.1000      7.7532      2.4211     -0.0101     13.8731     62.9303     22.1255
   845.2000      7.7532      2.4333     -0.0154     13.1349     59.5023     22.3966
   845.3000      7.7614      2.4637      0.0324     11.2908     59.3533     22.5223
   845.4000      7.7614      2.5068      0.0314      8.6766     60.9731     22.4715
   845.5000      7.7537      2.5547      0.0896      5.7777     64.6719     22.6646
