~Version Information
VERS.                      2.0: CWLS Log ASCII Standard - VERSION 2.0
WRAP.                       NO: One line per depth step
~Well Information Block
STRT.FT                -6.7500: 
STOP.FT              1466.2500: 
STEP.FT                 0.2500: 
NULL.                -999.2500: 
COMP.          Pioneer Natural Resources: COMPANY
WELL.          Pallet Ranch 34-15 Tr: WELL
FLD.           Purgatorie River: FIELD
LOC.           465' FSL & 2138' FEL--: LOCATION
PROV.                       CO: PROVINCE
CNTY.               Las Animas: COUNTRY
SRVC.          Patterson Wireline: SERVICE COMPANY
DATE.          Wed Jan 25 09:38:09 2006: LOG DATE
UWI.           05 071 08657 00: UNIQUE WELL ID
~Curve Information Block
DEPT.FT            0 000 00 00: Depth
CCL.                          : Casing Collar Locator
TT3.usec                      : CBL 3' Travel Time
AMP3.mV                       : CBL 3' Amplitude
GR.GAPI                       : Gamma Ray
~Parameter Information Block
~A  Depth       CCL         TT3         AMP3         GR     
# ...
  1132.2500      0.0000    617.0745      7.0630    115.8992
  1132.5000      0.0000    625.3563      7.0341    112.0620
  1132.7500      0.0000    641.9431      6.9627    107.4147
  1133.0000      0.0000    658.4454      6.8984    102.1019
  1133.2500      0.0000    669.6790      6.8715     96.2155
  1133.5000      0.0000    676.0466      6.8775     89.9327
  1133.7500      0.0000    680.8246      6.8964     83.7987
  1134.0000      0.0000    686.9151      6.9142     78.5795
  1134.2500      0.0000    695.2199      6.9249     74.5188
  1134.5000      0.0000    704.5287      6.9222     70.9269
  1134.7500      0.0000    712.6638      6.8978     66.9668
  1135.0000      0.0000    718.1492      6.8464     62.7692
  1135.2500      0.0000    720.9562      6.7708     59.2697
  1135.5000      0.0000    721.9908      6.6854     56.9679
  1135.7500      0.0000    722.1664      6.6139     55.3154
  1136.0000      0.0000    721.8785      6.5823     53.3864
  1136.2500      0.0000    720.8697      6.6102     50.8995
  1136.5000      0.0000    718.3167      6.6998     48.6741
  1136.7500      0.0000    713.3190      6.8303     48.1881
  1137.0000      0.0000    705.8057      6.9627     50.5131
  1137.2500      0.0000    697.0997      7.0602     55.7677
  1137.5000      0.0000    689.3333      7.1086     63.9529
  1137.7500      0.0000    684.1742      7.1191     75.8752
  1138.0000      0.0000    682.2004      7.1138     92.2171
  1138.2500      0.0000    683.2487      7.1091    111.6212
  1138.5000      0.0000    686.6890      7.1089    130.5313
  1138.7500      0.0000    691.0557      7.1100    145.1284
  1139.0000      0.0000    693.9975      7.1103    153.1394
  1139.2500      0.0000    693.3600      7.1084    154.4772
  1139.5000      0.0000    688.2485      7.0958    151.1157
  1139.7500      0.0000    678.2446      7.0577    146.1841
  1140.0000      0.0000    661.6113      6.9870    142.3111
  1140.2500      0.0000    635.9027      6.8968    140.2121
  1140.5000      0.0000    602.1556      6.8119    138.5932
  1140.7500      0.0000    568.6409      6.7490    135.4063
  1141.0000      0.0000    548.6609      6.7082    129.3382
  1141.2500      0.0000    552.3478      6.6836    120.3650
  1141.5000      0.0000    578.7677      6.6734    109.4411
  1141.7500      0.0000    615.4994      6.6750     98.1747
  1142.0000      0.0000    647.2773      6.6703     88.5772
  1142.2500      0.0000    666.5767      6.6240     82.3223
  1142.5000      0.0000    675.9761      6.5053     79.9732
  1142.7500      0.0000    681.2362      6.3152     81.0658
  1143.0000      0.0000    684.6855      6.0918     84.5946
  1143.2500      0.0000    685.6110      5.8873     89.1201
  1143.5000      0.0000    683.6005      5.7420     92.8874
  1143.7500      0.0000    678.7448      5.6784     94.4324
  1144.0000      0.0000    669.3107      5.7150     93.1090
  1144.2500      0.0000    651.3079      5.8719     89.1656
  1144.5000      0.0000    622.6877      6.1499     83.8758
  1144.7500      0.0000    589.8112      6.4998     79.7006
  1145.0000      0.0000    568.0850      6.8280     79.5649
  1145.2500      0.0000    571.4035      7.0498     85.0993
  1145.5000      0.0000    598.9728      7.1426     95.2187
  1145.7500      0.0000    634.6556      7.1554    106.5947
  1146.0000      0.0000    658.8577      7.1726    115.8221
  1146.2500      0.0000    658.6392      7.2655    121.3441
  1146.5000      0.0000    629.7498      7.4619    123.5287
  1146.7500      0.0000    576.9448      7.7465    123.4314
  1147.0000      0.0000    514.9143      8.0805    121.8551
  1147.2500      0.0000    463.3375      8.4183    119.3575
  1147.5000      0.0000    435.3449      8.7153    116.6318
  1147.7500      0.0000    430.1650      8.9337    114.4478
  1148.0000      0.0000    438.5231      9.0547    112.9304
  1148.2500      0.0000    454.6639      9.0858    111.1459
  1148.5000      0.0000    480.3958      9.0545    107.9053
  1148.7500      0.0000    516.4767      8.9909    103.0782
  1149.0000      0.0000    553.4124      8.9117     97.9908
  1149.2500      0.0000    574.2902      8.8186     94.5994
  1149.5000      0.0000    566.8952      8.7080     94.1921
  1149.7500      0.0000    532.6523      8.5840     96.7619
  1150.0000      0.0000    485.0882      8.4607    101.5873
  1150.2500      0.0000    440.5783      8.3525    107.9217
  1150.5000      0.0000    409.2468      8.2632    114.5856
  1150.7500      0.0000    392.1997      8.1846    119.6201
  1151.0000      0.0000    385.0854      8.1063    121.4351
  1151.2500      0.0000    383.1797      8.0264    120.2016
  1151.5000      0.0000    384.4052      7.9504    117.5515
  1151.7500      0.0000    390.2680      7.8818    115.0955
  1152.0000      0.0000    405.6537      7.8135    113.5892
  1152.2500      0.0000    436.5874      7.7343    113.2755
  1152.5000      0.0000    485.1117      7.6446    114.2711
  1152.7500      0.0000    544.5992      7.5599    116.1133
  1153.0000      0.0000    601.4676      7.4958    117.3501
  1153.2500      0.0000    643.5806      7.4432    116.4579
  1153.5000      0.0000    667.3155      7.3610    113.1718
  1153.7500      0.0000    676.7858      7.1970    108.4024
  1154.0000      0.0000    678.1066      6.9288    103.0110
  1154.2500      0.0000    675.4592      6.5950     97.2639
  1154.5000      0.0000    671.2768      6.2838     91.4258
  1154.7500      0.0000    668.2706      6.0692     86.3512
  1155.0000      0.0000    670.4295      5.9446     83.1383
  1155.2500      0.0000    681.4667      5.8401     82.2307
  1155.5000      0.0000    701.8248      5.7268     83.0677
  1155.7500      0.0000    727.4826      5.6727     84.5848
  1156.0000      0.0000    751.9677      5.7595     85.7322
  1156.2500      0.0000    769.1138      5.9716     85.6276
  1156.5000      0.0000    774.6234      6.2032     83.8736
  1156.7500      0.0000    766.8616      6.3575     81.0613
  1157.0000      0.0000    746.0574      6.4262     78.7217
  1157.2500      0.0000    712.7404      6.4885     78.4774
  1157.5000      0.0000    669.5361      6.6331     80.9656
  1157.7500      0.0000    624.7351      6.8615     85.1735
  1158.0000      0.0000    589.6138      7.0864     88.6892
  1158.2500      0.0000    570.5223      7.2514     89.2850
  1158.5000      0.0000    566.7209      7.4080     86.9624
  1158.7500      0.0000    575.5515      7.6238     84.2240
  1159.0000      0.0000    594.9500      7.8627     83.8704
  1159.2500      0.0000    620.5912      8.0129     86.6497
  1159.5000      0.0000    645.2950      8.0091     91.1020
  1159.7500      0.0000    663.2026      7.8847     95.3229
  1160.0000      0.0000    673.0544      7.7202     98.7458
  1160.2500      0.0000    677.1036      7.5733    102.3968
  1160.5000      0.0000    678.1985      7.4589    107.5558
  1160.7500      0.0000    678.1135      7.3712    114.3770
  1161.0000      0.0000    677.2579      7.3102    121.8973
  1161.2500      0.0000    674.8051      7.2834    128.8076
  1161.5000      0.0000    668.7707      7.2903    133.7676
  1161.7500      0.0000    656.7181      7.3109    135.7301
  1162.0000      0.0000    637.6882      7.3168    135.0073
  1162.2500      0.0000    614.4528      7.2940    133.7005
  1162.5000      0.0000    593.7225      7.2503    134.0346
  1162.7500      0.0000    583.1954      7.2043    136.2007
  1163.0000      0.0000    587.2543      7.1743    138.3146
  1163.2500      0.0000    604.2189      7.1770    138.3064
  1163.5000      0.0000    627.0170      7.2287    135.4995
  1163.7500      0.0000    647.1125      7.3395    130.8457
  1164.0000      0.0000    658.9467      7.5032    126.2518
  1164.2500      0.0000    661.5891      7.6926    123.4612
  1164.5000      0.0000    657.1915      7.8702    123.1203
  1164.7500      0.0000    648.5286      8.0061    124.7307
  1165.0000      0.0000    637.5820      8.0907    127.3270
  1165.2500      0.0000    625.9958      8.1303    130.2045
  1165.5000      0.0000    616.4328      8.1381    133.3524
