~Version Information
VERS.                      2.0: CWLS Log ASCII Standard - VERSION 2.0
WRAP.                       NO: One line per depth step
~Well Information Block
STRT.FT                -2.7500: 
STOP.FT               973.2500: 
STEP.FT                 0.2500: 
NULL.                -999.2500: 
COMP.          Pioneer Natural Resources: COMPANY
WELL.          Red Raider 22-15: WELL
FLD.           Purgatoire River: FIELD
LOC.           1809' FNL & 2107' FWL: LOCATION
CNTY.               Las Animas: COUNTY
SRVC.                Patterson: SERVICE COMPANY
DATE.          Mon Apr 17 16:50:50 2006: LOG DATE
UWI.           05 071 08718 00: UNIQUE WELL ID
STAT.                 Colorado: STATE
~Curve Information Block
DEPT.FT            0 000 00 00: Depth
GR.GAPI                       : Gamma Ray
CCL.                          : Casing Collar Locator
TT3.usec                      : CBL 3' Travel Time
AMP3.mV                       : CBL 3' Amplitude
~Parameter Information Block
~A  Depth        GR         CCL         TT3         AMP3    
# ...
   298.7500     75.2802      0.0000    255.8852     66.0971
   299.0000     77.3362      0.0000    255.9837     66.1555
   299.2500     81.6207      0.0000    256.3037     65.9249
   299.5000     87.6137      0.0000    257.1389     65.1595
   299.7500     94.2795      0.0000    258.9745     63.5138
   300.0000    100.5171      0.0000    262.3924     60.7869
   300.2500    105.2866      0.0000    267.7359     57.2230
   300.5000    107.3373      0.0000    274.6347     53.5543
   300.7500    105.4121      0.0000    281.8592     50.6403
   301.0000     99.1821      0.0000    287.9047     48.9534
   301.2500     89.8804      0.0000    291.9003     48.3673
   301.5000     79.7889      0.0000    293.9298     48.4235
   301.7500     71.0941      0.0000    294.5176     48.7622
   302.0000     65.0585      3.0000    293.8992     49.3486
   302.2500     61.9137      0.0000    291.7343     50.4650
   302.5000     61.3093      0.0000    287.4693     52.5419
   302.7500     62.7141      0.0000    281.0940     55.8023
   303.0000     65.3886      0.0000    273.6082     59.8771
   303.2500     68.3091      0.0000    266.6064     63.8507
   303.5000     70.5641      0.0000    261.3071     66.8674
   303.7500     71.9203      0.0000    257.9941     68.6810
   304.0000     72.9682      0.0000    256.2436     69.5886
   304.2500     74.8210      0.0000    255.4494     69.9976
   304.5000     78.5697      0.0000    255.1405     70.1656
   304.7500     84.5908      0.0000    255.0384     70.2154
   305.0000     92.1786      0.0000    255.0079     70.2137
   305.2500    100.0275      0.0000    254.9981     70.2022
   305.5000    107.1385      0.0000    254.9948     70.1984
   305.7500    113.2289      0.0000    254.9955     70.1978
   306.0000    118.4968      0.0000    255.0007     70.1744
   306.2500    123.1745      0.0000    255.0134     70.0907
   306.5000    126.9953      0.0000    255.0372     69.9221
   306.7500    128.8986      0.0000    255.0709     69.6838
   307.0000    127.6222      0.0000    255.1100     69.4316
   307.2500    122.7712      0.0000    255.1508     69.2387
   307.5000    115.1816      0.0000    255.1914     69.1660
   307.7500    106.3955      0.0000    255.2268     69.2327
   308.0000     97.9793      0.0000    255.2500     69.3972
   308.2500     91.0197      0.0000    255.2571     69.5780
   308.5000     85.8438      0.0000    255.2518     69.7107
   308.7500     82.0970      0.0000    255.2418     69.7916
   309.0000     79.2851      0.0000    255.2329     69.8687
   309.2500     77.4628      0.0000    255.2258     69.9979
   309.5000     77.3199      0.0000    255.2177     70.2052
   309.7500     79.5059      0.0000    255.2081     70.4772
   310.0000     84.0731      0.0000    255.2008     70.7715
   310.2500     90.5593      0.0000    255.1991     71.0354
   310.5000     98.1363      0.0000    255.2014     71.2275
   310.7500    105.5166      0.0000    255.2018     71.3386
   311.0000    111.0782      0.0000    255.1936     71.4024
   311.2500    113.3736      0.0000    255.1734     71.4789
   311.5000    111.8070      0.0000    255.1424     71.6149
   311.7500    107.2682      0.0000    255.1066     71.8102
   312.0000    102.0480      0.0000    255.0736     72.0223
   312.2500     98.4208      0.0000    255.0494     72.1979
   312.5000     96.9833      0.0000    255.0364     72.3010
   312.7500     96.6834      0.0000    255.0330     72.3234
   313.0000     96.5406      0.0000    255.0348     72.2915
   313.2500     96.9612      0.0000    255.0379     72.2578
   313.5000     99.2458      0.0000    255.0404     72.2693
   313.7500    104.0374      0.0000    255.0417     72.3334
   314.0000    110.3429      0.0000    255.0401     72.4120
   314.2500    116.1265      0.0000    255.0331     72.4457
   314.5000    120.0019      0.0000    255.0195     72.3862
   314.7500    122.2450      0.0000    255.0021     72.2228
   315.0000    123.8658      0.0000    254.9863     71.9940
   315.2500    124.8743      0.0000    254.9772     71.7736
   315.5000    123.9536      0.0000    254.9776     71.6299
   315.7500    119.8085      0.0000    254.9873     71.5812
   316.0000    112.4085      0.0000    255.0029     71.5814
   316.2500    103.0377      0.0000    255.0193     71.5531
   316.5000     93.5917      0.0000    255.0312     71.4441
   316.7500     85.7050      0.0000    255.0361     71.2638
   317.0000     80.0886      0.0000    255.0380     71.0729
   317.2500     76.5242      0.0000    255.0464     70.9368
   317.5000     74.3859      0.0000    255.0700     70.8818
   317.7500     73.0095      0.0000    255.1075     70.8892
   318.0000     71.8193      0.0000    255.1482     70.9190
   318.2500     70.6282      0.0000    255.1808     70.9379
   318.5000     69.8438      0.0000    255.2015     70.9330
   318.7500     69.9905      0.0000    255.2124     70.9189
   319.0000     70.9287      0.0000    255.2174     70.9391
   319.2500     71.7061      0.0000    255.2185     71.0478
   319.5000     71.2280      0.0000    255.2148     71.2697
   319.7500     69.1305      0.0000    255.2034     71.5705
   320.0000     66.0854      0.0000    255.1826     71.8728
   320.2500     63.2936      0.0000    255.1547     72.1103
   320.5000     61.5999      0.0000    255.1241     72.2743
   320.7500     60.9097      0.0000    255.0952     72.4138
   321.0000     60.3415      0.0000    255.0705     72.5888
   321.2500     59.1473      0.0000    255.0496     72.8214
   321.5000     57.7083      0.0000    255.0288     73.0864
   321.7500     57.4355      0.0000    255.0035     73.3404
   322.0000     59.3036      0.0000    254.9725     73.5503
   322.2500     62.5090      0.0000    254.9392     73.7007
   322.5000     64.9706      0.0000    254.9087     73.7869
   322.7500     65.2328      0.0000    254.8823     73.8115
   323.0000     63.6182      0.0000    254.8576     73.7857
   323.2500     61.6163      0.0000    254.8330     73.7313
   323.5000     60.5016      0.0000    254.8099     73.6713
   323.7500     60.5411      0.0000    254.7921     73.6151
   324.0000     61.1910      0.0000    254.7815     73.5520
   324.2500     61.7219      0.0000    254.7773     73.4581
   324.5000     61.5982      0.0000    254.7778     73.3092
   324.7500     60.5618      0.0000    254.7822     73.0924
   325.0000     58.7286      0.0000    254.7900     72.8205
   325.2500     56.6177      0.0000    254.7995     72.5341
   325.5000     54.8740      0.0000    254.8089     72.2838
   325.7500     53.8953      0.0000    254.8169     72.1022
   326.0000     53.6900      0.0000    254.8236     71.9895
   326.2500     53.9101      0.0000    254.8302     71.9178
   326.5000     54.0383      0.0000    254.8378     71.8484
   326.7500     53.9102      0.0000    254.8463     71.7573
   327.0000     54.1492      0.0000    254.8544     71.6540
   327.2500     55.5892      0.0000    254.8626     71.5746
   327.5000     58.0683      0.0000    254.8751     71.5536
   327.7500     60.3970      0.0000    254.8960     71.6066
   328.0000     61.8209      0.0000    254.9243     71.7313
   328.2500     62.9436      0.0000    254.9534     71.9046
   328.5000     64.9221      0.0000    254.9758     72.0771
   328.7500     68.2243      0.0000    254.9884     72.1904
   329.0000     72.5318      0.0000    254.9932     72.2174
   329.2500     77.5788      0.0000    254.9943     72.1827
   329.5000     83.5873      0.0000    254.9949     72.1368
   329.7500     90.6286      0.0000    254.9954     72.1174
   330.0000     97.8241      0.0000    254.9933     72.1364
   330.2500    103.5444      0.0000    254.9860     72.1867
   330.5000    106.3925      0.0000    254.9726     72.2506
   330.7500    105.8961      0.0000    254.9552     72.3067
   331.0000    102.4410      0.0000    254.9371     72.3407
   331.2500     96.9679      0.0000    254.9211     72.3540
   331.5000     90.8869      0.0000    254.9089     72.3599
   331.7500     85.7505      0.0000    254.9008     72.3752
   332.0000     82.3311      0.0000    254.8955     72.4124
