~Version Information
VERS.                      2.0: CWLS Log ASCII Standard - VERSION 2.0
WRAP.                       NO: One line per depth step
~Well Information Block
STRT.FT               491.0000: 
STOP.FT              1911.5000: 
STEP.FT                 0.2500: 
NULL.                -999.2500: 
COMP.          Pioneer Natural Resources: COMPANY
WELL.            Corazon 13-10: WELL
FLD.           Purgatoire River: FIELD
LOC.           2510' FSL & 439' FWL: LOCATION
PROV.                 Colorado: PROVINCE
CNTY.               Las Animas: COUNTRY
SRVC.                Patterson: SERVICE COMPANY
DATE.          Wed Nov 30 22:14:48 2005: LOG DATE
UWI.           05 071 08613 00: UNIQUE WELL ID
~Curve Information Block
DEPT.FT            0 000 00 00: Depth
SN.Ohm-m                      : IEL Short Normal
SP.mV                         : IEL Spontaneous Potential
DIR.Ohm-m                     : IEL Induction Resistivity
GR.GAPI                       : Gamma Ray
~Parameter Information Block
~A  Depth        SN          SP         DIR          GR     
# ...
  1395.5000     10.2001     36.7507      8.7758    124.0413
  1395.7500     10.4277     36.8298      8.7815    122.6680
  1396.0000     10.5147     36.8812      8.7695    122.2083
  1396.2500     10.5272     36.9060      8.7407    122.8327
  1396.5000     10.4686     36.9147      8.6981    124.2506
  1396.7500     10.3005     36.9188      8.6438    125.2769
  1397.0000     10.0096     36.9212      8.5783    127.5511
  1397.2500      9.6266     36.9147      8.4992    130.0877
  1397.5000      9.2399     36.8866      8.4030    135.4741
  1397.7500      8.9367     36.8262      8.2877    139.5218
  1398.0000      8.6994     36.7304      8.1560    145.1149
  1398.2500      8.4793     36.6065      8.0146    148.2409
  1398.5000      8.3443     36.4719      7.8725    151.9767
  1398.7500      8.3966     36.3484      7.7380    153.6792
  1399.0000      8.5580     36.2514      7.6171    154.4750
  1399.2500      8.5925     36.1802      7.5140    153.4833
  1399.5000      8.4030     36.1188      7.4298    149.2445
  1399.7500      8.1303     36.0485      7.3625    144.4880
  1400.0000      7.9326     35.9634      7.3078    135.1859
  1400.2500      7.8598     35.8732      7.2622    128.7240
  1400.5000      7.8870     35.7932      7.2259    121.2679
  1400.7500      7.9515     35.7331      7.2040    118.7996
  1401.0000      7.9947     35.6935      7.2034    118.6266
  1401.2500      7.9965     35.6687      7.2303    119.8433
  1401.5000      7.9755     35.6524      7.2869    121.8181
  1401.7500      7.9455     35.6380      7.3719    122.7336
  1402.0000      7.9074     35.6162      7.4817    123.6075
  1402.2500      7.9039     35.5759      7.6147    123.8908
  1402.5000      7.9869     35.5104      7.7730    123.0425
  1402.7500      8.1571     35.4256      7.9627    120.9175
  1403.0000      8.4196     35.3404      8.1897    115.0200
  1403.2500      8.8191     35.2794      8.4565    109.8616
  1403.5000      9.3596     35.2602      8.7599    102.0038
  1403.7500      9.9530     35.2856      9.0932     97.4657
  1404.0000     10.5029     35.3464      9.4498     91.8756
  1404.2500     11.0181     35.4312      9.8271     88.4532
  1404.5000     11.5468     35.5341     10.2272     82.7926
  1404.7500     12.0681     35.6536     10.6538     78.5999
  1405.0000     12.5964     35.7865     11.1078     72.8476
  1405.2500     13.2417     35.9236     11.5834     70.4068
  1405.5000     14.0106     36.0525     12.0673     69.9749
  1405.7500     14.7271     36.1643     12.5427     71.8074
  1406.0000     15.2252     36.2576     12.9954     76.6979
  1406.2500     15.4583     36.3340     13.4174     80.3448
  1406.5000     15.4676     36.3917     13.8051     84.1849
  1406.7500     15.3669     36.4259     14.1534     84.6513
  1407.0000     15.2869     36.4360     14.4503     82.1699
  1407.2500     15.2832     36.4297     14.6766     79.3826
  1407.5000     15.3038     36.4179     14.8130     75.6763
  1407.7500     15.2505     36.4073     14.8524     74.3620
  1408.0000     15.1064     36.4011     14.8100     74.3950
  1408.2500     14.9542     36.4046     14.7208     75.3880
  1408.5000     14.8460     36.4230     14.6236     77.3998
  1408.7500     14.7548     36.4529     14.5429     78.7054
  1409.0000     14.6488     36.4812     14.4815     80.5643
  1409.2500     14.5549     36.4973     14.4279     81.9223
  1409.5000     14.5126     36.5041     14.3691     84.3010
  1409.7500     14.4779     36.5156     14.2992     86.0725
  1410.0000     14.3931     36.5448     14.2187     88.9679
  1410.2500     14.2734     36.5956     14.1294     90.9719
  1410.5000     14.0891     36.6609     14.0305     93.3196
  1410.7500     13.7869     36.7278     13.9208     93.7485
  1411.0000     13.4926     36.7852     13.8035     92.2042
  1411.2500     13.3666     36.8300     13.6890     90.2632
  1411.5000     13.3284     36.8701     13.5895     87.7550
  1411.7500     13.2091     36.9162     13.5100     87.2044
  1412.0000     12.9982     36.9704     13.4417     88.4876
  1412.2500     12.7943     37.0237     13.3634     90.3825
  1412.5000     12.6805     37.0663     13.2503     93.5114
  1412.7500     12.6785     37.0977     13.0842     95.0863
  1413.0000     12.7236     37.1226     12.8628     96.3226
  1413.2500     12.6742     37.1438     12.5995     96.6823
  1413.5000     12.4461     37.1615     12.3177     97.0914
  1413.7500     12.1216     37.1767     12.0407     97.3777
  1414.0000     11.8535     37.1911     11.7853     97.9585
  1414.2500     11.7127     37.2060     11.5579     98.7424
  1414.5000     11.6548     37.2241     11.3547    101.0227
  1414.7500     11.6236     37.2478     11.1640    103.1402
  1415.0000     11.6302     37.2749     10.9721    106.2106
  1415.2500     11.6391     37.2976     10.7686    107.7204
  1415.5000     11.5229     37.3067     10.5493    109.4414
  1415.7500     11.2490     37.2967     10.3149    110.7799
  1416.0000     10.9251     37.2678     10.0670    113.6194
  1416.2500     10.6430     37.2242      9.8052    115.8755
  1416.5000     10.4206     37.1737      9.5276    118.9557
  1416.7500     10.2113     37.1285      9.2334    120.3512
  1417.0000      9.9477     37.1028      8.9257    121.1479
  1417.2500      9.6407     37.1071      8.6122    120.9449
  1417.5000      9.3810     37.1444      8.3031    120.2112
  1417.7500      9.2224     37.2127      8.0072    119.9723
  1418.0000      9.1026     37.3077      7.7308    120.6529
  1418.2500      8.9085     37.4224      7.4772    121.7460
  1418.5000      8.6183     37.5470      7.2471    123.6504
  1418.7500      8.3486     37.6738      7.0403    124.7660
  1419.0000      8.1999     37.8027      6.8569    126.1736
  1419.2500      8.1095     37.9406      6.6978    127.0358
  1419.5000      7.9841     38.0925      6.5662    128.2925
  1419.7500      7.8406     38.2549      6.4674    129.1527
  1420.0000      7.7007     38.4159      6.4081    130.6091
  1420.2500      7.5411     38.5592      6.3953    131.6792
  1420.5000      7.3975     38.6716      6.4353    133.1375
  1420.7500      7.3594     38.7493      6.5327    133.7715
  1421.0000      7.4630     38.7978      6.6895    133.9529
  1421.2500      7.6691     38.8244      6.9060    133.5041
  1421.5000      7.9342     38.8324      7.1810    131.8235
  1421.7500      8.2856     38.8219      7.5130    129.8033
  1422.0000      8.8154     38.7950      7.9019    124.9648
  1422.2500      9.5626     38.7593      8.3494    120.4815
  1422.5000     10.5022     38.7263      8.8615    112.4205
  1422.7500     11.7006     38.7069      9.4497    106.6665
  1423.0000     13.2996     38.7050     10.1303     98.0210
  1423.2500     15.3331     38.7151     10.9200     92.3134
  1423.5000     17.6617     38.7278     11.8289     84.0762
  1423.7500     19.9899     38.7377     12.8557     79.3006
  1424.0000     21.9680     38.7484     13.9875     74.3295
  1424.2500     23.3912     38.7692     15.2041     72.7483
  1424.5000     24.2721     38.8079     16.4788     72.2840
  1424.7500     24.7322     38.8648     17.7741     72.4884
  1425.0000     24.9154     38.9322     19.0354     72.7314
  1425.2500     24.9402     38.9978     20.1916     73.0024
  1425.5000     24.8196     39.0501     21.1662     74.7710
  1425.7500     24.5127     39.0857     21.8949     77.6436
  1426.0000     24.0466     39.1129     22.3420     84.7343
  1426.2500     23.5178     39.1498     22.5129     90.2961
  1426.5000     23.0618     39.2170     22.4519     96.5598
  1426.7500     22.8213     39.3278     22.2234     97.6555
  1427.0000     22.8750     39.4796     21.8839     94.4652
  1427.2500     23.1773     39.6529     21.4632     90.5710
  1427.5000     23.5844     39.8209     20.9641     85.0925
  1427.7500     23.9503     39.9636     20.3790     82.7081
  1428.0000     24.1478     40.0757     19.7089     81.5490
  1428.2500     24.0077     40.1634     18.9711     82.5541
  1428.5000     23.3468     40.2380     18.1894     87.2178
  1428.7500     22.1254     40.3130     17.3805     92.5234
