~Version Information
VERS.                      2.0: CWLS Log ASCII Standard - VERSION 2.0
WRAP.                       NO: One line per depth step
~Well Information Block
STRT.FT                10.0000: 
STOP.FT               959.2500: 
STEP.FT                 0.2500: 
NULL.                -999.2500: 
COMP.          XTO Energy Inc.: COMPANY
WELL.          Golden Eagle 20-04: WELL
FLD.           Purgatrorie River: FIELD
LOC.           702' FNL & 487' FWL--: LOCATION
STAT.                       CO: State
CNTY.               Las Animas: COUNTY
CTRY. USA : Country
SECT. 20 : Section
TOWN. 33S : Township
RANG. 67W : Range
SRVC.          Patterson Wireline: SERVICE COMPANY
DATE.          Mon Dec 05 08:42:44 2005: LOG DATE
API.           05 071 08599 00: UNIQUE WELL ID
~Curve Information Block
DEPT.FT            0 000 00 00: Depth
TEMP.degF                     : Downhole Temperature
DTMP.degF                     : Delta Temperature
~Parameter Information Block
~A  Depth       TEMP        DTMP    
# ...
   177.2500     55.0026      0.0118
   177.5000     55.0050      0.0117
   177.7500     55.0074      0.0112
   178.0000     55.0106      0.0116
   178.2500     55.0138      0.0112
   178.5000     55.0170      0.0116
   178.7500     55.0194      0.0121
   179.0000     55.0226      0.0118
   179.2500     55.0251      0.0119
   179.5000     55.0283      0.0120
   179.7500     55.0317      0.0121
   180.0000     55.0342      0.0122
   180.2500     55.0376      0.0128
   180.5000     55.0410      0.0125
   180.7500     55.0436      0.0127
   181.0000     55.0471      0.0128
   181.2500     55.0507      0.0129
   181.5000     55.0534      0.0131
   181.7500     55.0570      0.0132
   182.0000     55.0597      0.0150
   182.2500     55.0634      0.0157
   182.5000     55.0672      0.0174
   182.7500     55.0701      0.0185
   183.0000     55.0771      0.0192
   183.2500     55.0821      0.0199
   183.5000     55.0882      0.0205
   183.7500     55.0939      0.0209
   184.0000     55.0980      0.0197
   184.2500     55.1032      0.0194
   184.5000     55.1082      0.0181
   184.7500     55.1118      0.0174
   185.0000     55.1164      0.0175
   185.2500     55.1209      0.0165
   185.5000     55.1243      0.0162
   185.7500     55.1287      0.0161
   186.0000     55.1331      0.0159
   186.2500     55.1363      0.0159
   186.5000     55.1407      0.0159
   186.7500     55.1439      0.0160
   187.0000     55.1483      0.0161
   187.2500     55.1527      0.0162
   187.5000     55.1561      0.0165
   187.7500     55.1606      0.0167
   188.0000     55.1653      0.0170
   188.2500     55.1688      0.0174
   188.5000     55.1736      0.0177
   188.7500     55.1773      0.0182
   189.0000     55.1824      0.0179
   189.2500     55.1875      0.0190
   189.5000     55.1915      0.0195
   189.7500     55.1969      0.0199
   190.0000     55.2011      0.0203
   190.2500     55.2067      0.0208
   190.5000     55.2125      0.0212
   190.7500     55.2170      0.0217
   191.0000     55.2230      0.0221
   191.2500     55.2292      0.0226
   191.5000     55.2339      0.0231
   191.7500     55.2403      0.0235
   192.0000     55.2452      0.0240
   192.2500     55.2519      0.0245
   192.5000     55.2587      0.0250
   192.7500     55.2639      0.0255
   193.0000     55.2710      0.0269
   193.2500     55.2782      0.0274
   193.5000     55.2838      0.0269
   193.7500     55.2913      0.0283
   194.0000     55.2989      0.0277
   194.2500     55.3066      0.0282
   194.5000     55.3125      0.0284
   194.7500     55.3204      0.0289
   195.0000     55.3265      0.0281
   195.2500     55.3346      0.0285
   195.5000     55.3407      0.0298
   195.7500     55.3490      0.0301
   196.0000     55.3552      0.0304
   196.2500     55.3636      0.0307
   196.5000     55.3721      0.0310
   196.7500     55.3807      0.0313
   197.0000     55.3872      0.0316
   197.2500     55.3960      0.0320
   197.5000     55.4027      0.0323
   197.7500     55.4116      0.0325
   198.0000     55.4184      0.0327
   198.2500     55.4275      0.0328
   198.5000     55.4366      0.0328
   198.7500     55.4457      0.0329
   199.0000     55.4525      0.0339
   199.2500     55.4616      0.0339
   199.5000     55.4684      0.0326
   199.7500     55.4773      0.0325
   200.0000     55.4863      0.0335
   200.2500     55.4952      0.0322
   200.5000     55.5018      0.0321
   200.7500     55.5107      0.0320
   201.0000     55.5195      0.0318
   201.2500     55.5261      0.0306
   201.5000     55.5326      0.0315
   201.7500     55.5413      0.0312
   202.0000     55.5499      0.0299
   202.2500     55.5563      0.0306
   202.5000     55.5648      0.0303
   202.7500     55.5731      0.0298
   203.0000     55.5792      0.0293
   203.2500     55.5873      0.0288
   203.5000     55.5933      0.0282
   203.7500     55.6009      0.0275
   204.0000     55.6085      0.0271
   204.2500     55.6140      0.0264
   204.5000     55.6212      0.0267
   204.7500     55.6282      0.0254
   205.0000     55.6333      0.0248
   205.2500     55.6401      0.0252
   205.5000     55.6467      0.0247
   205.7500     55.6517      0.0235
   206.0000     55.6581      0.0238
   206.2500     55.6644      0.0225
   206.5000     55.6706      0.0219
   206.7500     55.6751      0.0214
   207.0000     55.6809      0.0207
   207.2500     55.6851      0.0193
   207.5000     55.6906      0.0186
   207.7500     55.6945      0.0179
   208.0000     55.6995      0.0170
   208.2500     55.7031      0.0168
   208.5000     55.7077      0.0158
   208.7500     55.7110      0.0150
   209.0000     55.7150      0.0139
   209.2500     55.7188      0.0134
   209.5000     55.7222      0.0119
   209.7500     55.7245      0.0112
   210.0000     55.7274      0.0098
   210.2500     55.7298      0.0086
   210.5000     55.7315      0.0075
   210.7500     55.7334      0.0066
   211.0000     55.7347      0.0054
   211.2500     55.7361      0.0042
   211.5000     55.7371      0.0034
   211.7500     55.7378      0.0022
   212.0000     55.7382      0.0013
   212.2500     55.7383      0.0003
   212.5000     55.7383     -0.0007
   212.7500     55.7379     -0.0015
   213.0000     55.7373     -0.0024
   213.2500     55.7367     -0.0031
   213.5000     55.7357     -0.0040
   213.7500     55.7347     -0.0047
   214.0000     55.7333     -0.0054
   214.2500     55.7321     -0.0059
   214.5000     55.7304     -0.0065
   214.7500     55.7285     -0.0071
   215.0000     55.7264     -0.0073
   215.2500     55.7249     -0.0078
   215.5000     55.7227     -0.0078
   215.7500     55.7204     -0.0081
   216.0000     55.7187     -0.0080
   216.2500     55.7164     -0.0084
   216.5000     55.7147     -0.0084
   216.7500     55.7123     -0.0085
   217.0000     55.7105     -0.0085
   217.2500     55.7081     -0.0085
   217.5000     55.7058     -0.0085
   217.7500     55.7034     -0.0084
   218.0000     55.7017     -0.0085
   218.2500     55.6994     -0.0083
   218.5000     55.6977     -0.0079
   218.7500     55.6956     -0.0076
   219.0000     55.6935     -0.0074
   219.2500     55.6915     -0.0071
   219.5000     55.6900     -0.0069
   219.7500     55.6882     -0.0065
   220.0000     55.6869     -0.0062
   220.2500     55.6852     -0.0058
   220.5000     55.6840     -0.0056
   220.7500     55.6825     -0.0052
   221.0000     55.6811     -0.0049
   221.2500     55.6798     -0.0045
   221.5000     55.6789     -0.0041
   221.7500     55.6779     -0.0037
   222.0000     55.6771     -0.0033
   222.2500     55.6763     -0.0029
   222.5000     55.6757     -0.0026
   222.7500     55.6750     -0.0023
   223.0000     55.6745     -0.0020
   223.2500     55.6741     -0.0017
   223.5000     55.6737     -0.0014
   223.7500     55.6733     -0.0011
   224.0000     55.6731     -0.0008
   224.2500     55.6729     -0.0006
   224.5000     55.6728     -0.0004
   224.7500     55.6728     -0.0001
   225.0000     55.6728      0.0001
   225.2500     55.6729      0.0003
   225.5000     55.6730      0.0006
   225.7500     55.6731      0.0007
   226.0000     55.6733      0.0009
   226.2500     55.6736      0.0010
   226.5000     55.6739      0.0012
   226.7500     55.6742      0.0013
   227.0000     55.6746      0.0015
   227.2500     55.6749      0.0017
   227.5000     55.6754      0.0017
   227.7500     55.6758      0.0019
   228.0000     55.6763      0.0021
   228.2500     55.6769      0.0022
   228.5000     55.6774      0.0023
   228.7500     55.6781      0.0025
   229.0000     55.6788      0.0025
   229.2500     55.6793      0.0026
   229.5000     55.6800      0.0028
   229.7500     55.6808      0.0028
   230.0000     55.6814      0.0028
   230.2500     55.6821      0.0029
   230.5000     55.6829      0.0028
   230.7500     55.6837      0.0029
   231.0000     55.6843      0.0029
   231.2500     55.6851      0.0029
   231.5000     55.6857      0.0030
   231.7500     55.6866      0.0029
   232.0000     55.6872      0.0030
   232.2500     55.6880      0.0030
   232.5000     55.6888      0.0032
   232.7500     55.6895      0.0032
