~Version Information
VERS.                      2.0: CWLS Log ASCII Standard - VERSION 2.0
WRAP.                       NO: One line per depth step
~Well Information Block
STRT.FT               -10.7500: 
STOP.FT              1466.2500: 
STEP.FT                 0.2500: 
NULL.                -999.2500: 
COMP.          Pioneer Natural Resources: COMPANY
WELL.             Andrew 23-15: WELL
FLD.           Purgatorie River: FIELD
LOC.           2137' FSL & 2292' FWL--: LOCATION
PROV.                       CO: PROVINCE
CNTY.               Las Animas: COUNTRY
SRVC.          Patterson Wireline: SERVICE COMPANY
DATE.          Thu Aug 18 11:51:45 2005: LOG DATE
UWI.           05 071 08460 00: UNIQUE WELL ID
~Curve Information Block
DEPT.FT            0 000 00 00: Depth
CCL.                          : Casing Collar Locator
TT3.usec                      : CBL 3' Travel Time
AMP3.mV                       : CBL 3' Amplitude
GR.GAPI                       : Gamma Ray
~Parameter Information Block
~A  Depth       CCL         TT3         AMP3         GR     
# ...
   290.7500      0.0000    337.4948     24.3999     85.3205
   291.0000      0.0000    336.6982     24.2804     85.9790
   291.2500      0.0000    335.4282     24.2793     86.7362
   291.5000      0.0000    333.6693     24.3955     86.3630
   291.7500      0.0000    332.0090     24.5826     84.5609
   292.0000      0.0000    331.3626     24.7679     81.8933
   292.2500      0.0000    332.1395     24.9008     79.1360
   292.5000      0.0000    333.6861     24.9924     76.7777
   292.7500      0.0000    334.6372     25.1136     75.1849
   293.0000      0.0000    333.6931     25.3530     74.8548
   293.2500      0.0000    330.1715     25.7703     76.0973
   293.5000      0.0000    324.3391     26.3701     78.4887
   293.7500      0.0000    317.4688     27.1029     80.8752
   294.0000      0.0000    311.2596     27.8820     82.0816
   294.2500      0.0000    306.8659     28.6014     81.8374
   294.5000      0.0000    304.4185     29.1532     81.0881
   294.7500      0.0000    303.3640     29.4573     81.1886
   295.0000      0.0000    303.0547     29.4989     82.5325
   295.2500      0.0000    303.0527     29.3423     83.9500
   295.5000      0.0000    303.1325     29.0954     83.5161
   295.7500      0.0000    303.1979     28.8480     80.1171
   296.0000      0.0000    303.2285     28.6294     74.4750
   296.2500      0.0000    303.2523     28.4093     68.7270
   296.5000      0.0000    303.3170     28.1337     64.8215
   296.7500      0.0000    303.4505     27.7728     63.2037
   297.0000      0.0000    303.6445     27.3439     63.0241
   297.2500      0.0000    303.8723     26.8923     63.3903
   297.5000      0.0000    304.1176     26.4529     63.9719
   297.7500      0.0000    304.3817     26.0350     64.4190
   298.0000      0.0000    304.6627     25.6393     63.9716
   298.2500      0.0000    304.9376     25.2828     62.2699
   298.5000      0.0000    305.1674     24.9997     60.1023
   298.7500      0.0000    305.3244     24.8213     58.7496
   299.0000      0.0000    305.4161     24.7533     58.8088
   299.2500      0.0000    305.5132     24.7692     59.9798
   299.5000      0.0000    305.8096     24.8218     61.5505
   299.7500      0.0000    306.7198     24.8684     62.7531
   300.0000      0.0000    308.8906     24.8888     63.1606
   300.2500      0.0000    312.8761     24.8891     63.1251
   300.5000      0.0000    318.4599     24.8892     63.4895
   300.7500      0.0000    324.1954     24.9109     64.6749
   301.0000      0.0000    327.8769     24.9752     66.4285
   301.2500      0.0000    327.8357     25.1071     68.4506
   301.5000      0.0000    324.0576     25.3324     70.7823
   301.7500      0.0000    318.1982     25.6605     73.4526
   302.0000      0.0000    312.4779     26.0674     76.0596
   302.2500      0.0000    308.3688     26.4951     77.9456
   302.5000      0.0000    306.1039     26.8774     78.7290
   302.7500      0.0000    305.1340     27.1790     78.4672
   303.0000      0.0000    304.8118     27.4087     77.2548
   303.2500      0.0000    304.7301     27.5926     75.0137
   303.5000      0.0000    304.7147     27.7410     72.1012
   303.7500      0.0000    304.7157     27.8479     69.9467
   304.0000      0.0000    304.7221     27.9085     70.4356
   304.2500      0.0000    304.7258     27.9277     74.3600
   304.5000      0.0000    304.7207     27.9106     80.6331
   304.7500      0.0000    304.7151     27.8498     87.2096
   305.0000      0.0000    304.7378     27.7245     92.7389
   305.2500      0.0000    304.8298     27.5227     97.1628
   305.5000      0.0000    305.0207     27.2659    100.9263
   305.7500      0.0000    305.2982     26.9976    104.0064
   306.0000      0.0000    305.5912     26.7414    105.6486
   306.2500      0.0000    305.8022     26.4796    104.6623
   306.5000      0.0000    305.8812     26.1826    100.1001
   306.7500      0.0000    305.8606     25.8505     92.2949
   307.0000      0.0000    305.8064     25.5216     83.3802
   307.2500      0.0000    305.7538     25.2455     76.3357
   307.5000      0.0000    305.7023     25.0500     73.2793
   307.7500      0.0000    305.6877     24.9294     74.5503
   308.0000      0.0000    305.8552     24.8570     78.9523
   308.2500      0.0000    306.8375     24.8070     84.4439
   308.5000      0.0000    310.5146     24.7594     88.8686
   308.7500      0.0000    320.7527     24.6875     90.7065
   309.0000      0.0000    342.0168     24.5594     89.7050
   309.2500      0.0000    374.0634     24.3647     87.0110
   309.5000      0.0000    406.8420     24.1333     84.4755
   309.7500      0.0000    424.8913     23.9156     83.5101
   310.0000      0.0000    421.0862     23.7456     84.4787
   310.2500      0.0000    403.7987     23.6279     86.9196
   310.5000      0.0000    387.5659     23.5541     90.1169
   310.7500      0.0000    379.8016     23.5192     93.5860
   311.0000      0.0000    378.7252     23.5216     97.1630
   311.2500      0.0000    379.8570     23.5559    100.5808
   311.5000      0.0000    380.7210     23.6100    102.9389
   311.7500      0.0000    380.9393     23.6688    102.7716
   312.0000      0.0000    380.8190     23.7232     99.0767
   312.2500      0.0000    380.6168     23.7753     92.6108
   312.5000      0.0000    380.3794     23.8354     85.9358
   312.7500      0.0000    380.0094     23.9137     81.7787
   313.0000      0.0000    379.2415     24.0167     81.3266
   313.2500      0.0000    377.8048     24.1470     83.9341
   313.5000      0.0000    375.9056     24.2938     87.8864
   313.7500      0.0000    375.2154     24.4173     91.2767
   314.0000      0.0000    379.7581     24.4499     92.6630
   314.2500      0.0000    396.5453     24.3246     91.3717
   314.5000      0.0000    434.6528     24.0106     87.4478
   314.7500      0.0000    500.9236     23.5303     81.5745
   315.0000      0.0000    594.1970     22.9544     75.1326
   315.2500      0.0000    704.5447     22.3811     69.9282
   315.5000      0.0000    818.1982     21.9024     67.2636
   315.7500      0.0000    920.3528     21.5654     67.0511
   316.0000      0.0000    995.2136     21.3500     68.0810
   316.2500      0.0000   1031.1132     21.1834     69.2111
   316.5000      0.0000   1028.4661     20.9815     70.0888
   316.7500      0.0000    999.8850     20.6848     70.9999
   317.0000      0.0000    961.7255     20.2764     72.8134
   317.2500      0.0000    926.1210     19.7871     77.1131
   317.5000      0.0000    898.8197     19.2882     85.1488
   317.7500      0.0000    880.8747     18.8612     95.9416
   318.0000      0.0000    870.6942     18.5646    106.1932
   318.2500      0.0000    865.7153     18.4193    112.8123
   318.5000      0.0000    863.5574     18.4093    115.1500
   318.7500      0.0000    862.6728     18.4866    114.6635
   319.0000      0.0000    862.3013     18.5850    113.3062
   319.2500      0.0000    862.1292     18.6452    112.7003
   319.5000      0.0000    862.0328     18.6359    113.8596
   319.7500      0.0000    861.9614     18.5554    116.5592
   320.0000      0.0000    861.9151     18.4199    119.1192
   320.2500      0.0000    861.9875     18.2536    119.6002
   320.5000      0.0000    862.4545     18.0841    117.5569
   320.7500      0.0000    863.9614     17.9349    114.5559
   321.0000      0.0000    867.3305     17.8145    112.8615
   321.2500      0.0000    872.4998     17.7065    113.4385
   321.5000      0.0000    876.8698     17.5624    115.0834
   321.7500      0.0000    875.5952     17.3001    115.4951
   322.0000      0.0000    866.5875     16.8165    113.0581
   322.2500      0.0000    855.6394     16.0481    107.6030
   322.5000      0.0000    852.8374     15.0674     99.8518
   322.7500      0.0000    863.3826     14.0937     90.7164
   323.0000      0.0000    887.0580     13.3291     81.2679
   323.2500      0.0000    924.8591     12.7855     72.8946
   323.5000      0.0000    976.3979     12.3403     66.8722
   323.7500      0.0000   1031.2660     11.9265     63.7171
   324.0000      0.0000   1072.4263     11.5844     63.1127
