~Version Information
VERS.                      2.0: CWLS Log ASCII Standard - VERSION 2.0
WRAP.                       NO: One line per depth step
~Well Information Block
STRT.FT                -8.0000: 
STOP.FT              1060.7500: 
STEP.FT                 0.2500: 
NULL.                -999.2500: 
COMP.          Pioneer Natural Resources: COMPANY
WELL.          Pavillion 44-25: WELL
FLD.           Purgatorie River: FIELD
LOC.           719' FSL & 650' FEL--: LOCATION
PROV.                       CO: PROVINCE
CNTY.               Las Animas: COUNTRY
SRVC.          Patterson Wireline: SERVICE COMPANY
DATE.          Mon Dec 19 11:59:26 2005: LOG DATE
UWI.           05 071 08624 00: UNIQUE WELL ID
~Curve Information Block
DEPT.FT            0 000 00 00: Depth
CCL.                          : Casing Collar Locator
TT3.usec                      : CBL 3' Travel Time
AMP3.mV                       : CBL 3' Amplitude
GR.GAPI                       : Gamma Ray
~Parameter Information Block
~A  Depth       CCL         TT3         AMP3         GR     
# ...
   896.5000      0.0000    685.8184      6.3957     65.3728
   896.7500      0.0000    691.1208      6.4264     66.3140
   897.0000      0.0000    697.3802      6.4470     69.1652
   897.2500      0.0000    702.0616      6.4578     72.5483
   897.5000      0.0000    703.0969      6.4510     74.2980
   897.7500      0.0000    699.7603      6.4222     73.7977
   898.0000      0.0000    693.0121      6.3741     72.2656
   898.2500      0.0000    685.1667      6.3151     70.9883
   898.5000      0.0000    678.9437      6.2553     70.2363
   898.7500      0.0000    676.2967      6.2001     70.0322
   899.0000      0.0000    677.5573      6.1476     71.1163
   899.2500      0.0000    681.1807      6.0963     74.6045
   899.5000      0.0000    684.3497      6.0549     80.8546
   899.7500      0.0000    684.5313      6.0389     88.9183
   900.0000      0.0000    680.9714      6.0560     97.2308
   900.2500      0.0000    674.7006      6.0966    104.8504
   900.5000      0.0000    667.3940      6.1373    112.0724
   900.7500      0.0000    660.7069      6.1505    119.9896
   901.0000      0.0000    656.2209      6.1177    129.4386
   901.2500      0.0000    654.8539      6.0504    140.0622
   901.5000      0.0000    656.1331      5.9953    150.0193
   901.7500      0.0000    658.8066      5.9890    156.3713
   902.0000      0.0000    662.2784      5.9964    155.9442
   902.2500      0.0000    666.6957      5.9350    146.8139
   902.5000      0.0000    671.3810      5.7885    130.0360
   902.7500      0.0000    673.7550      5.6505    109.9095
   903.0000      0.0000    671.2645      5.6212     91.6752
   903.2500      0.0000    665.4411      5.6975     78.4595
   903.5000     -2.0000    662.6074      5.7956     70.2434
   903.7500      0.0000    667.8339      5.8456     65.2055
   904.0000      0.0000    678.5854      5.8448     61.6024
   904.2500      0.0000    686.8528      5.8486     58.7148
   904.5000      0.0000    687.0378      5.9212     56.7720
   904.7500      0.0000    679.4435      6.0672     56.3710
   905.0000      0.0000    666.2089      6.2065     57.6926
   905.2500      0.0000    645.8193      6.2553     59.9717
   905.5000      0.0000    613.2084      6.2257     61.7830
   905.7500      0.0000    566.1646      6.2106     62.0457
   906.0000      0.0000    511.0669      6.2737     60.7802
   906.2500      0.0000    460.5476      6.3921     58.9293
   906.5000      0.0000    425.0593      6.4993     57.5630
   906.7500      0.0000    407.3408      6.5534     57.3777
   907.0000      0.0000    404.1163      6.5561     58.7343
   907.2500      0.0000    410.9472      6.5288     61.5508
   907.5000      0.0000    425.7139      6.4896     64.9289
   907.7500      0.0000    449.6689      6.4481     67.4324
   908.0000      0.0000    485.6895      6.4095     68.1575
   908.2500      0.0000    533.8301      6.3775     67.3537
   908.5000      0.0000    587.9132      6.3533     65.9671
   908.7500      0.0000    637.7543      6.3358     64.8283
   909.0000      0.0000    675.2562      6.3204     64.2881
   909.2500      0.0000    698.1339      6.3027     64.4411
   909.5000      0.0000    708.9719      6.2827     65.4001
   909.7500      0.0000    712.3229      6.2681     67.0631
   910.0000      0.0000    712.3361      6.2703     68.6719
   910.2500      0.0000    711.5760      6.2962     69.0881
   910.5000      0.0000    711.0037      6.3434     67.8205
   910.7500      0.0000    710.5782      6.4026     65.6673
   911.0000      0.0000    709.7714      6.4620     64.0724
   911.2500      0.0000    707.8173      6.5087     63.8008
   911.5000      0.0000    704.0635      6.5319     64.3759
   911.7500      0.0000    698.5285      6.5286     64.7232
   912.0000      0.0000    692.2047      6.5065     64.1326
   912.2500      0.0000    686.5827      6.4795     62.6101
   912.5000      0.0000    682.6824      6.4599     60.6034
   912.7500      0.0000    680.5492      6.4522     58.6351
   913.0000      0.0000    679.5822      6.4513     57.0764
   913.2500      0.0000    679.1429      6.4479     55.9710
   913.5000      0.0000    678.8691      6.4381     54.9867
   913.7500      0.0000    678.6565      6.4252     53.8262
   914.0000      0.0000    678.5204      6.4140     52.8767
   914.2500      0.0000    678.4826      6.4050     53.2355
   914.5000      0.0000    678.5217      6.3979     55.7920
   914.7500      0.0000    678.5899      6.3957     60.3535
   915.0000      0.0000    678.6511      6.4043     65.7919
   915.2500      0.0000    678.6943      6.4268     70.8150
   915.5000      0.0000    678.7130      6.4606     74.4739
   915.7500      0.0000    678.6831      6.5011     76.3129
   916.0000      0.0000    678.5772      6.5462     76.5221
   916.2500      0.0000    678.3963      6.5977     75.8993
   916.5000      0.0000    678.1785      6.6574     75.2693
   916.7500      0.0000    677.9715      6.7245     74.7916
   917.0000      0.0000    677.8020      6.7944     73.9749
   917.2500      0.0000    677.6712      6.8627     72.3854
   917.5000      0.0000    677.5679      6.9275     70.1379
   917.7500      0.0000    677.4770      6.9886     67.7511
   918.0000      0.0000    677.3819      7.0430     65.7713
   918.2500      0.0000    677.2689      7.0853     64.5526
   918.5000      0.0000    677.1379      7.1122     64.1167
   918.7500      0.0000    677.0102      7.1269     64.0142
   919.0000      0.0000    676.9219      7.1350     63.5407
   919.2500      0.0000    676.9031      7.1393     62.4576
   919.5000      0.0000    676.9595      7.1398     61.4128
   919.7500      0.0000    677.0769      7.1376     61.2977
   920.0000      0.0000    677.2363      7.1357     62.2276
   920.2500      0.0000    677.4150      7.1359     63.4078
   920.5000      0.0000    677.5781      7.1373     63.9009
   920.7500      0.0000    677.6871      7.1377     63.3346
   921.0000      0.0000    677.7244      7.1358     62.1212
   921.2500      0.0000    677.7004      7.1327     61.2853
   921.5000      0.0000    677.6288      7.1318     61.7484
   921.7500      0.0000    677.5002      7.1360     63.3041
   922.0000      0.0000    677.2846      7.1443     64.4817
   922.2500      0.0000    676.9668      7.1511     63.8499
   922.5000      0.0000    676.5823      7.1534     61.4449
   922.7500      0.0000    676.2243      7.1548     58.7483
   923.0000      0.0000    676.0060      7.1606     57.3916
   923.2500      0.0000    675.9863      7.1719     57.9287
   923.5000      0.0000    676.0959      7.1862     59.6099
   923.7500      0.0000    675.9959      7.2024     61.2129
   924.0000      0.0000    674.7245      7.2236     62.2005
   924.2500      0.0000    670.2706      7.2523     63.0502
   924.5000      0.0000    660.0223      7.2870     64.4049
   924.7500      0.0000    643.4874      7.3225     66.1202
   925.0000      0.0000    626.1682      7.3531     67.3540
   925.2500      0.0000    619.1791      7.3750     67.4633
   925.5000      0.0000    631.1509      7.3863     66.4503
   925.7500      0.0000    659.2188      7.3867     64.5002
   926.0000      0.0000    690.1729      7.3767     61.6410
   926.2500      0.0000    711.1953      7.3581     58.3018
   926.5000      0.0000    718.1567      7.3337     55.8591
   926.7500      0.0000    714.5474      7.3057     55.8914
   927.0000      0.0000    705.8099      7.2747     58.5911
   927.2500      0.0000    695.9523      7.2416     62.2087
   927.5000      0.0000    687.4542      7.2094     64.4981
   927.7500      0.0000    681.8444      7.1808     64.6778
   928.0000      0.0000    679.7982      7.1510     63.7252
   928.2500      0.0000    681.1645      7.1103     63.0754
   928.5000      0.0000    684.8936      7.0511     63.5952
   928.7500      0.0000    688.9249      6.9743     65.5744
   929.0000      0.0000    691.0227      6.8891     68.9224
   929.2500      0.0000    690.7489      6.8120     73.0713
   929.5000      0.0000    690.3742      6.7610     76.9254
   929.7500      0.0000    692.8196      6.7442     79.1578
