~Version Information
VERS.                      2.0: CWLS Log ASCII Standard - VERSION 2.0
WRAP.                       NO: One line per depth step
~Well Information Block
STRT.FT                 0.0000: 
STOP.FT              2792.7500: 
STEP.FT                 0.2500: 
NULL.                -999.2500: 
COMP.          Pioneer Natural Resources: COMPANY
WELL.          Black Cat 13-32: WELL
FLD.           Purgatorie River: FIELD
LOC.           1865' FSL & 1120' FWL: LOCATION
PROV.                 Colorado: PROVINCE
CNTY.               Las Animas: COUNTRY
SRVC.                Patterson: SERVICE COMPANY
DATE.          Fri Aug 19 09:19:21 2005: LOG DATE
UWI.                          : UNIQUE WELL ID
~Curve Information Block
DEPT.FT            0 000 00 00: Depth
CCL.                          : Casing Collar Locator
TT3.usec                      : CBL 3' Travel Time
AMP3.mV                       : CBL 3' Amplitude
GR.GAPI                       : Gamma Ray
~Parameter Information Block
~A  Depth       CCL         TT3         AMP3         GR     
# ...
   536.0000      0.0000    825.2792      5.8630    143.2008
   536.2500      0.0000    835.1071      5.9447    142.8285
   536.5000      0.0000    828.6136      5.9762    143.2667
   536.7500      0.0000    813.3566      5.9568    145.0553
   537.0000      0.0000    798.9686      5.9017    148.3191
   537.2500      0.0000    785.6927      5.8388    151.6347
   537.5000      0.0000    768.2786      5.7866    152.7211
   537.7500      0.0000    748.9206      5.7395    150.7605
   538.0000      0.0000    742.4813      5.6834    147.4325
   538.2500      0.0000    764.7893      5.6283    145.2335
   538.5000      0.0000    815.6063      5.6152    145.0639
   538.7500      0.0000    873.4642      5.6690    145.5871
   539.0000      0.0000    911.1057      5.7678    144.5831
   539.2500      0.0000    919.5070      5.8714    140.9016
   539.5000      0.0000    910.6641      5.9553    135.6613
   539.7500      0.0000    900.9003      6.0185    131.5744
   540.0000      0.0000    896.9336      6.0655    130.7261
   540.2500      0.0000    889.4086      6.0798    132.9768
   540.5000      0.0000    862.7797      6.0414    136.6233
   540.7500      0.0000    820.0566      5.9688    140.2553
   541.0000      0.0000    784.6035      5.9123    143.6106
   541.2500      0.0000    771.0901      5.9081    146.7803
   541.5000      0.0000    771.2037      5.9529    149.2620
   541.7500      0.0000    769.6808      6.0136    150.3651
   542.0000      0.0000    761.9302      6.0599    150.2237
   542.2500      0.0000    753.2712      6.0926    149.5389
   542.5000      0.0000    748.1433      6.1312    148.4537
   542.7500      0.0000    745.9178      6.1880    146.5914
   543.0000      0.0000    743.5551      6.2513    144.1874
   543.2500      0.0000    738.2148      6.2889    142.2307
   543.5000      0.0000    730.6080      6.2882    141.1539
   543.7500      0.0000    726.7366      6.2731    140.0166
   544.0000      0.0000    730.9536      6.2643    137.4305
   544.2500      0.0000    739.8761      6.2462    132.9776
   544.5000      0.0000    748.3839      6.1891    127.4557
   544.7500      0.0000    753.7651      6.0979    122.0849
   545.0000      0.0000    751.8290      6.0162    117.9814
   545.2500      0.0000    739.7831      5.9729    116.2413
   545.5000      0.0000    723.8457      5.9499    117.7927
   545.7500      0.0000    716.4616      5.9173    122.5548
   546.0000      0.0000    726.4603      5.8705    128.8100
   546.2500      0.0000    750.2178      5.8232    133.8478
   546.5000      0.0000    771.8625      5.7881    135.6597
   546.7500      0.0000    783.0464      5.7759    134.1932
   547.0000      0.0000    790.3638      5.7966    131.0110
   547.2500      0.0000    791.6270      5.8502    127.9262
   547.5000      0.0000    776.2308      5.9172    126.1001
   547.7500      0.0000    749.7713      5.9640    125.9895
   548.0000      0.0000    729.4277      5.9630    127.4492
   548.2500      0.0000    723.9593      5.9184    129.8479
   548.5000      0.0000    728.6713      5.8677    132.4615
   548.7500      0.0000    733.0983      5.8408    134.8676
   549.0000      0.0000    731.6616      5.8159    136.9196
   549.2500      0.0000    726.3959      5.7586    138.5961
   549.5000      0.0000    721.0748      5.6936    140.1224
   549.7500      0.0000    718.3766      5.6780    142.1123
   550.0000      0.0000    720.5141      5.7302    145.2641
   550.2500      0.0000    725.7826      5.8264    149.5716
   550.5000      0.0000    729.5932      5.9332    153.7509
   550.7500      0.0000    731.9472      6.0193    155.8504
   551.0000      0.0000    735.9266      6.0660    154.7629
   551.2500      0.0000    740.8291      6.0755    151.0354
   551.5000      0.0000    743.9258      6.0631    146.2344
   551.7500      0.0000    744.8314      6.0519    141.6930
   552.0000      0.0000    744.8408      6.0611    137.8006
   552.2500      0.0000    745.0464      6.0792    134.2628
   552.5000      0.0000    746.4662      6.0742    130.8078
   552.7500      0.0000    751.9014      6.0438    127.4891
   553.0000      0.0000    766.5558      6.0256    124.4833
   553.2500      0.0000    792.7361      6.0507    121.8018
   553.5000      0.0000    826.1286      6.1101    119.2119
   553.7500      0.0000    863.6632      6.1742    116.4147
   554.0000      0.0000    903.9907      6.2251    113.3561
   554.2500      0.0000    937.9413      6.2551    110.3489
   554.5000      0.0000    956.8079      6.2610    107.7192
   554.7500      0.0000    963.2137      6.2494    105.3714
   555.0000      0.0000    964.3773      6.2301    102.8633
   555.2500      0.0000    964.6257      6.2026     99.8934
   555.5000      0.0000    965.9305      6.1525     96.7563
   555.7500      0.0000    968.7849      6.0774     94.3601
   556.0000      0.0000    967.7780      6.0041     93.6305
   556.2500      0.0000    947.8890      5.9525     94.7797
   556.5000      0.0000    900.5483      5.9162     97.2797
   556.7500      0.0000    850.0356      5.8893    100.5552
   557.0000      0.0000    834.0225      5.8813    104.4396
   557.2500      0.0000    847.1933      5.9012    108.8773
   557.5000      0.0000    847.3652      5.9366    113.5300
   557.7500      0.0000    822.4556      5.9708    117.8414
   558.0000      0.0000    805.7917      5.9995    121.2995
   558.2500      0.0000    826.0781      6.0171    123.6068
   558.5000      0.0000    874.6063      6.0246    124.8515
   558.7500      0.0000    921.1387      6.0431    125.4597
   559.0000      0.0000    945.4977      6.0840    125.5655
   559.2500      0.0000    949.0191      6.1221    124.5128
   559.5000      0.0000    944.9867      6.1227    121.5669
   559.7500      0.0000    945.3260      6.0874    117.2734
   560.0000      0.0000    952.5616      6.0551    113.7442
   560.2500      0.0000    961.5455      6.0545    113.3371
   560.5000      0.0000    965.9346      6.0671    116.7579
   560.7500      0.0000    960.7363      6.0486    122.1106
   561.0000      0.0000    943.5144      5.9840    126.0558
   561.2500      0.0000    917.5850      5.9128    126.5868
   561.5000      0.0000    895.2410      5.8896    124.7245
   561.7500      0.0000    890.2430      5.9256    123.2548
   562.0000      0.0000    902.7108      5.9732    123.9179
   562.2500      0.0000    919.7301      5.9584    126.0223
   562.5000      0.0000    925.3138      5.8627    127.7224
   562.7500      0.0000    909.8800      5.7963    128.2871
   563.0000      0.0000    883.8565      5.8393    128.8158
   563.2500      0.0000    875.8948      5.7992    130.7702
   563.5000      0.0000    899.3506      5.4581    134.0524
   563.7500      0.0000    933.5817      4.9848    136.6810
   564.0000      0.0000    957.4246      4.6938    136.4344
   564.2500      2.0000    972.3026      4.6345    133.0088
   564.5000      2.0000    984.7514      4.6757    128.6472
   564.7500     -2.0000    994.2338      4.7223    126.4862
   565.0000      0.0000    995.6612      4.7321    128.1177
   565.2500      0.0000    983.6577      4.6971    132.7618
   565.5000      0.0000    957.1227      4.7215    138.6527
   565.7500      0.0000    919.9789      4.9748    144.6010
   566.0000      0.0000    880.6083      5.4327    149.8508
   566.2500      0.0000    852.9767      5.8809    153.2171
   566.5000      0.0000    846.0688      6.2111    153.4969
   566.7500      0.0000    850.8938      6.4379    150.8408
   567.0000      0.0000    851.7765      6.5576    147.2091
   567.2500      0.0000    841.0811      6.5592    145.2462
   567.5000      0.0000    818.7557      6.4836    146.6182
   567.7500      0.0000    791.4048      6.4114    151.1241
   568.0000      0.0000    768.3688      6.3918    157.1028
   568.2500      0.0000    754.6825      6.4220    162.5132
   568.5000      0.0000    750.2645      6.4714    165.5818
   568.7500      0.0000    753.5315      6.4892    164.9369
   569.0000      0.0000    762.4208      6.4413    160.1727
   569.2500      0.0000    770.7883      6.3596    152.7118
