~Version Information
VERS.                      2.0: CWLS Log ASCII Standard - VERSION 2.0
WRAP.                       NO: One line per depth step
~Well Information Block
STRT.FT               -12.0000: 
STOP.FT              1266.5000: 
STEP.FT                 0.2500: 
NULL.                -999.2500: 
COMP.          Pioneer Natural Resources: COMPANY
WELL.          Hot Tomatoes 22-20: WELL
FLD.           Purgatorie River: FIELD
LOC.           2120' FNL & 2585' FWL: LOCATION
CNTY.               Las Animas: COUNTY
SRVC.                Patterson: SERVICE COMPANY
DATE.          Thu Mar 02 13:59:39 2006: LOG DATE
UWI.           05 071 08701 00: UNIQUE WELL ID
STAT.                       CO: STATE
~Curve Information Block
DEPT.FT            0 000 00 00: Depth
GR.GAPI                       : Gamma Ray
CCL.                          : Casing Collar Locator
TT3.usec                      : CBL 3' Travel Time
AMP3.mV                       : CBL 3' Amplitude
~Parameter Information Block
~A  Depth        GR         CCL         TT3         AMP3    
# ...
   658.0000    124.4917      0.0000    722.2587      7.1397
   658.2500    116.5114      0.0000    713.3333      7.2145
   658.5000    109.6079      0.0000    707.4058      7.4190
   658.7500    106.6722      0.0000    704.8280      7.7524
   659.0000    109.6460      0.0000    705.5474      8.1442
   659.2500    118.2467      0.0000    710.1356      8.4906
   659.5000    130.3920      0.0000    719.2607      8.7174
   659.7500    143.4317      0.0000    731.6801      8.8102
   660.0000    154.8251      0.0000    743.0562      8.7920
   660.2500    162.4184      0.0000    747.9716      8.6879
   660.5000    165.0985      0.0000    744.1530      8.5163
   660.7500    163.4328      0.0000    734.5544      8.3033
   661.0000    159.2808      0.0000    724.6678      8.0861
   661.2500    154.4823      0.0000    717.8751      7.8980
   661.5000    149.9251      0.0000    713.7731      7.7478
   661.7500    145.6985      0.0000    710.4220      7.6111
   662.0000    141.8605      0.0000    706.9889      7.4487
   662.2500    138.9986      0.0000    704.0419      7.2456
   662.5000    138.0187      0.0000    702.4341      7.0345
   662.7500    139.1652      0.0000    702.7811      6.8739
   663.0000    141.0081      0.0000    705.7067      6.8032
   663.2500    140.6124      0.0000    711.7496      6.8173
   663.5000    135.2885      0.0000    720.5696      6.8817
   663.7500    124.6508      0.0000    730.4043      6.9622
   664.0000    111.0697      0.0000    738.8256      7.0433
   664.2500     98.0563      0.0000    744.2676      7.1270
   664.5000     88.0330      0.0000    746.7640      7.2190
   664.7500     81.3953      0.0000    747.3611      7.3117
   665.0000     77.3404      0.0000    747.1537      7.3787
   665.2500     75.2671      0.0000    746.8191      7.3954
   665.5000     75.3461      0.0000    746.6374      7.3712
   665.7500     77.9991      0.0000    746.6417      7.3581
   666.0000     83.0744      0.0000    746.7355      7.4196
   666.2500     89.6322      0.0000    746.7637      7.5854
   666.5000     96.4079      0.0000    746.5211      7.8338
   666.7500    102.2814      0.0000    745.6655      8.1165
   667.0000    106.3090      0.0000    743.6697      8.3978
   667.2500    107.6666      0.0000    740.0393      8.6691
   667.5000    106.0160      0.0000    734.7041      8.9316
   667.7500    102.0319      0.0000    728.1241      9.1746
   668.0000     97.2811      0.0000    721.0138      9.3770
   668.2500     93.2502      0.0000    714.1483      9.5264
   668.5000     90.2879      0.0000    708.3716      9.6228
   668.7500     87.4580      0.0000    704.4203      9.6581
   669.0000     83.5684      0.0000    702.6555      9.6056
   669.2500     78.4547      0.0000    703.0190      9.4495
   669.5000     73.2381      0.0000    704.9756      9.2182
   669.7500     69.4731      0.0000    707.3120      8.9712
   670.0000     68.1321      0.0000    708.4660      8.7495
   670.2500     69.2524      0.0000    707.6581      8.5522
   670.5000     72.3055      0.0000    705.6629      8.3612
   670.7500     76.6817      0.0000    704.2178      8.1790
   671.0000     81.6128      0.0000    704.7833      8.0384
   671.2500     85.9124      0.0000    707.8571      7.9858
   671.5000     88.5435      0.0000    713.0463      8.0552
   671.7500     89.5140      0.0000    719.5106      8.2443
   672.0000     89.6079      0.0000    726.4419      8.5096
   672.2500     89.4487      0.0000    733.1995      8.7999
   672.5000     89.5871      0.0000    739.1801      9.1062
   672.7500     91.1231      0.0000    743.7681      9.4681
   673.0000     95.1879      0.0000    746.3298      9.9129
   673.2500    101.7497      0.0000    746.1788     10.3915
   673.5000    109.5840      0.0000    743.0223     10.7875
   673.7500    117.3622      0.0000    737.7382     10.9947
   674.0000    124.2806      0.0000    732.1644     10.9781
   674.2500    129.8667      0.0000    727.5672     10.7718
   674.5000    133.9143      0.0000    723.5346     10.4390
   674.7500    136.8255      0.0000    718.8174     10.0406
   675.0000    139.5642      0.0000    713.0994      9.6239
   675.2500    142.8429      0.0000    707.5023      9.2251
   675.5000    146.3192      0.0000    703.4548      8.8771
   675.7500    148.8628      0.0000    701.6298      8.6087
   676.0000    149.8315      0.0000    702.0581      8.4300
   676.2500    149.8564      0.0000    704.6882      8.3248
   676.5000    149.9147      0.0000    709.2636      8.2648
   676.7500    149.9930      0.0000    714.5342      8.2242
   677.0000    149.4899      0.0000    718.1304      8.1792
   677.2500    148.6676      0.0000    718.0013      8.1150
   677.5000    148.6678      0.0000    714.2099      8.0472
   677.7500    150.0354      0.0000    708.9437      8.0233
   678.0000    151.8416      0.0000    704.7669      8.0879
   678.2500    152.2249      0.0000    703.2267      8.2463
   678.5000    149.5890      0.0000    704.8467      8.4624
   678.7500    143.6950      0.0000    709.4418      8.6822
   679.0000    135.9780      0.0000    715.8945      8.8603
   679.2500    128.6847      0.0000    722.1798      8.9766
   679.5000    123.6546      0.0000    726.3953      9.0383
   679.7500    121.8198      0.0000    727.7758      9.0638
   680.0000    123.2890      0.0000    726.5917      9.0684
   680.2500    127.3500      0.0000    723.8750      9.0620
   680.5000    132.4375      0.0000    721.8206      9.0502
   680.7500    136.5194      0.0000    723.3734      9.0336
   681.0000    137.9563      0.0000    729.9077      9.0142
   681.2500    136.3679      0.0000    739.2183      9.0060
   681.5000    132.8230      0.0000    746.8201      9.0201
   681.7500    129.0950      0.0000    749.6411      9.0351
   682.0000    126.4877      0.0000    747.8408      8.9962
   682.2500    125.2028      0.0000    742.6980      8.8633
   682.5000    124.8003      0.0000    733.7909      8.6583
   682.7500    125.2056      0.0000    719.5737      8.4416
   683.0000    126.8556      0.0000    700.2796      8.2322
   683.2500    129.5638      0.0000    679.0013      7.9870
   683.5000    131.6736      0.0000    659.8650      7.6916
   683.7500    130.9255      0.0000    646.3093      7.4196
   684.0000    126.3883      0.0000    640.7483      7.2511
   684.2500    119.6015      0.0000    643.7751      7.1771
   684.5000    113.8089      0.0000    653.3452      7.1321
   684.7500    111.8874     -1.2933    666.1937      7.0820
   685.0000    114.7536      0.0000    680.0397      7.0497
   685.2500    121.2262      0.0000    694.0875      7.0812
   685.5000    128.8880      0.0000    708.6194      7.1991
   685.7500    135.3214      0.0000    724.1033      7.3755
   686.0000    139.2261      0.0000    739.4706      7.5572
   686.2500    140.6206      0.0000    751.9385      7.7341
   686.5000    139.9904      0.0000    759.8950      7.9475
   686.7500    137.5724      0.0000    764.9606      8.2056
   687.0000    133.6283      0.0000    769.8796      8.4343
   687.2500    128.9363      0.0000    775.3521      8.5473
   687.5000    124.6052      0.0000    779.7843      8.5365
   687.7500    121.6099      0.0000    781.0744      8.4661
   688.0000    120.6168      0.0000    777.6598      8.3973
   688.2500    121.8198      0.0000    768.9569      8.3347
   688.5000    124.6319      0.0000    756.4906      8.2345
   688.7500    127.6682      0.0000    744.6680      8.0541
   689.0000    129.3212      0.0000    738.8399      7.8005
   689.2500    128.7288      0.0000    741.3352      7.5334
   689.5000    126.6342      0.0000    749.6429      7.3191
   689.7500    125.2873      0.0000    758.9116      7.1825
   690.0000    126.9898      0.0000    765.6686      7.1032
   690.2500    132.4084      0.0000    768.7488      7.0452
   690.5000    140.2315      0.0000    767.9849      6.9791
   690.7500    148.2346      0.0000    763.6870      6.8855
   691.0000    154.5892      0.0000    757.2380      6.7548
   691.2500    158.4465      0.0000    750.8701      6.5847
