~Version Information
VERS.                      2.0: CWLS Log ASCII Standard - VERSION 2.0
WRAP.                       NO: One line per depth step
~Well Information Block
STRT.FT               340.0000: 
STOP.FT              2342.7000: 
STEP.FT                 0.1000: 
NULL.                -999.2500: 
COMP.          Pioneer Natural Resources: COMPANY
WELL.          Pinkerton 41-12: WELL
FLD.           Purgatoire River: FIELD
LOC.           1222' FNL & 670' FEL--: LOCATION
CNTY.               Las Animas: COUNTY
SRVC.                Patterson: SERVICE COMPANY
DATE.          Thu Mar 16 06:39:17 2006: LOG DATE
UWI.           05 071 08500 00: UNIQUE WELL ID
STAT.                 Colorado: STATE
~Curve Information Block
DEPT.FT            0 000 00 00: Depth
DCAL.in                       : CDL Caliper
RHOB.g/cc                     : CDL Bulk Density
RHOC.g/cc                     : CDL Density Correction
DPOR.pu                       : CDL Density Porosity
NPOR.pu                       : Neutron Porosity
GR.GAPI                       : Gamma Ray
~Parameter Information Block
~A  Depth       DCAL        RHOB        RHOC        DPOR        NPOR         GR     
# ...
   599.2000      8.1505      2.2227     -0.0937     25.8957     15.4424     70.5852
   599.3000      8.1250      2.2336      0.0063     25.2341     15.4831     71.3046
   599.4000      8.1250      2.2478     -0.0677     24.3766     15.8006     71.7861
   599.5000      8.0911      2.2779      0.0150     22.5486     16.4647     73.5118
   599.6000      8.0911      2.3283      0.0414     19.4987     16.8567     75.4818
   599.7000      8.0911      2.3793      0.0715     16.4090     16.7837     75.5066
   599.8000      8.0673      2.4158      0.0712     14.1923     16.5456     74.8170
   599.9000      8.0673      2.4369      0.0968     12.9154     16.5146     75.2096
   600.0000      8.0565      2.4444      0.0751     12.4609     16.8070     77.3515
   600.1000      8.0565      2.4456      0.0643     12.3850     17.2652     82.2490
   600.2000      8.0565      2.4525      0.0767     11.9687     17.8986     87.3816
   600.3000      8.0451      2.4594      0.0880     11.5503     18.8002     89.3866
   600.4000      8.0451      2.4511      0.0472     12.0543     19.6866     88.3892
   600.5000      8.0239      2.4283      0.0374     13.4359     20.2049     84.9944
   600.6000      8.0239      2.3923      0.0681     15.6178     20.3398     80.3371
   600.7000      8.0239      2.3484      0.0352     18.2786     20.3887     77.9670
   600.8000      8.0022      2.3294     -0.0746     19.4299     20.6642     79.9185
   600.9000      8.0022      2.3528     -0.0259     18.0129     21.2202     84.6879
   601.0000      7.9925      2.3871      0.0390     15.9308     22.0140     89.3858
   601.1000      7.9925      2.4120      0.0021     14.4251     22.8981     92.9738
   601.2000      7.9925      2.4397      0.0339     12.7451     23.3960     95.4885
   601.3000      7.9986      2.4670      0.0990     11.0907     23.3191     95.3077
   601.4000      7.9986      2.4842      0.0617     10.0502     23.1699     93.4915
   601.5000      8.0063      2.5034      0.0708      8.8828     23.4986     95.2135
   601.6000      8.0063      2.5292      0.1317      7.3197     24.2797    101.5354
   601.7000      8.0063      2.5497      0.1516      6.0790     25.1350    108.5273
   601.8000      8.0123      2.5646      0.1380      5.1741     25.6467    112.8174
   601.9000      8.0123      2.5738      0.1433      4.6155     25.6433    112.7650
   602.0000      8.0410      2.5699      0.1416      4.8559     25.4274    110.8955
   602.1000      8.0410      2.5588      0.0969      5.5289     25.1830    110.0370
   602.2000      8.0410      2.5504      0.0738      6.0334     24.9679    108.5319
   602.3000      8.0977      2.5472      0.0568      6.2296     25.0039    104.0030
   602.4000      8.0977      2.5476      0.1092      6.2070     25.0219     99.0490
   602.5000      8.1481      2.5405      0.1311      6.6336     24.7080     97.6785
   602.6000      8.1481      2.5256      0.1079      7.5367     24.3527     99.3910
   602.7000      8.1481      2.5162      0.0801      8.1063     24.0526    100.7272
   602.8000      8.1732      2.5077      0.0895      8.6261     23.6465     99.4545
   602.9000      8.1732      2.4825      0.0791     10.1487     23.2491     97.7116
   603.0000      8.1806      2.4469     -0.0105     12.3093     22.8686     94.7007
   603.1000      8.1806      2.4267     -0.0192     13.5314     22.3113     86.1081
   603.2000      8.1806      2.4260      0.0363     13.5785     21.6195     76.5992
   603.3000      8.1823      2.4180      0.0860     14.0583     21.0204     73.3982
   603.4000      8.1823      2.3866      0.0501     15.9650     20.4880     75.5264
   603.5000      8.1827      2.3526      0.0068     18.0260     19.7919     79.2375
   603.6000      8.1827      2.3453      0.0526     18.4642     19.1162     80.9456
   603.7000      8.1827      2.3665      0.0664     17.1812     18.8269     77.3306
   603.8000      8.1832      2.3974      0.1078     15.3080     18.7784     70.8061
   603.9000      8.1832      2.4223      0.0742     13.8001     18.5394     68.7198
   604.0000      8.1816      2.4349      0.1150     13.0351     18.1549     72.1018
   604.1000      8.1816      2.4357      0.0746     12.9867     17.9442     74.7963
   604.2000      8.1816      2.4371      0.0584     12.9000     17.8440     73.5886
   604.3000      8.1750      2.4484      0.0902     12.2165     17.7675     70.9563
   604.4000      8.1750      2.4599      0.1027     11.5217     17.8539     71.2523
   604.5000      8.1668      2.4624      0.0740     11.3716     18.0553     74.9748
   604.6000      8.1668      2.4659      0.0487     11.1601     18.2491     78.5190
   604.7000      8.1668      2.4816      0.0898     10.2088     18.4687     80.5357
   604.8000      8.1633      2.5002      0.0882      9.0805     18.6979     82.0987
   604.9000      8.1633      2.5005      0.1003      9.0633     18.8865     81.8429
   605.0000      8.1684      2.4830      0.0566     10.1200     19.0155     79.3647
   605.1000      8.1684      2.4762      0.0128     10.5358     18.9518     79.5282
   605.2000      8.1684      2.4880      0.0504      9.8180     18.6216     84.4698
   605.3000      8.1872      2.4976      0.0398      9.2338     18.2694     85.8962
   605.4000      8.1872      2.4929      0.0644      9.5235     18.1003     79.8486
   605.5000      8.2205      2.4770      0.0432     10.4845     17.9901     75.8976
   605.6000      8.2205      2.4595      0.0295     11.5464     17.7658     77.9697
   605.7000      8.2205      2.4448      0.0120     12.4351     17.6200     77.9302
   605.8000      8.2641      2.4360     -0.0241     12.9719     17.9179     74.0713
   605.9000      8.2641      2.4414      0.0003     12.6443     18.3809     73.5698
   606.0000      8.3027      2.4533      0.0346     11.9222     18.2764     78.6925
   606.1000      8.3027      2.4527      0.0221     11.9555     17.6870     83.9529
   606.2000      8.3027      2.4402     -0.0281     12.7134     17.2788     84.7184
   606.3000      8.3274      2.4281      0.0443     13.4474     17.2896     82.3200
   606.4000      8.3274      2.4194     -0.0211     13.9763     17.4023     77.6193
   606.5000      8.3464      2.4117      0.0201     14.4428     17.3699     71.1986
   606.6000      8.3464      2.3993      0.0163     15.1914     17.2590     66.8057
   606.7000      8.3464      2.3832     -0.0102     16.1686     17.1922     67.9052
   606.8000      8.3536      2.3764     -0.0358     16.5807     17.2447     74.6055
   606.9000      8.3536      2.3839     -0.0028     16.1258     17.3682     81.9139
   607.0000      8.3370      2.3908      0.0561     15.7085     17.3390     85.0260
   607.1000      8.3370      2.3873     -0.0067     15.9203     17.0635     84.9285
   607.2000      8.3370      2.3811      0.0002     16.2997     16.8776     82.1829
   607.3000      8.3033      2.3752     -0.0368     16.6515     17.1881     75.9390
   607.4000      8.3033      2.3705     -0.0291     16.9412     17.7970     70.2673
   607.5000      8.2651      2.3747     -0.0160     16.6833     18.1518     69.4627
   607.6000      8.2651      2.3910     -0.0103     15.6988     18.2101     72.5633
   607.7000      8.2651      2.4099     -0.0038     14.5494     18.1036     76.5134
   607.8000      8.2339      2.4212      0.0321     13.8643     17.7946     81.4468
   607.9000      8.2339      2.4254      0.0287     13.6091     17.6166     86.3293
   608.0000      8.2105      2.4334      0.0132     13.1281     17.8781     85.0772
   608.1000      8.2105      2.4520      0.0815     11.9973     18.2593     77.5604
   608.2000      8.2105      2.4710      0.0523     10.8481     18.3307     71.4118
   608.3000      8.1968      2.4720      0.0848     10.7851     18.2115     68.9572
   608.4000      8.1968      2.4474      0.0592     12.2781     18.2852     67.9008
   608.5000      8.1990      2.4140     -0.0142     14.3019     18.6642     70.1120
   608.6000      8.1990      2.3944      0.0151     15.4903     18.9511     76.1463
   608.7000      8.1990      2.3871     -0.0195     15.9304     18.6041     80.3660
