~Version Information
 VERS.                                  2.0 : CWLS LAS VERSION
 WRAP.                                   NO : WRAPING MODE
 SWARE .                 MController 2.5.0J : SOFTWARE VERSION
~Well Information
 WELL.                       Cooper 11-13Tr : WELL
 COMP.    Pioneer Natural Resources USA Inc : COMPANY
 FLD.                      Purgatoire River : FIELD
 LOC.                 NW/NW SEC13 T32S R67W : LOCATION
 DATE.                             09/24/05 : DATE(S) LOGGED
 SRVC.       Blanco Geological Services LLC : SERVICE COMPANY
 STAT.                             Colorado : STATE
 CNTY.                           Las Animas : COUNTY
 CTRY.                                  USA : COUNTRY
 API.                       05-071-08525-00 : API NUMBER
 STRT.FT                             327.00 : START DEPTH
 STOP.FT                            1876.00 : STOP DEPTH
 STEP.FT                               1.00 : DEPTH INCREMENT
 NULL.                                -9999 : NULL VALUE
~Curve information
 DEPTH.FT                                   :
 ROP.MIN/FT                                 :
 GAS.UNITS                                  :
~ASCII Log data
# ...
       527.0         0.20          5.5 
       528.0         0.23          5.1 
       529.0         0.20          5.7 
       530.0         0.20          5.3 
       531.0         0.27          5.2 
       532.0         0.23          5.7 
       533.0         0.27          5.5 
       534.0         0.25          5.2 
       535.0         0.30          5.9 
       536.0         2.00          6.0 
       537.0         0.33          5.3 
       538.0         0.37          5.3 
       539.0         0.38          5.4 
       540.0         0.30          5.6 
       541.0         0.27          5.4 
       542.0         0.33          6.0 
       543.0         0.27          5.7 
       544.0         0.27          6.1 
       545.0         0.23          5.9 
       546.0         0.27          5.6 
       547.0         0.23          5.8 
       548.0         0.20          5.7 
       549.0         0.20          5.8 
       550.0         0.23          5.5 
       551.0         0.23          5.5 
       552.0         0.25          5.4 
       553.0         0.17          5.1 
       554.0         0.23          5.4 
       555.0         0.20          5.2 
       556.0         0.23          5.4 
       557.0         0.23          5.2 
       558.0         0.20          4.9 
       559.0         0.20          5.3 
       560.0         0.20          4.9 
       561.0         0.23          4.9 
       562.0         0.20          5.3 
       563.0         0.20          5.4 
       564.0         0.23          6.1 
       565.0         0.27          5.5 
       566.0         1.65          6.1 
       567.0         0.30          5.7 
       568.0         0.27          5.1 
       569.0         0.23          4.9 
       570.0         0.27          5.2 
       571.0         0.27          5.2 
       572.0         0.27          5.0 
       573.0         0.30          5.2 
       574.0         0.38          5.3 
       575.0         0.47          5.8 
       576.0         0.40          5.4 
       577.0         0.27          5.0 
       578.0         0.30          5.2 
       579.0         0.27          5.3 
       580.0         0.30          5.1 
       581.0         0.33          5.1 
       582.0         0.27          5.2 
       583.0         0.27          4.9 
       584.0         0.27          5.1 
       585.0         0.25          5.0 
       586.0         0.30          4.4 
       587.0         0.30          5.1 
       588.0         0.30          5.2 
       589.0         0.27          5.1 
       590.0         0.27          4.6 
       591.0         0.23          4.6 
       592.0         0.23          4.8 
       593.0         0.30          4.6 
       594.0         0.30          5.2 
       595.0         0.23          5.1 
       596.0         1.42         39.9 
       597.0         0.30         10.3 
       598.0         0.37          8.0 
       599.0         0.37          1.1 
       600.0         0.37          0.8 
       601.0         0.37          1.2 
       602.0         0.33          1.4 
       603.0         0.38          2.4 
       604.0         0.30          2.9 
       605.0         0.33          3.3 
       606.0         0.40          3.9 
       607.0         0.33          4.2 
       608.0         0.30          3.6 
       609.0         0.30          4.4 
       610.0         0.27          4.5 
       611.0         0.30          4.6 
       612.0         0.33          4.5 
       613.0         0.23          4.6 
       614.0         0.32          4.9 
       615.0         0.23          5.0 
       616.0         0.23          5.4 
       617.0         0.20          5.2 
       618.0         0.27          5.1 
       619.0         0.27          4.9 
       620.0         0.23          5.6 
       621.0         0.20          5.4 
       622.0         0.20          5.2 
       623.0         0.20          5.5 
       624.0         0.23          5.5 
       625.0         0.20          5.1 
       626.0         1.88          5.9 
       627.0         0.33          5.9 
       628.0         0.30          5.9 
       629.0         0.27          5.6 
       630.0         0.30          5.7 
       631.0         0.20          5.6 
       632.0         0.20          5.7 
       633.0         0.20          5.6 
       634.0         0.17          5.7 
       635.0         0.17          5.7 
       636.0         0.22          5.7 
       637.0         0.20          5.7 
       638.0         0.17          5.8 
       639.0         0.17          6.0 
       640.0         0.17          6.0 
       641.0         0.23          6.0 
       642.0         0.20          6.0 
       643.0         0.17          6.1 
       644.0         0.20          6.0 
       645.0         0.17          6.1 
       646.0         0.17          6.1 
       647.0         0.20          5.7 
       648.0         0.17          5.4 
       649.0         0.20          5.5 
       650.0         0.20          5.5 
       651.0         0.20          5.8 
       652.0         0.17          5.5 
       653.0         0.20          6.0 
       654.0         0.18          5.8 
       655.0         0.20          6.2 
       656.0         1.30          6.3 
       657.0         0.30          5.9 
       658.0         0.27          6.5 
       659.0         0.23          6.1 
       660.0         0.23          6.1 
       661.0         0.20          6.2 
       662.0         0.17          6.5 
       663.0         0.20          5.8 
       664.0         0.18          5.8 
       665.0         0.23          5.9 
       666.0         0.23          6.1 
       667.0         0.23          6.2 
       668.0         0.27          6.2 
       669.0         0.27          6.1 
       670.0         0.23          5.9 
       671.0         0.23          6.4 
       672.0         0.23          6.3 
       673.0         0.23          6.2 
       674.0         0.23          6.0 
       675.0         0.23          5.9 
       676.0         0.23          6.2 
       677.0         0.23          6.1 
       678.0         0.25          6.3 
       679.0         0.27          5.6 
       680.0         0.23          6.5 
       681.0         0.23          6.1 
       682.0         0.20          6.0 
       683.0         0.30          6.3 
       684.0         0.23          6.2 
       685.0         0.23          6.1 
       686.0         1.53          6.2 
       687.0         0.38          5.6 
       688.0         0.30          6.6 
       689.0         0.30          6.0 
       690.0         0.30          6.3 
       691.0         0.30          6.1 
       692.0         0.27          6.1 
       693.0         0.30          6.3 
       694.0         0.27          6.5 
       695.0         0.17          6.4 
       696.0         0.20          6.7 
       697.0         0.23          6.3 
       698.0         0.27          6.1 
       699.0         0.25          6.0 
       700.0         0.23          6.7 
       701.0         0.20          6.4 
       702.0         0.20          6.5 
       703.0         0.23          6.5 
       704.0         0.27          6.6 
       705.0         0.17          6.5 
       706.0         0.20          6.2 
       707.0         0.20          6.1 
       708.0         0.17          6.5 
       709.0         0.20          6.0 
       710.0         0.17          6.0 
       711.0         0.20          5.8 
       712.0         0.20          5.9 
       713.0         0.20          6.0 
       714.0         0.20          6.4 
       715.0         0.22          6.4 
       716.0         2.07          6.4 
       717.0         0.30          6.6 
       718.0         0.30          7.1 
       719.0         0.27          6.7 
       720.0         0.23          7.0 
       721.0         0.25          6.5 
       722.0         0.27          6.7 
       723.0         0.17          6.2 
       724.0         0.20          6.6 
       725.0         0.17          6.5 
       726.0         0.13          6.5 
