~Version Information
VERS.                      2.0: CWLS Log ASCII Standard - VERSION 2.0
WRAP.                       NO: One line per depth step
~Well Information Block
STRT.FT               330.0000: 
STOP.FT              1923.5000: 
STEP.FT                 0.1000: 
NULL.                -999.2500: 
COMP.          Pioneer Natural Resources: COMPANY
WELL.          State Wildlife 32-16 Tr: WELL
FLD.           Purgatoire River: FIELD
LOC.           1838' FNL & 1850' FEL: LOCATION
STAT.                 Colorado: State
CNTY.               Las Animas: COUNTY
CTRY. USA : Country
SECT. 16 : Section
TOWN. 32S : Township
RANG. 66W : Range
SRVC.                Patterson: SERVICE COMPANY
DATE.          Mon Nov 14 07:20:48 2005: LOG DATE
API.           05 071 08568 00: UNIQUE WELL ID
~Curve Information Block
DEPT.FT            0 000 00 00: Depth
DCAL.in                       : CDL Caliper
RHOB.g/cc                     : CDL Bulk Density
RHOC.g/cc                     : CDL Density Correction
DPOR.pu                       : CDL Density Porosity
GR.GAPI                       : Gamma Ray
NPOR.pu                       : Neutron Porosity
~Parameter Information Block
~A  Depth       DCAL        RHOB        RHOC        DPOR         GR         NPOR    
# ...
   858.0000      8.0183      2.5653      0.0080      5.1315    134.7996     27.4543
   858.1000      8.0183      2.5573      0.0494      5.6211    132.3546     27.2403
   858.2000      8.0183      2.5558      0.0645      5.7118    132.5950     26.9965
   858.3000      8.0298      2.5543      0.0643      5.7980    136.2126     26.8904
   858.4000      8.0298      2.5442      0.1044      6.4091    133.0158     26.8539
   858.5000      8.0403      2.5297      0.0909      7.2924    120.6254     26.9435
   858.6000      8.0403      2.5349      0.0364      6.9755    110.8395     26.9257
   858.7000      8.0403      2.5699      0.1228      4.8549    110.9549     26.5267
   858.8000      7.9902      2.6160      0.1470      2.0598    116.1753     26.1246
   858.9000      7.9902      2.6523      0.1815     -0.1385    115.8656     25.9705
   859.0000      7.9709      2.6616      0.1893     -0.7027    107.1859     26.0215
   859.1000      7.9709      2.6426      0.1573      0.4466     96.6801     26.2199
   859.2000      7.9709      2.6196      0.1221      1.8427     92.6433     26.5292
   859.3000      7.9717      2.6056      0.1265      2.6926     98.7052     26.9099
   859.4000      7.9717      2.5942      0.0705      3.3790    108.2527     26.9233
   859.5000      7.9736      2.5937      0.0349      3.4138    113.6827     26.4643
   859.6000      7.9736      2.6060      0.1224      2.6640    113.3529     26.1668
   859.7000      7.9736      2.6136      0.0485      2.2087    108.1933     26.4439
   859.8000      7.9710      2.6163      0.0526      2.0434    101.2714     26.7993
   859.9000      7.9710      2.6316      0.0580      1.1133     96.7145     26.6641
   860.0000      7.9715      2.6675      0.0954     -1.0609     96.4447     26.0856
   860.1000      7.9715      2.7094      0.0906     -3.5973     98.8519     25.4296
   860.2000      7.9715      2.7287      0.1184     -4.7697    100.9957     24.9476
   860.3000      7.9724      2.7092      0.0787     -3.5855     99.5896     24.6518
   860.4000      7.9724      2.6727      0.0357     -1.3730     92.7109     24.4670
   860.5000      7.9603      2.6539      0.0413     -0.2393     85.1444     24.3270
   860.6000      7.9603      2.6530      0.0526     -0.1798     84.0568     24.1975
   860.7000      7.9603      2.6432      0.1149      0.4134     88.7080     24.2780
   860.8000      7.9470      2.6196     -0.0497      1.8444     91.2400     24.7189
   860.9000      7.9470      2.6037     -0.0139      2.8081     87.8273     25.1518
   861.0000      7.9415      2.6023     -0.0059      2.8893     83.6434     25.1423
   861.1000      7.9415      2.6090     -0.0131      2.4867     84.5673     24.5527
   861.2000      7.9415      2.6175      0.0381      1.9715     91.6375     23.5188
   861.3000      7.9575      2.6148      0.0598      2.1314    101.7404     22.4961
   861.4000      7.9575      2.5926      0.0681      3.4793    108.2935     21.9203
   861.5000      7.9635      2.5664     -0.0269      5.0661    106.0445     21.6947
   861.6000      7.9635      2.5541      0.0323      5.8148     97.6964     21.4492
   861.7000      7.9635      2.5469      0.0099      6.2479     89.4508     20.9281
   861.8000      7.9566      2.5377     -0.0197      6.8037     86.7062     20.2177
   861.9000      7.9566      2.5345     -0.0490      7.0007     90.3646     19.7074
   862.0000      7.9537      2.5370     -0.0014      6.8509     94.9758     19.5172
   862.1000      7.9537      2.5318      0.0230      7.1622     97.6337     19.5381
   862.2000      7.9537      2.5176      0.0212      8.0255    100.2126     19.6678
   862.3000      7.9646      2.5121      0.0180      8.3592    103.6125     19.7375
   862.4000      7.9646      2.5285      0.0406      7.3633    106.0525     19.7434
   862.5000      7.9695      2.5605      0.0777      5.4273    106.1493     19.6257
   862.6000      7.9695      2.5886      0.1141      3.7231    103.3779     19.5955
   862.7000      7.9695      2.6014      0.1488      2.9485     97.5814     20.0835
   862.8000      7.9479      2.6063      0.1094      2.6463     89.8821     20.8477
   862.9000      7.9479      2.6144      0.1564      2.1568     81.4036     21.3039
   863.0000      7.9230      2.6269      0.1490      1.4019     73.6330     21.1518
   863.1000      7.9230      2.6382      0.1542      0.7166     71.2283     20.7543
   863.2000      7.9230      2.6400      0.1302      0.6069     77.9915     20.5252
   863.3000      7.9174      2.6298      0.1272      1.2226     87.4073     20.3699
   863.4000      7.9174      2.6116      0.1405      2.3288     91.0701     20.2049
   863.5000      7.9180      2.5899      0.0884      3.6435     92.2904     20.0536
   863.6000      7.9180      2.5738      0.0491      4.6178     95.2488     19.8676
   863.7000      7.9180      2.5682      0.0572      4.9548     96.0246     19.6969
   863.8000      7.9356      2.5609      0.0845      5.4021     90.6896     19.6965
   863.9000      7.9356      2.5390      0.0754      6.7295     81.6258     19.8253
   864.0000      7.9396      2.5091      0.0647      8.5403     76.3029     19.9369
   864.1000      7.9396      2.4854      0.0795      9.9774     77.0815     20.1373
   864.2000      7.9396      2.4782      0.0080     10.4118     79.8537     20.7202
   864.3000      7.9510      2.4882      0.0584      9.8035     82.7686     21.5193
   864.4000      7.9510      2.4968      0.0873      9.2842     86.1617     21.9863
   864.5000      7.9660      2.5003      0.0592      9.0745     90.7810     22.2920
   864.6000      7.9660      2.5220      0.1277      7.7565     96.2800     23.0227
   864.7000      7.9660      2.5698      0.1450      4.8596    100.7888     23.8389
   864.8000      7.9462      2.6315      0.1973      1.1234    103.9667     24.1134
   864.9000      7.9462      2.6909      0.2346     -2.4793    106.2573     24.0274
   865.0000      7.9423      2.7275      0.2882     -4.6967    106.2645     23.9580
   865.1000      7.9423      2.7346      0.1898     -5.1301    106.2040     24.1129
   865.2000      7.9423      2.7276      0.1955     -4.7014    109.0268     24.6204
   865.3000      7.9399      2.7143      0.1820     -3.8976    111.3074     25.1452
   865.4000      7.9399      2.6964      0.1517     -2.8110    110.4573     25.3345
   865.5000      7.9474      2.6777      0.1218     -1.6777    108.0830     25.2830
   865.6000      7.9474      2.6562      0.1358     -0.3759    105.3057     25.3011
   865.7000      7.9474      2.6271      0.0755      1.3856    103.1919     25.6427
   865.8000      7.9551      2.6018      0.0386      2.9223    105.1749     26.2006
   865.9000      7.9551      2.5956      0.0603      3.2948    110.0274     26.6726
   866.0000      7.9595      2.6016      0.0604      2.9320    112.3756     27.0023
   866.1000      7.9595      2.6015      0.0622      2.9382    112.3096     26.9684
   866.2000      7.9595      2.5916      0.0272      3.5378    113.3705     26.6428
   866.3000      7.9641      2.5839     -0.0012      4.0080    116.4004     26.4757
   866.4000      7.9641      2.5834      0.0129      4.0378    120.2152     26.4883
   866.5000      8.0117      2.5804      0.0215      4.2154    123.9863     26.5782
   866.6000      8.0117      2.5744     -0.0034      4.5827    125.7924     26.6191
   866.7000      8.0117      2.5808     -0.0109      4.1929    126.3320     26.4638
   866.8000      8.0200      2.6053      0.0310      2.7118    131.0317     26.3632
   866.9000      8.0200      2.6240      0.0778      1.5751    142.6977     26.5467
   867.0000      8.0466      2.6199      0.0238      1.8264    153.1854     26.6479
   867.1000      8.0466      2.6070      0.0358      2.6056    152.3416     26.5175
   867.2000      8.0466      2.5980      0.0466      3.1492    141.7625     26.3447
   867.3000      8.0503      2.5925      0.0250      3.4839    129.9379     26.2425
   867.4000      8.0503      2.5867      0.0606      3.8372    123.8968     26.6542
   867.5000      8.0647      2.5812     -0.0226      4.1696    123.9053     27.5114
