~Version Information
VERS.                      2.0: CWLS Log ASCII Standard - VERSION 2.0
WRAP.                       NO: One line per depth step
~Well Information Block
STRT.FT               240.0000: 
STOP.FT               940.5000: 
STEP.FT                 0.1000: 
NULL.                -999.2500: 
COMP.          Pioneer Natural Resources: COMPANY
WELL.               Ernie 31-6: WELL
FLD.           Purgatoire River: FIELD
LOC.           681' FNL & 2138' FEL: LOCATION
CNTY.               Las Animas: COUNTY
SRVC.                Patterson: SERVICE COMPANY
DATE.          Tue May 30 07:05:10 2006: LOG DATE
UWI.           05 071 08716 00: UNIQUE WELL ID
STAT.                 Colorado: STATE
~Curve Information Block
DEPT.FT            0 000 00 00: Depth
DCAL.in                       : CDL Caliper
RHOB.g/cc                     : CDL Bulk Density
RHOC.g/cc                     : CDL Density Correction
DPOR.pu                       : CDL Density Porosity
GR.GAPI                       : Gamma Ray
NPOR.pu                       : Neutron Porosity
~Parameter Information Block
~A  Depth       DCAL        RHOB        RHOC        DPOR         GR         NPOR    
# ...
   336.0000      8.0655      2.5401      0.0566      6.6627    120.0569     23.2423
   336.1000      8.0655      2.5489      0.0881      6.1254    117.6120     22.5837
   336.2000      8.0655      2.5529      0.0673      5.8843    119.7792     22.7475
   336.3000      8.0659      2.5524      0.0452      5.9175    128.3809     23.2396
   336.4000      8.0659      2.5635      0.0616      5.2406    137.2095     23.5843
   336.5000      8.0663      2.5862      0.1312      3.8639    138.2876     24.0428
   336.6000      8.0663      2.5973      0.1380      3.1914    136.2472     24.5307
   336.7000      8.0663      2.5899      0.0755      3.6419    140.5273     24.5933
   336.8000      8.0663      2.5797      0.0466      4.2621    147.1198     24.2055
   336.9000      8.0663      2.5726      0.0537      4.6885    143.9008     23.8375
   337.0000      8.0687      2.5624      0.0742      5.3068    132.8587     23.8734
   337.1000      8.0687      2.5481      0.0599      6.1783    126.0159     24.2833
   337.2000      8.0687      2.5389      0.0076      6.7317    125.3234     24.7884
   337.3000      8.0681      2.5441      0.0482      6.4160    125.3932     25.2482
   337.4000      8.0681      2.5626      0.0281      5.2996    123.2399     25.6379
   337.5000      8.0666      2.5887      0.0512      3.7165    119.4364     25.7382
   337.6000      8.0666      2.6129      0.0754      2.2465    114.8421     25.2934
   337.7000      8.0666      2.6215      0.0846      1.7251    108.8010     24.5563
   337.8000      8.0664      2.6108      0.0661      2.3756    104.0491     23.8304
   337.9000      8.0664      2.5963     -0.0016      3.2567    103.4623     22.8510
   338.0000      8.0642      2.5959      0.0130      3.2800    105.1616     21.7419
   338.1000      8.0642      2.6043      0.0912      2.7699    107.5278     21.4407
   338.2000      8.0642      2.6029      0.0637      2.8542    112.2479     22.0440
   338.3000      8.0653      2.5900      0.0531      3.6384    117.9925     23.1909
   338.4000      8.0653      2.5767      0.0315      4.4412    119.9229     24.8257
   338.5000      8.0633      2.5693      0.0272      4.8917    117.6794     26.0685
   338.6000      8.0633      2.5614      0.0585      5.3715    115.9738     25.7755
   338.7000      8.0633      2.5480     -0.0029      6.1822    116.4973     24.3078
   338.8000      8.0649      2.5352      0.0198      6.9592    117.6594     23.2334
   338.9000      8.0649      2.5231      0.0272      7.6903    118.9706     23.4581
   339.0000      8.0641      2.5098      0.0445      8.4962    120.5380     24.3463
   339.1000      8.0641      2.5062     -0.0000      8.7126    122.4659     25.0492
   339.2000      8.0641      2.5249      0.0230      7.5818    124.8547     25.4376
   339.3000      8.0666      2.5561      0.0546      5.6931    127.1158     25.6377
   339.4000      8.0666      2.5759      0.0970      4.4932    129.8136     25.9815
   339.5000      8.0674      2.5765      0.0780      4.4559    130.1505     26.3897
   339.6000      8.0674      2.5678      0.0555      4.9811    123.9548     26.5082
   339.7000      8.0674      2.5579      0.0814      5.5846    118.1279     26.5675
   339.8000      8.0657      2.5508      0.0442      6.0096    118.2395     26.7541
   339.9000      8.0657      2.5508      0.0646      6.0105    116.5827     27.3588
   340.0000      8.0681      2.5599      0.0738      5.4578    110.4514     28.1763
   340.1000      8.0681      2.5809      0.0636      4.1854    105.3340     27.9542
   340.2000      8.0681      2.6106      0.0899      2.3902    101.5255     26.5640
   340.3000      8.0664      2.6334      0.0746      1.0054     98.8708     25.3221
   340.4000      8.0664      2.6359      0.0889      0.8561     98.0012     24.7101
   340.5000      8.0639      2.6277      0.0557      1.3526     94.6020     24.2306
   340.6000      8.0639      2.6300      0.0760      1.2125     89.4692     23.7170
   340.7000      8.0639      2.6408      0.0936      0.5563     88.6864     23.2589
   340.8000      8.0588      2.6395      0.0797      0.6380     90.0625     22.5320
   340.9000      8.0588      2.6163      0.0832      2.0442     90.5173     21.2862
   341.0000      8.0678      2.5809      0.0362      4.1857     92.2923     20.0004
   341.1000      8.0678      2.5434      0.0062      6.4592     93.9254     19.2514
   341.2000      8.0678      2.5003      0.0179      9.0751     92.9510     19.3336
   341.3000      8.0672      2.4566     -0.0385     11.7202     93.5473     20.3707
   341.4000      8.0672      2.4329     -0.0307     13.1592    100.5830     21.8231
   341.5000      8.0752      2.4347      0.0050     13.0500    110.2330     22.8927
   341.6000      8.0752      2.4528      0.0106     11.9505    117.9269     23.5278
   341.7000      8.0752      2.4777      0.0669     10.4409    124.4990     24.0692
   341.8000      8.0686      2.5034      0.0861      8.8836    129.8451     24.5428
   341.9000      8.0686      2.5314      0.1543      7.1878    132.5397     24.9230
   342.0000      8.0667      2.5652      0.1846      5.1422    131.8522     25.6261
   342.1000      8.0667      2.6043      0.2342      2.7719    131.7540     26.8596
   342.2000      8.0667      2.6369      0.2804      0.7934    136.0255     27.9374
   342.3000      8.0703      2.6493      0.2089      0.0426    142.0830     28.5117
   342.4000      8.0703      2.6452      0.1458      0.2927    146.4754     28.6035
   342.5000      8.0661      2.6365      0.1026      0.8183    146.5791     28.0811
   342.6000      8.0661      2.6276      0.1336      1.3557    144.1111     27.3839
   342.7000      8.0661      2.6211      0.0878      1.7490    145.7828     26.9747
   342.8000      8.0655      2.6235      0.1034      1.6061    151.3990     27.0147
   342.9000      8.0655      2.6287      0.1592      1.2907    153.8549     27.5539
   343.0000      8.0663      2.6186      0.1293      1.9047    149.6919     28.1506
   343.1000      8.0663      2.5869      0.1012      3.8226    142.8867     28.7481
   343.2000      8.0663      2.5497      0.0597      6.0811    139.2012     29.3789
   343.3000      8.0664      2.5271      0.0427      7.4500    140.6618     29.4061
   343.4000      8.0664      2.5198      0.0443      7.8884    144.5782     28.9644
   343.5000      8.0667      2.5214      0.0214      7.7940    147.2595     28.6391
   343.6000      8.0667      2.5344      0.0388      7.0078    150.3486     28.1766
   343.7000      8.0667      2.5535      0.0932      5.8480    154.0562     27.1430
   343.8000      8.0671      2.5614      0.0985      5.3726    155.0088     25.9437
   343.9000      8.0671      2.5522      0.0860      5.9252    152.2492     25.5186
   344.0000      8.0713      2.5369      0.0546      6.8561    146.8055     26.1692
   344.1000      8.0713      2.5222      0.0951      7.7473    143.2232     27.3042
   344.2000      8.0713      2.5115      0.0310      8.3924    146.3811     27.9375
   344.3000      8.0685      2.5132      0.0761      8.2921    155.4375     27.4808
   344.4000      8.0685      2.5206      0.0608      7.8437    165.9832     26.3571
   344.5000      8.0664      2.5160      0.0599      8.1219    172.0493     25.4716
   344.6000      8.0664      2.4931      0.0656      9.5081    171.5490     24.8352
   344.7000      8.0664      2.4667      0.0452     11.1075    168.8896     23.8511
   344.8000      8.0654      2.4560      0.0608     11.7555    169.2682     22.7201
   344.9000      8.0654      2.4631      0.0729     11.3299    172.6667     22.2085
   345.0000      8.0670      2.4819      0.0442     10.1898    173.9962     22.4374
   345.1000      8.0670      2.5081      0.0559      8.6020    170.9547     22.9555
   345.2000      8.0670      2.5311      0.1017      7.2048    165.3995     23.4621
   345.3000      8.0668      2.5429      0.1257      6.4932    162.5302     23.6905
   345.4000      8.0668      2.5475      0.1049      6.2106    165.0763     23.8398
   345.5000      8.0656      2.5499      0.1447      6.0664    167.9877     24.3461
