~Version Information
VERS.                      2.0: CWLS Log ASCII Standard - VERSION 2.0
WRAP.                       NO: One line per depth step
~Well Information Block
STRT.FT               800.0000: 
STOP.FT              3500.0000: 
STEP.FT                 0.2500: 
NULL.                -999.2500: 
COMP.          Pioneer Natural Resources: COMPANY
WELL.          Cordillera 34-7: WELL
FLD.           Purgatoire River: FIELD
LOC.           598' FSL & 1770' FEL--: LOCATION
PROV.                 Colorado: PROVINCE
CNTY.               Las Animas: COUNTRY
SRVC.                Patterson: SERVICE COMPANY
DATE.          Thu Oct 27 20:08:30 2005: LOG DATE
UWI.           05 071 08552 00: UNIQUE WELL ID
~Curve Information Block
DEPT.FT            0 000 00 00: Depth
SN.Ohm-m                      : IEL Short Normal
SP.mV                         : IEL Spontaneous Potential
DIR.Ohm-m                     : IEL Induction Resistivity
GR.GAPI                       : Gamma Ray
~Parameter Information Block
~A  Depth        SN          SP         DIR          GR     
# ...
  2408.0000     21.7712    183.6419     16.0446    117.9275
  2408.2500     23.9319    183.6341     16.7333    108.1219
  2408.5000     26.5959    183.6602     17.4305     92.3967
  2408.7500     29.8226    183.7639     18.1216     82.4073
  2409.0000     33.4523    183.9182     18.7875     69.4423
  2409.2500     37.0292    184.0320     19.4014     62.4260
  2409.5000     39.9663    183.9969     19.9274     54.3062
  2409.7500     41.8460    183.7525     20.3217     50.3544
  2410.0000     42.5387    183.3411     20.5401     46.5113
  2410.2500     42.1103    182.9072     20.5523     45.4684
  2410.5000     40.7074    182.6226     20.3570     46.5895
  2410.7500     38.5173    182.5841     19.9869     49.2771
  2411.0000     35.8038    182.7624     19.5010     56.0641
  2411.2500     32.8840    183.0290     18.9682     62.0761
  2411.5000     30.0288    183.2236     18.4501     72.4406
  2411.7500     27.4291    183.2188     17.9887     79.7542
  2412.0000     25.1854    182.9772     17.6026     90.8319
  2412.2500     23.3080    182.5859     17.2904     98.1935
  2412.5000     21.7825    182.2250     17.0384    108.9872
  2412.7500     20.6165    182.0619     16.8294    115.6256
  2413.0000     19.8277    182.1462     16.6501    123.4943
  2413.2500     19.4137    182.3887     16.4945    126.4465
  2413.5000     19.3402    182.6300     16.3639    126.1154
  2413.7500     19.5575    182.7366     16.2645    122.4740
  2414.0000     20.0042    182.6620     16.2046    113.0820
  2414.2500     20.5884    182.4466     16.1952    105.7626
  2414.5000     21.2078    182.1811     16.2510     95.9091
  2414.7500     21.8021    181.9615     16.3893     90.9009
  2415.0000     22.3510    181.8423     16.6226     85.7556
  2415.2500     22.8236    181.8032     16.9490     83.6873
  2415.5000     23.1662    181.7534     17.3447     82.5846
  2415.7500     23.3506    181.5852     17.7662     83.2323
  2416.0000     23.4094    181.2462     18.1652     85.7988
  2416.2500     23.4064    180.7764     18.5083     87.7445
  2416.5000     23.3906    180.2795     18.7898     89.1443
  2416.7500     23.3976    179.8540     19.0265     88.3382
  2417.0000     23.4758    179.5452     19.2416     84.7577
  2417.2500     23.6789    179.3525     19.4507     81.6586
  2417.5000     24.0368    179.2597     19.6593     77.6110
  2417.7500     24.5297    179.2364     19.8676     75.7837
  2418.0000     25.0756    179.2248     20.0767     73.8844
  2418.2500     25.5774    179.1638     20.2907     72.5369
  2418.5000     25.9960    179.0417     20.5145     69.8714
  2418.7500     26.3552    178.8991     20.7497     67.9494
  2419.0000     26.6885    178.7605     20.9901     65.6572
  2419.2500     27.0082    178.5850     21.2202     64.6801
  2419.5000     27.3062    178.3143     21.4188     63.5708
  2419.7500     27.5583    177.9635     21.5691     62.6993
  2420.0000     27.7395    177.6372     21.6703     61.2654
  2420.2500     27.8516    177.4367     21.7407     60.7512
  2420.5000     27.9281    177.3640     21.8085     61.4355
  2420.7500     28.0040    177.3275     21.8947     62.7556
  2421.0000     28.0869    177.2316     22.0017     65.0368
  2421.2500     28.1588    177.0472     22.1148     66.1562
  2421.5000     28.2044    176.8088     22.2139     66.6121
  2421.7500     28.2358    176.5698     22.2883     65.9178
  2422.0000     28.2875    176.3643     22.3432     63.2253
  2422.2500     28.3897    176.1957     22.3987     60.3767
  2422.5000     28.5504    176.0447     22.4798     55.0741
  2422.7500     28.7546    175.8829     22.6039     51.5112
  2423.0000     28.9806    175.6852     22.7683     47.5057
  2423.2500     29.2198    175.4395     22.9481     46.2484
  2423.5000     29.4604    175.1546     23.1060     46.3615
  2423.7500     29.6537    174.8609     23.2109     47.3085
  2424.0000     29.7399    174.5977     23.2519     49.3925
  2424.2500     29.7028    174.3965     23.2382     51.0714
  2424.5000     29.5762    174.2666     23.1880     53.6566
  2424.7500     29.4158    174.1975     23.1144     54.9619
  2425.0000     29.2516    174.1709     23.0212     55.5882
  2425.2500     29.0501    174.1584     22.9075     55.2429
  2425.5000     28.7439    174.1077     22.7763     54.7910
  2425.7500     28.3035    173.9513     22.6386     55.2275
  2426.0000     27.7705    173.6473     22.5085     57.0833
  2426.2500     27.2340    173.2061     22.3955     58.6545
  2426.5000     26.7764    172.6759     22.3005     60.8700
  2426.7500     26.4333    172.1123     22.2162     62.1998
  2427.0000     26.1996    171.5622     22.1301     63.9284
  2427.2500     26.0534    171.0493     22.0294     64.7008
  2427.5000     25.9679    170.5545     21.9094     64.9573
  2427.7500     25.9121    170.0219     21.7804     64.5825
  2428.0000     25.8632    169.4012     21.6661     63.6699
  2428.2500     25.8289    168.6842     21.5932     63.0699
  2428.5000     25.8479    167.9007     21.5780     62.2209
  2428.7500     25.9617    167.0873     21.6177     61.5226
  2429.0000     26.1865    166.2690     21.6909     59.9219
  2429.2500     26.5080    165.4615     21.7659     58.3450
  2429.5000     26.8900    164.6799     21.8154     55.1766
  2429.7500     27.2858    163.9465     21.8302     52.6510
  2430.0000     27.6558    163.2908     21.8238     48.7104
  2430.2500     27.9835    162.7327     21.8240     46.3563
  2430.5000     28.2726    162.2544     21.8592     43.8000
  2430.7500     28.5336    161.7959     21.9475     42.8710
  2431.0000     28.7749    161.3008     22.0922     42.3874
  2431.2500     29.0014    160.7807     22.2810     42.3428
  2431.5000     29.2300    160.3241     22.4886     42.1652
  2431.7500     29.4915    160.0140     22.6842     41.8800
  2432.0000     29.8110    159.8358     22.8435     41.4870
  2432.2500     30.1965    159.6841     22.9578     41.4625
  2432.5000     30.6344    159.4642     23.0351     41.7012
  2432.7500     31.0937    159.1591     23.0939     41.7183
  2433.0000     31.5549    158.7967     23.1550     41.0793
  2433.2500     32.0309    158.4001     23.2366     40.2704
  2433.5000     32.5516    157.9940     23.3495     38.8986
  2433.7500     33.1321    157.6254     23.4958     38.0113
  2434.0000     33.7519    157.3423     23.6685     36.7598
  2434.2500     34.3682    157.1588     23.8556     36.0740
  2434.5000     34.9485    157.0454     24.0459     35.5121
  2434.7500     35.4920    156.9424     24.2326     35.4428
  2435.0000     36.0279    156.7858     24.4138     35.5236
  2435.2500     36.5899    156.5463     24.5920     35.5240
  2435.5000     37.1946    156.2647     24.7752     35.2977
  2435.7500     37.8428    156.0441     24.9790     35.0760
  2436.0000     38.5387    155.9833     25.2218     35.0533
  2436.2500     39.3122    156.0884     25.5130     35.4229
  2436.5000     40.2232    156.2336     25.8417     36.2748
  2436.7500     41.3319    156.2180     26.1752     36.5946
  2437.0000     42.6480    155.9046     26.4732     36.0703
  2437.2500     44.1058    155.3426     26.7060     35.0643
  2437.5000     45.6080    154.7683     26.8645     33.3043
  2437.7500     47.1033    154.4819     26.9540     32.5297
  2438.0000     48.6034    154.7016     26.9815     32.3666
  2438.2500     50.1234    155.4810     26.9436     32.6046
  2438.5000     51.6092    156.6960     26.8202     32.4999
  2438.7500     52.9045    158.0951     26.5760     31.8361
  2439.0000     53.7807    159.4137     26.1696     30.3992
  2439.2500     54.0248    160.4946     25.5693     29.7062
  2439.5000     53.4993    161.3271     24.7646     29.8400
  2439.7500     52.1070    161.9910     23.7701     30.9219
  2440.0000     49.7420    162.5787     22.6238     34.1273
  2440.2500     46.3447    163.1548     21.3821     37.3177
  2440.5000     42.0467    163.7583     20.1108     43.5894
  2440.7500     37.2608    164.4239     18.8705     48.6277
  2441.0000     32.5482    165.1878     17.7036     57.2665
  2441.2500     28.3326    166.0589     16.6290     63.8109
