~Version Information
VERS.                      2.0: CWLS Log ASCII Standard - VERSION 2.0
WRAP.                       NO: One line per depth step
~Well Information Block
STRT.FT               -10.2500: 
STOP.FT              2437.2500: 
STEP.FT                 0.2500: 
NULL.                -999.2500: 
COMP.          Pioneer Natural Resources: COMPANY
WELL.          Hellzonfire 32-31: WELL
FLD.           Purgatorie River: FIELD
LOC.           1993' FNL & 2265' FEL------: LOCATION
STAT.                       CO: State
CNTY.               Las Animas: COUNTY
CTRY. USA : Country
SECT. 31 : Section
TOWN. 32S : Township
RANG. 66W : Range
SRVC.          Patterson Wireline: SERVICE COMPANY
DATE.          Thu Sep 08 11:10:17 2005: LOG DATE
API.           05 071 08483 00: UNIQUE WELL ID
~Curve Information Block
DEPT.FT            0 000 00 00: Depth
CCL.                          : Casing Collar Locator
TT3.usec                      : CBL 3' Travel Time
AMP3.mV                       : CBL 3' Amplitude
GR.GAPI                       : Gamma Ray
~Parameter Information Block
~A  Depth       CCL         TT3         AMP3         GR     
# ...
  2066.7500      0.0000    686.1751      6.6159     86.3464
  2067.0000      0.0000    686.0924      6.6078     81.1513
  2067.2500      0.0000    685.9792      6.5916     76.6723
  2067.5000      0.0000    684.8574      6.5755     73.8452
  2067.7500      0.0000    682.1818      6.5728     73.0087
  2068.0000      0.0000    678.2736      6.5949     73.8205
  2068.2500      0.0000    673.9650      6.6461     75.2767
  2068.5000      0.0000    669.7798      6.7217     75.8607
  2068.7500      0.0000    665.3477      6.8098     74.0318
  2069.0000      0.0000    659.9913      6.8957     69.0312
  2069.2500      0.0000    654.1843      6.9649     61.4510
  2069.5000      0.0000    649.8253      7.0055     52.8608
  2069.7500      0.0000    648.4363      7.0113     44.7565
  2070.0000      0.0000    649.4224      6.9889     37.9909
  2070.2500      0.0000    650.6108      6.9600     33.0563
  2070.5000      0.0000    650.2584      6.9539     30.4263
  2070.7500      0.0000    648.2048      6.9954     30.4110
  2071.0000      0.0000    645.5283      7.0985     32.7371
  2071.2500      0.0000    643.7267      7.2631     36.2364
  2071.5000      0.0000    644.0583      7.4683     39.0501
  2071.7500      0.0000    646.8394      7.6691     39.6036
  2072.0000      0.0000    651.0170      7.8125     37.7144
  2072.2500      0.0000    654.6425      7.8670     34.6540
  2072.5000      0.0000    655.9675      7.8408     32.0969
  2072.7500      0.0000    654.2589      7.7731     31.1263
  2073.0000      0.0000    649.9820      7.7100     31.9750
  2073.2500      0.0000    644.4659      7.6807     34.2022
  2073.5000      0.0000    639.2239      7.6917     37.0049
  2073.7500      0.0000    635.2818      7.7353     39.5848
  2074.0000      0.0000    633.1323      7.7871     41.4790
  2074.2500      0.0000    632.6480      7.7904     42.7021
  2074.5000      0.0000    632.0505      7.6774     43.5540
  2074.7500      0.0000    627.6995      7.4452     44.1607
  2075.0000      0.0000    616.9905      7.1841     44.1926
  2075.2500      0.0000    601.8531      6.9960     43.1979
  2075.5000      0.0000    588.2375      6.8988     41.2407
  2075.7500      0.0000    582.8088      6.8358     39.0022
  2076.0000     -2.0000    590.2281      6.7499     37.2655
  2076.2500      0.0000    610.2868      6.6389     36.4580
  2076.5000      0.0000    635.9758      6.5569     36.5154
  2076.7500      0.0000    656.9700      6.5658     37.0174
  2077.0000      0.0000    666.9002      6.6661     37.6233
  2077.2500      0.0000    666.8224      6.7920     38.4090
  2077.5000      0.0000    662.0516      6.8985     39.6366
  2077.7500      0.0000    657.1638      7.0136     41.3453
  2078.0000      0.0000    654.1261      7.1730     43.3751
  2078.2500      0.0000    653.2068      7.3476     45.5314
  2078.5000      0.0000    654.0728      7.4776     47.5436
  2078.7500      0.0000    656.0661      7.5421     49.0540
  2079.0000      0.0000    658.2554      7.5707     49.7493
  2079.2500      0.0000    659.7885      7.6048     49.4655
  2079.5000      0.0000    660.1443      7.6646     48.3668
  2079.7500      0.0000    659.0786      7.7443     47.1044
  2080.0000      0.0000    656.6418      7.8269     46.5156
  2080.2500      0.0000    653.6290      7.9027     46.9894
  2080.5000      0.0000    651.8602      7.9739     48.2953
  2080.7500      0.0000    653.3094      8.0442     50.0952
  2081.0000      0.0000    658.5087      8.1065     52.4434
  2081.2500      0.0000    666.0952      8.1443     55.7343
  2081.5000      0.0000    674.1028      8.1437     60.3023
  2081.7500      0.0000    681.1122      8.1033     66.0340
  2082.0000      0.0000    685.9081      8.0331     72.2008
  2082.2500      0.0000    687.1259      7.9474     77.7133
  2082.5000      0.0000    684.3505      7.8583     81.7388
  2082.7500      0.0000    679.3017      7.7734     84.1160
  2083.0000      0.0000    675.0703      7.6990     85.1396
  2083.2500      0.0000    673.7870      7.6438     85.0818
  2083.5000      0.0000    674.9557      7.6173     84.2544
  2083.7500      0.0000    676.1539      7.6270     83.4914
  2084.0000      0.0000    675.5198      7.6763     84.0341
  2084.2500      0.0000    673.5029      7.7600     86.4348
  2084.5000      0.0000    672.1061      7.8621     89.5781
  2084.7500      0.0000    673.1120      7.9606     91.0969
  2085.0000      0.0000    677.6652      8.0367     89.0367
  2085.2500      0.0000    686.7133      8.0826     83.3835
  2085.5000      0.0000    700.2486      8.1046     76.1763
  2085.7500      0.0000    715.5768      8.1189     70.0733
  2086.0000      0.0000    727.3878      8.1405     66.6255
  2086.2500      0.0000    731.1262      8.1725     65.7490
  2086.5000      0.0000    726.7322      8.2051     66.4968
  2086.7500      0.0000    718.4236      8.2216     67.9208
  2087.0000      0.0000    710.8590      8.2075     69.2968
  2087.2500      0.0000    706.1284      8.1572     70.1988
  2087.5000      0.0000    703.9107      8.0752     70.7737
  2087.7500      0.0000    703.1382      7.9733     71.5541
  2088.0000      0.0000    703.0245      7.8671     72.5375
  2088.2500      0.0000    703.1837      7.7733     72.7156
  2088.5000      0.0000    703.4368      7.7036     71.1770
  2088.7500      0.0000    703.6462      7.6589     68.6824
  2089.0000      0.0000    703.5665      7.6288     67.4785
  2089.2500      0.0000    702.6725      7.5969     69.2718
  2089.5000      0.0000    700.1193      7.5508     73.7555
  2089.7500      0.0000    695.1705      7.4890     79.2580
  2090.0000      0.0000    688.0465      7.4213     84.4028
  2090.2500      0.0000    680.4090      7.3636     88.8444
  2090.5000      0.0000    674.5938      7.3341     92.7403
  2090.7500      0.0000    671.9131      7.3515     95.9749
  2091.0000      0.0000    671.6379      7.4290     98.0163
  2091.2500      0.0000    671.8771      7.5654     98.4942
  2091.5000      0.0000    671.6361      7.7406     97.8186
  2091.7500      0.0000    671.8945      7.9217     97.0764
  2092.0000      0.0000    674.4550      8.0774     97.2598
  2092.2500      0.0000    679.7335      8.1913     98.5276
  2092.5000      0.0000    685.7034      8.2672    100.0364
  2092.7500      0.0000    689.0190      8.3193    100.5509
  2093.0000      0.0000    687.5424      8.3610     99.4731
  2093.2500      0.0000    682.3350      8.3990     97.2143
  2093.5000      0.0000    677.1157      8.4328     94.4724
  2093.7500      0.0000    675.0103      8.4512     91.6143
  2094.0000      0.0000    675.6341      8.4360     89.1373
  2094.2500      0.0000    675.9660      8.3740     88.1402
  2094.5000      0.0000    673.9254      8.2700     89.5632
  2094.7500      0.0000    670.1951      8.1482     92.8836
  2095.0000      0.0000    666.7376      8.0431     95.9276
  2095.2500      0.0000    664.6840      7.9837     96.2009
  2095.5000      0.0000    663.8947      7.9801     92.6788
  2095.7500      0.0000    663.7165      8.0201     86.6425
  2096.0000      0.0000    663.6372      8.0791     80.8930
  2096.2500      0.0000    663.4514      8.1306     77.9294
  2096.5000      0.0000    663.1696      8.1496     78.5156
  2096.7500      0.0000    662.8886      8.1166     81.6608
  2097.0000      0.0000    662.6997      8.0307     85.6890
  2097.2500      0.0000    662.6824      7.9169     89.2470
  2097.5000      0.0000    663.0082      7.8136     91.5071
  2097.7500      0.0000    664.0896      7.7468     91.9023
  2098.0000      0.0000    666.5413      7.7163     90.1824
  2098.2500      0.0000    670.6767      7.7045     86.8619
  2098.5000      0.0000    675.7805      7.6938     83.1430
  2098.7500      0.0000    680.2186      7.6759     79.8481
  2099.0000      0.0000    683.0132      7.6503     76.5153
  2099.2500      0.0000    685.2739      7.6189     71.8828
  2099.5000      0.0000    689.3738      7.5855     65.3491
  2099.7500      0.0000    696.4653      7.5573     57.8270
  2100.0000      0.0000    705.2180      7.5412     51.0036
