~Version Information
VERS.                      2.0: CWLS Log ASCII Standard - VERSION 2.0
WRAP.                       NO: One line per depth step
~Well Information Block
STRT.FT                 0.0000: 
STOP.FT               816.5000: 
STEP.FT                 0.1000: 
NULL.                -999.2500: 
COMP.          Pioneer Natural Resources: COMPANY
WELL.           Weissach 32-32: WELL
FLD.           Purgatorie River: FIELD
LOC.           2193' FNL & 2256' FEL: LOCATION
STAT.                 Colorado: State
CNTY.               Las Animas: COUNTY
CTRY. USA : Country
SECT. 32 : Section
TOWN. 33S : Township
RANG. 66W : Range
SRVC.                Patterson: SERVICE COMPANY
DATE.          Mon Sep 26 09:15:29 2005: LOG DATE
API. 05-071-08523                         : UNIQUE WELL ID
~Curve Information Block
DEPT.FT            0 000 00 00: Depth
DCAL.in                       : CDL Caliper
RHOB.g/cc                     : CDL Bulk Density
RHOC.g/cc                     : CDL Density Correction
DPOR.pu                       : CDL Density Porosity
GR.GAPI                       : Gamma Ray
NPOR.pu                       : Neutron Porosity
~Parameter Information Block
~A  Depth       DCAL        RHOB        RHOC        DPOR         GR         NPOR    
# ...
   480.0000      7.9372      2.4986      0.0843      9.1729    123.7651     29.1504
   480.1000      7.9372      2.4843      0.0849     10.0414    127.0024     29.4291
   480.2000      7.9372      2.4677      0.0624     11.0488    127.2966     29.5208
   480.3000      7.9405      2.4611      0.0254     11.4484    125.0524     29.4619
   480.4000      7.9405      2.4716      0.0206     10.8124    122.7821     29.2911
   480.5000      7.9358      2.4886      0.0560      9.7806    121.5846     28.8570
   480.6000      7.9358      2.4913      0.0804      9.6187    122.7415     28.1777
   480.7000      7.9358      2.4701      0.0548     10.9010    124.1967     27.5314
   480.8000      7.9333      2.4409      0.0076     12.6701    121.7425     27.2105
   480.9000      7.9333      2.4243     -0.0188     13.6789    118.0064     27.2373
   481.0000      7.9280      2.4243     -0.0202     13.6813    118.4273     27.2362
   481.1000      7.9280      2.4424     -0.0127     12.5794    121.2610     27.0443
   481.2000      7.9280      2.4790      0.0486     10.3654    122.5188     26.8831
   481.3000      7.9265      2.5108      0.1082      8.4391    123.4000     26.7070
   481.4000      7.9265      2.5135      0.0440      8.2720    125.8044     26.3199
   481.5000      7.9197      2.4997      0.0128      9.1087    128.2342     26.1254
   481.6000      7.9197      2.4938      0.0493      9.4680    129.4680     26.6966
   481.7000      7.9197      2.4948      0.0480      9.4033    129.5473     27.4207
   481.8000      7.9136      2.4903      0.0303      9.6774    129.5942     27.3924
   481.9000      7.9136      2.4833      0.0230     10.1044    132.6774     26.7736
   482.0000      7.9053      2.4888      0.0516      9.7679    138.2515     26.3143
   482.1000      7.9053      2.5061      0.1000      8.7184    141.7178     26.4333
   482.2000      7.9053      2.5221      0.0846      7.7492    138.9204     26.8995
   482.3000      7.9074      2.5391      0.0907      6.7226    131.9723     27.2708
   482.4000      7.9074      2.5585      0.1087      5.5475    125.0808     27.3677
   482.5000      7.8997      2.5602      0.1461      5.4427    118.1297     27.1575
   482.6000      7.8997      2.5361      0.0732      6.9010    114.3563     26.8089
   482.7000      7.8997      2.5093      0.0572      8.5257    116.5838     26.6517
   482.8000      7.8927      2.4974      0.0192      9.2479    119.5566     26.8925
   482.9000      7.8927      2.4986      0.0577      9.1769    120.8377     27.4298
   483.0000      7.9004      2.5029      0.0578      8.9158    123.0229     27.8901
   483.1000      7.9004      2.5064      0.0193      8.7029    124.4931     27.9031
   483.2000      7.9004      2.5109      0.0598      8.4306    123.0351     27.4061
   483.3000      7.8981      2.5104      0.0711      8.4632    120.7278     26.9336
   483.4000      7.8981      2.5008      0.0389      9.0436    119.5410     27.0260
   483.5000      7.9096      2.4887      0.0342      9.7771    119.8346     27.5560
   483.6000      7.9096      2.4790      0.0443     10.3621    120.4334     27.9636
   483.7000      7.9096      2.4703      0.0360     10.8923    118.4899     27.8546
   483.8000      7.9079      2.4651     -0.0086     11.2063    114.8739     27.3177
   483.9000      7.9079      2.4676      0.0437     11.0575    113.3480     26.8470
   484.0000      7.8976      2.4707      0.0878     10.8675    114.7442     26.6709
   484.1000      7.8976      2.4691      0.0216     10.9660    117.6749     26.7034
   484.2000      7.8976      2.4686      0.0258     10.9911    122.2251     27.0107
   484.3000      7.8916      2.4762      0.0175     10.5332    127.4225     27.4528
   484.4000      7.8916      2.4937      0.0797      9.4739    128.1644     27.7036
   484.5000      7.8940      2.5098      0.0610      8.4944    125.4832     27.6683
   484.6000      7.8940      2.5083      0.0960      8.5859    126.4127     27.5086
   484.7000      7.8940      2.4893      0.0392      9.7417    130.6156     27.3365
   484.8000      7.8944      2.4747      0.0294     10.6249    134.3640     27.0614
   484.9000      7.8944      2.4767      0.0685     10.5047    136.3800     26.7704
   485.0000      7.8942      2.4838      0.0508     10.0738    134.3933     26.7902
   485.1000      7.8942      2.4949      0.0156      9.3989    129.4885     27.0567
   485.2000      7.8942      2.5175      0.0531      8.0292    126.3323     27.0912
   485.3000      7.8919      2.5401      0.0775      6.6578    124.4683     26.8799
   485.4000      7.8919      2.5504      0.0193      6.0393    123.3930     26.7400
   485.5000      7.8902      2.5501      0.0942      6.0569    126.6972     26.4949
   485.6000      7.8902      2.5438      0.0491      6.4344    131.0068     25.9933
   485.7000      7.8902      2.5432      0.0672      6.4702    130.7051     25.6543
   485.8000      7.8860      2.5542      0.0617      5.8055    127.1641     25.7048
   485.9000      7.8860      2.5641      0.0884      5.2040    123.1451     25.8148
   486.0000      7.8778      2.5566      0.0940      5.6586    120.8123     25.6867
   486.1000      7.8778      2.5322      0.0531      7.1404    120.0687     25.4531
   486.2000      7.8778      2.5039      0.0864      8.8527    118.6348     25.3101
   486.3000      7.8742      2.4867      0.0097      9.8959    117.3728     25.1038
   486.4000      7.8742      2.4871      0.0765      9.8751    118.8489     24.8975
   486.5000      7.8846      2.4938      0.0629      9.4686    123.0418     25.1797
   486.6000      7.8846      2.5011      0.0565      9.0259    126.0397     25.9735
   486.7000      7.8846      2.5090      0.0734      8.5439    125.2864     26.5840
   486.8000      7.8833      2.5094      0.0855      8.5235    122.3026     26.5311
   486.9000      7.8833      2.5012      0.0434      9.0178    118.0393     26.3136
   487.0000      7.8820      2.4945      0.0413      9.4215    112.7954     26.4394
   487.1000      7.8820      2.4944      0.0625      9.4301    108.1869     26.5774
   487.2000      7.8820      2.4989      0.0379      9.1605    107.2978     26.2013
   487.3000      7.8596      2.5038      0.0669      8.8622    109.8342     25.3467
   487.4000      7.8596      2.5092      0.0391      8.5334    111.3691     24.6194
   487.5000      7.8490      2.5205      0.0561      7.8496    111.9889     24.4394
   487.6000      7.8490      2.5317      0.1119      7.1674    114.6592     24.6487
   487.7000      7.8490      2.5385      0.0729      6.7600    116.6636     24.8651
   487.8000      7.8443      2.5532      0.0604      5.8640    114.2758     24.8435
   487.9000      7.8443      2.5763      0.0853      4.4685    110.5109     24.6555
   488.0000      7.8409      2.5891      0.1149      3.6894    110.5851     24.4804
   488.1000      7.8409      2.5838      0.1010      4.0108    114.4553     24.2971
   488.2000      7.8409      2.5738      0.0457      4.6209    117.8184     24.1745
   488.3000      7.8472      2.5764      0.0772      4.4615    118.4221     24.4604
   488.4000      7.8472      2.5883      0.0934      3.7365    116.0744     25.2105
   488.5000      7.8393      2.5919      0.0905      3.5199    112.5628     25.7547
   488.6000      7.8393      2.5773      0.0441      4.4088    111.0558     25.6380
   488.7000      7.8393      2.5463      0.0659      6.2835    112.7896     25.3146
   488.8000      7.8556      2.5152      0.0237      8.1676    116.7964     25.0495
   488.9000      7.8556      2.5030      0.0228      8.9084    119.8685     24.4949
   489.0000      7.9213      2.5059      0.0386      8.7353    119.7051     23.7971
   489.1000      7.9213      2.5109      0.0291      8.4285    117.6747     23.5586
   489.2000      7.9213      2.5213      0.0161      7.8030    114.0546     23.7956
   489.3000      7.9459      2.5388      0.0809      6.7403    110.6230     23.8292
   489.4000      7.9459      2.5529      0.0363      5.8852    111.6032     23.4594
   489.5000      7.9364      2.5600     -0.0028      5.4529    114.8160     23.2538
