~Version Information
VERS.                      2.0: CWLS Log ASCII Standard - VERSION 2.0
WRAP.                       NO: One line per depth step
~Well Information Block
STRT.FT               420.0000: 
STOP.FT              2888.7000: 
STEP.FT                 0.1000: 
NULL.                -999.2500: 
COMP.          Pioneer Natural Resources: COMPANY
WELL.          Touchstone 11-32: WELL
FLD.           Purgatoire River: FIELD
LOC.           853' FNL & 407' FWL--: LOCATION
CNTY.               Las Animas: COUNTY
SRVC.                Patterson: SERVICE COMPANY
DATE.          Fri Feb 24 11:16:52 2006: LOG DATE
UWI.           05 071 08564 00: UNIQUE WELL ID
STAT.                 Colorado: STATE
~Curve Information Block
DEPT.FT            0 000 00 00: Depth
DCAL.in                       : CDL Caliper
RHOB.g/cc                     : CDL Bulk Density
RHOC.g/cc                     : CDL Density Correction
DPOR.pu                       : CDL Density Porosity
NPOR.pu                       : Neutron Porosity
GR.GAPI                       : Gamma Ray
~Parameter Information Block
~A  Depth       DCAL        RHOB        RHOC        DPOR        NPOR         GR     
# ...
  2205.6000      7.8704      2.4929      0.0581      9.5228     21.2096     55.8934
  2205.7000      7.8704      2.4978      0.0579      9.2227     20.6735     57.0751
  2205.8000      7.8645      2.4954      0.0543      9.3694     19.9745     57.3149
  2205.9000      7.8645      2.4929      0.0564      9.5188     19.5379     56.8681
  2206.0000      7.8582      2.4959      0.0731      9.3402     19.4106     55.9678
  2206.1000      7.8582      2.5003      0.0658      9.0719     19.2647     54.5218
  2206.2000      7.8582      2.5076      0.0679      8.6326     19.3678     51.4576
  2206.3000      7.8577      2.5207      0.0720      7.8372     20.2166     46.7770
  2206.4000      7.8577      2.5302      0.0925      7.2622     20.9391     43.4878
  2206.5000      7.8637      2.5249      0.0709      7.5819     20.4225     44.2157
  2206.6000      7.8637      2.5141      0.0298      8.2377     19.0918     48.9859
  2206.7000      7.8637      2.5120      0.0727      8.3658     17.8142     53.2227
  2206.8000      7.8728      2.5158      0.0443      8.1325     17.3322     53.2896
  2206.9000      7.8728      2.5228      0.0354      7.7117     17.9762     50.3035
  2207.0000      7.8818      2.5297      0.0717      7.2884     18.5408     45.6183
  2207.1000      7.8818      2.5239      0.0818      7.6450     17.8535     42.8467
  2207.2000      7.8818      2.5062      0.0407      8.7181     16.8548     44.9282
  2207.3000      7.8906      2.4977      0.0414      9.2286     16.5380     48.6015
  2207.4000      7.8906      2.5072      0.0451      8.6558     16.6020     50.5206
  2207.5000      7.9009      2.5247      0.0360      7.5917     16.5469     50.0863
  2207.6000      7.9009      2.5389      0.0604      6.7317     16.5987     47.5887
  2207.7000      7.9009      2.5428      0.0458      6.4962     17.0488     45.7500
  2207.8000      7.9155      2.5408      0.0685      6.6184     17.4165     46.7616
  2207.9000      7.9155      2.5417      0.0517      6.5657     17.4801     49.8098
  2208.0000      7.9316      2.5431      0.0478      6.4771     17.6747     53.0223
  2208.1000      7.9316      2.5346      0.0644      6.9937     18.1163     54.4375
  2208.2000      7.9316      2.5160      0.0587      8.1184     18.6518     54.0197
  2208.3000      7.9388      2.5000      0.0391      9.0924     19.2113     52.3843
  2208.4000      7.9388      2.4947      0.0490      9.4104     19.4898     47.3892
  2208.5000      7.9340      2.4965      0.0286      9.3020     19.5530     40.8112
  2208.6000      7.9340      2.5007      0.0341      9.0508     19.8240     39.2612
  2208.7000      7.9340      2.5057      0.0330      8.7446     19.9923     42.6120
  2208.8000      7.9222      2.5055      0.0808      8.7549     19.6604     43.4601
  2208.9000      7.9222      2.4944      0.0494      9.4289     19.0160     40.6822
  2209.0000      7.9109      2.4764      0.0444     10.5198     18.2357     38.6367
  2209.1000      7.9109      2.4559      0.0557     11.7658     17.6525     38.6951
  2209.2000      7.9109      2.4363      0.0143     12.9497     17.7148     41.5047
  2209.3000      7.9040      2.4281     -0.0010     13.4490     18.2342     46.4478
  2209.4000      7.9040      2.4331     -0.0090     13.1438     18.7098     50.6360
  2209.5000      7.8983      2.4422      0.0053     12.5938     18.9218     52.9006
  2209.6000      7.8983      2.4502      0.0213     12.1117     18.9487     52.9303
  2209.7000      7.8983      2.4555      0.0479     11.7849     18.9757     50.8545
  2209.8000      7.8906      2.4582      0.0303     11.6272     19.1451     48.3124
  2209.9000      7.8906      2.4580      0.0616     11.6352     19.6106     47.5781
  2210.0000      7.8854      2.4526      0.0520     11.9663     20.0785     50.0571
  2210.1000      7.8854      2.4452      0.0422     12.4140     20.0057     52.6618
  2210.2000      7.8854      2.4476      0.0522     12.2640     19.6167     51.7472
  2210.3000      7.8834      2.4601      0.0709     11.5067     19.5393     49.3170
  2210.4000      7.8834      2.4683      0.0735     11.0139     19.6144     47.4770
  2210.5000      7.8810      2.4701      0.0517     10.9006     19.2096     46.4637
  2210.6000      7.8810      2.4725      0.0925     10.7571     18.5121     46.7097
  2210.7000      7.8810      2.4682      0.0846     11.0153     18.2186     48.2493
  2210.8000      7.8809      2.4555      0.0556     11.7861     18.3425     49.9650
  2210.9000      7.8809      2.4481      0.0271     12.2346     18.4019     49.0386
  2211.0000      7.8841      2.4501      0.0543     12.1138     18.2986     46.8862
  2211.1000      7.8841      2.4556      0.0281     11.7789     18.1845     47.6344
  2211.2000      7.8841      2.4674      0.0545     11.0640     18.1499     50.0624
  2211.3000      7.8863      2.4800      0.0837     10.3052     17.9331     50.1750
  2211.4000      7.8863      2.4821      0.0461     10.1740     17.6622     47.9451
  2211.5000      7.8848      2.4827      0.0012     10.1407     17.9703     46.5734
  2211.6000      7.8848      2.4841      0.0797     10.0541     18.5197     47.5975
  2211.7000      7.8848      2.4690      0.0652     10.9688     18.5722     47.2351
  2211.8000      7.8825      2.4415      0.0182     12.6349     18.3474     43.1359
  2211.9000      7.8825      2.4279      0.0047     13.4587     18.0786     38.8644
  2212.0000      7.8827      2.4387      0.0446     12.8069     17.6868     38.6898
  2212.1000      7.8827      2.4531      0.1024     11.9324     17.6103     40.3717
  2212.2000      7.8827      2.4444      0.0807     12.4622     18.0082     38.8577
  2212.3000      7.8842      2.4202      0.0146     13.9247     18.4076     35.4481
  2212.4000      7.8842      2.4053      0.0098     14.8328     18.6174     34.0226
  2212.5000      7.8855      2.4000      0.0611     15.1493     18.6935     34.0602
  2212.6000      7.8855      2.3954      0.0367     15.4296     18.4349     33.3124
  2212.7000      7.8855      2.3958      0.0393     15.4034     17.8804     31.9703
  2212.8000      7.8862      2.4052      0.0344     14.8363     17.5681     31.5150
  2212.9000      7.8862      2.4191      0.0540     13.9918     17.8573     33.0554
  2213.0000      7.8861      2.4373      0.0592     12.8887     18.3381     34.5690
  2213.1000      7.8861      2.4603      0.0784     11.4968     18.4851     33.7149
  2213.2000      7.8861      2.4768      0.1040     10.4956     18.3033     32.6364
  2213.3000      7.8847      2.4743      0.0951     10.6466     17.7020     32.8507
  2213.4000      7.8847      2.4608      0.0495     11.4687     16.7349     33.7023
  2213.5000      7.8838      2.4569      0.0592     11.7055     16.1663     34.9756
  2213.6000      7.8838      2.4642      0.0925     11.2622     16.1619     35.3839
  2213.7000      7.8838      2.4644      0.0969     11.2473     15.9601     32.7916
  2213.8000      7.8845      2.4486      0.0493     12.2088     15.5981     29.3202
  2213.9000      7.8845      2.4279      0.0626     13.4594     15.5863     28.6870
  2214.0000      7.8832      2.4174     -0.0019     14.0980     15.6868     31.0583
  2214.1000      7.8832      2.4209      0.0783     13.8835     15.5960     33.1311
  2214.2000      7.8832      2.4317      0.0508     13.2333     15.5552     32.7811
  2214.3000      7.8823      2.4465      0.0618     12.3336     15.7189     31.0646
  2214.4000      7.8823      2.4644      0.0729     11.2492     15.8267     31.0162
  2214.5000      7.8871      2.4730      0.1067     10.7286     15.9133     33.0151
  2214.6000      7.8871      2.4601      0.0682     11.5107     16.2570     32.8819
  2214.7000      7.8871      2.4343      0.0781     13.0745     16.7117     30.4241
  2214.8000      7.8920      2.4149      0.0398     14.2481     16.6800     29.3719
  2214.9000      7.8920      2.4134      0.0276     14.3370     16.0782     28.5127
  2215.0000      7.8943      2.4233      0.0581     13.7406     15.6119     25.4974
  2215.1000      7.8943      2.4288      0.0452     13.4044     15.5411     22.0298
