~Version Information
VERS.                      2.0: CWLS Log ASCII Standard - VERSION 2.0
WRAP.                       NO: One line per depth step
~Well Information Block
STRT.FT               570.0000: 
STOP.FT              2094.0000: 
STEP.FT                 0.2500: 
NULL.                -999.2500: 
COMP.          XTO Energy Inc.: COMPANY
WELL.          Golden Eagle 19-10: WELL
FLD.           Purgatoire River: FIELD
LOC.           2684' FSL & 1825' FEL: LOCATION
CNTY.               Las Animas: COUNTY
CTRY.                      USA: COUNTRY
API.               05 071 08697:  
SRVC.                Patterson: SERVICE COMPANY
DATE.          Sun Mar 05 02:13:24 2006: LOG DATE
UWI.           05 071 08697 00: UNIQUE WELL ID
STAT.                 Colorado: STATE
~Curve Information Block
DEPT.FT            0 000 00 00: Depth
SP.mV                         : DIL Spontaneous Potential
RILD.Ohm-m                    : DIL Deep Resistivity
RILM.Ohm-m                    : DIL Medium Resistivity
RLL3.Ohm-m                    : DIL Shallow Resistivity
GR.GAPI                       : Gamma Ray
~Parameter Information Block
~A  Depth        SP         RILD        RILM        RLL3         GR     
# ...
   682.0000   -999.2500     29.4153     38.8368   -999.2500     56.3389
   682.2500   -999.2500     27.4429     35.3174   -999.2500     59.2935
   682.5000   -999.2500     25.7517     31.7830   -999.2500     66.0710
   682.7500   -999.2500     24.2749     28.4775   -999.2500     72.4918
   683.0000   -999.2500     22.9174     25.5532   -999.2500     84.8068
   683.2500   -999.2500     21.6040     23.0756   -999.2500     93.9756
   683.5000   -999.2500     20.3133     21.0458   -999.2500    106.6875
   683.7500   -999.2500     19.0723     19.4252   -999.2500    113.0606
   684.0000   -999.2500     17.9173     18.1526   -999.2500    118.4415
   684.2500   -999.2500     16.8618     17.1584   -999.2500    119.6448
   684.5000   -999.2500     15.8946     16.3709   -999.2500    119.5321
   684.7500   -999.2500     15.0015     15.7229   -999.2500    119.1353
   685.0000   -999.2500     14.1831     15.1573   -999.2500    119.0790
   685.2500   -999.2500     13.4554     14.6321   -999.2500    119.6570
   685.5000   -999.2500     12.8357     14.1240   -999.2500    121.5922
   685.7500   -999.2500     12.3304     13.6267   -999.2500    123.5447
   686.0000   -999.2500     11.9291     13.1455   -999.2500    126.9292
   686.2500   -999.2500     11.6076     12.6893   -999.2500    128.8714
   686.5000   -999.2500     11.3346     12.2639   -999.2500    130.2257
   686.7500   -999.2500     11.0787     11.8687   -999.2500    129.8454
   687.0000   -999.2500     10.8152     11.4978   -999.2500    127.9528
   687.2500   -999.2500     10.5319     11.1431   -999.2500    126.5903
   687.5000   -999.2500     10.2298     10.7981   -999.2500    125.7864
   687.7500   -999.2500      9.9200     10.4602   -999.2500    126.5203
   688.0000   -999.2500      9.6161     10.1306   -999.2500    129.2653
   688.2500   -999.2500      9.3285      9.8134   -999.2500    131.5421
   688.5000   -999.2500      9.0617      9.5129   -999.2500    134.4697
   688.7500   -999.2500      8.8165      9.2332   -999.2500    135.9158
   689.0000   -999.2500      8.5925      8.9767   -999.2500    137.9105
   689.2500   -999.2500      8.3906      8.7451   -999.2500    139.4251
   689.5000   -999.2500      8.2133      8.5386   -999.2500    141.7034
   689.7500   -999.2500      8.0621      8.3570   -999.2500    142.8648
   690.0000   -999.2500      7.9358      8.1994   -999.2500    143.7600
   690.2500   -999.2500      7.8300      8.0646   -999.2500    143.8279
   690.5000   -999.2500      7.7386      7.9509   -999.2500    143.5565
   690.7500   -999.2500      7.6562      7.8565   -999.2500    143.5509
   691.0000   -999.2500      7.5789      7.7786   -999.2500    144.3186
   691.2500   -999.2500      7.5031      7.7138   -999.2500    145.2344
   691.5000   -999.2500      7.4246      7.6576   -999.2500    146.4717
   691.7500   -999.2500      7.3396      7.6052   -999.2500    146.7872
   692.0000   -999.2500      7.2467      7.5523   -999.2500    146.2555
   692.2500   -999.2500      7.1487      7.4957   -999.2500    145.3908
   692.5000   -999.2500      7.0518      7.4341   -999.2500    143.7811
   692.7500   -999.2500      6.9633      7.3685   -999.2500    142.6284
   693.0000   -999.2500      6.8884      7.3015   -999.2500    140.8410
   693.2500   -999.2500      6.8284      7.2370   -999.2500    139.8214
   693.5000   -999.2500      6.7814      7.1789   -999.2500    139.3088
   693.7500   -999.2500      6.7454      7.1313   -999.2500    139.9087
   694.0000   -999.2500      6.7205      7.0972   -999.2500    141.6659
   694.2500   -999.2500      6.7090      7.0790   -999.2500    142.7005
   694.5000   -999.2500      6.7118      7.0773   -999.2500    143.2908
   694.7500   -999.2500      6.7268      7.0904   -999.2500    143.2128
   695.0000   -999.2500      6.7493      7.1145   -999.2500    143.2555
   695.2500   -999.2500      6.7757      7.1442   -999.2500    143.7405
   695.5000   -999.2500      6.8062      7.1742   -999.2500    145.1214
   695.7500   -999.2500      6.8435      7.2020   -999.2500    146.2189
   696.0000   -999.2500      6.8902      7.2293   -999.2500    147.4461
   696.2500   -999.2500      6.9465      7.2621   -999.2500    147.5481
   696.5000   -999.2500      7.0098      7.3088   -999.2500    146.4351
   696.7500   -999.2500      7.0769      7.3777   -999.2500    145.3521
   697.0000   -999.2500      7.1471      7.4736   -999.2500    144.6465
   697.2500   -999.2500      7.2229      7.5965   -999.2500    145.2960
   697.5000   -999.2500      7.3092      7.7414   -999.2500    147.4762
   697.7500   -999.2500      7.4111      7.8990   -999.2500    148.9184
   698.0000   -999.2500      7.5330      8.0588   -999.2500    150.0685
   698.2500   -999.2500      7.6778      8.2119   -999.2500    150.2598
   698.5000   -999.2500      7.8459      8.3542   -999.2500    150.6384
   698.7500   -999.2500      8.0326      8.4870   -999.2500    151.5558
   699.0000   -999.2500      8.2272      8.6169   -999.2500    154.9447
   699.2500   -999.2500      8.4143      8.7524   -999.2500    159.1654
   699.5000   -999.2500      8.5774      8.9005   -999.2500    168.9368
   699.7500   -999.2500      8.7032      9.0632   -999.2500    177.1814
   700.0000   -999.2500      8.7834      9.2354   -999.2500    189.4474
   700.2500   -999.2500      8.8156      9.4051   -999.2500    195.3502
   700.5000   -999.2500      8.8027      9.5551   -999.2500    197.2174
   700.7500   -999.2500      8.7525      9.6674   -999.2500    192.7348
   701.0000   -999.2500      8.6764      9.7280   -999.2500    178.7037
   701.2500   -999.2500      8.5887      9.7307   -999.2500    166.9388
   701.5000   -999.2500      8.5041      9.6781   -999.2500    150.4404
   701.7500   -999.2500      8.4335      9.5796   -999.2500    141.7937
   702.0000   -999.2500      8.3797      9.4479   -999.2500    132.4203
   702.2500   -999.2500      8.3365      9.2959   -999.2500    127.9924
   702.5000   -999.2500      8.2925      9.1340   -999.2500    123.6507
   702.7500   -999.2500      8.2373      8.9708   -999.2500    122.2848
   703.0000   -999.2500      8.1661      8.8127   -999.2500    121.8061
   703.2500   -999.2500      8.0788      8.6652   -999.2500    121.4594
   703.5000   -999.2500      7.9781      8.5327   -999.2500    118.9658
   703.7500   -999.2500      7.8680      8.4181   -999.2500    115.6774
   704.0000   -999.2500      7.7545      8.3222   -999.2500    109.7244
   704.2500   -999.2500      7.6476      8.2441   -999.2500    106.3909
   704.5000   -999.2500      7.5595      8.1818   -999.2500    103.6418
   704.7500   -999.2500      7.5011      8.1332   -999.2500    103.1642
   705.0000   -999.2500      7.4791      8.0972   -999.2500    103.4811
   705.2500   -999.2500      7.4937      8.0743   -999.2500    103.8873
   705.5000   -999.2500      7.5397      8.0662   -999.2500    104.3284
   705.7500   -999.2500      7.6070      8.0744   -999.2500    104.4795
   706.0000   -999.2500      7.6825      8.0998   -999.2500    105.2025
   706.2500   -999.2500      7.7534      8.1405   -999.2500    106.8094
   706.5000   -999.2500      7.8125      8.1925   -999.2500    111.7969
   706.7500   -999.2500      7.8617      8.2503   -999.2500    116.5518
   707.0000   -999.2500      7.9121      8.3088   -999.2500    124.4115
   707.2500   -999.2500      7.9795      8.3654   -999.2500    129.4683
   707.5000   -999.2500      8.0800      8.4223   -999.2500    136.4719
   707.7500   -999.2500      8.2266      8.4867   -999.2500    140.8953
   708.0000   -999.2500      8.4283      8.5702   -999.2500    147.4408
   708.2500   -999.2500      8.6916      8.6876   -999.2500    151.6964
   708.5000   -999.2500      9.0195      8.8553   -999.2500    157.1789
   708.7500   -999.2500      9.4089      9.0908   -999.2500    159.4804
   709.0000   -999.2500      9.8479      9.4122   -999.2500    159.6464
   709.2500   -999.2500     10.3168      9.8372   -999.2500    157.2276
   709.5000   -999.2500     10.7959     10.3824   -999.2500    150.2935
   709.7500   -999.2500     11.2739     11.0612   -999.2500    144.2963
