~Version Information
VERS.                      2.0: CWLS Log ASCII Standard - VERSION 2.0
WRAP.                       NO: One line per depth step
~Well Information Block
STRT.FT               -10.0000: 
STOP.FT              1935.0000: 
STEP.FT                 0.2500: 
NULL.                -999.2500: 
COMP.          Pioneer Natural Resources: COMPANY
WELL.           Willys 32-8 Tr: WELL
FLD.           Purgatorie River: FIELD
LOC.           1843' FNL & 2355' FEL--: LOCATION
CNTY.               Las Animas: COUNTY
SRVC.          Patterson Wireline: SERVICE COMPANY
DATE.          Wed Feb 15 13:29:41 2006: LOG DATE
UWI.           05 071 08688 00: UNIQUE WELL ID
STAT.                       CO: STATE
~Curve Information Block
DEPT.FT            0 000 00 00: Depth
CCL.                          : Casing Collar Locator
TT3.usec                      : CBL 3' Travel Time
AMP3.mV                       : CBL 3' Amplitude
GR.GAPI                       : Gamma Ray
~Parameter Information Block
~A  Depth       CCL         TT3         AMP3         GR     
# ...
   760.5000      0.0000    553.3462     14.5145     71.6440
   760.7500      0.0000    501.6325     14.6942     72.6029
   761.0000      0.0000    452.9107     14.7977     71.9235
   761.2500      0.0000    415.0320     14.7863     71.7143
   761.5000      0.0000    394.7657     14.6298     73.9415
   761.7500      0.0000    394.1176     14.3035     78.9157
   762.0000      0.0000    411.4106     13.7807     85.2988
   762.2500      0.0000    444.2231     13.0728     91.3251
   762.5000      0.0000    487.5865     12.3166     95.9240
   762.7500      0.0000    531.1141     11.7723     99.2291
   763.0000      0.0000    564.4252     11.6375    102.4939
   763.2500      0.0000    586.8098     11.8655    107.1114
   763.5000      0.0000    607.0649     12.2436    113.0729
   763.7500      0.0000    632.8089     12.6234    118.4698
   764.0000      0.0000    662.4525     12.9972    120.8776
   764.2500      0.0000    687.2585     13.4008    119.2163
   764.5000      2.0000    697.3004     13.8536    114.2931
   764.7500      2.0000    683.9981     14.3924    108.0855
   765.0000      0.0000    641.6964     15.1118    102.8694
   765.2500      0.0000    572.8804     16.1490    100.4637
   765.5000      0.0000    491.6592     17.6018    101.4593
   765.7500      0.0000    417.5718     19.3979    104.9006
   766.0000      0.0000    364.0269     21.2382    108.8682
   766.2500      0.0000    332.8967     22.7359    111.6443
   766.5000      0.0000    318.5776     23.6257    112.5907
   766.7500      0.0000    314.5828     23.8311    111.9572
   767.0000      0.0000    316.7130     23.4063    109.8304
   767.2500      0.0000    322.5132     22.4911    105.7861
   767.5000      0.0000    329.8278     21.2887     99.9495
   767.7500      0.0000    336.5262     20.0172     93.9077
   768.0000      0.0000    341.2373     18.8500     89.9103
   768.2500      0.0000    343.8216     17.8831     89.0701
   768.5000      0.0000    344.9512     17.1382     90.5667
   768.7500      0.0000    345.3865     16.5837     92.8728
   769.0000      0.0000    345.5866     16.1655     95.4377
   769.2500      0.0000    345.7339     15.8309     98.3955
   769.5000      0.0000    345.8965     15.5455    100.9286
   769.7500      0.0000    346.1311     15.3004    101.1774
   770.0000      0.0000    346.5310     15.1051     97.9755
   770.2500      0.0000    347.4978     14.9674     91.9824
   770.5000      0.0000    350.5054     14.8764     85.2306
   770.7500      0.0000    359.1086     14.8024     80.0026
   771.0000      0.0000    378.5663     14.7110     77.4685
   771.2500      0.0000    411.5844     14.5774     76.7915
   771.5000      0.0000    451.4811     14.3931     76.0649
   771.7500      0.0000    481.1630     14.1695     74.4932
   772.0000      0.0000    484.6079     13.9361     73.1840
   772.2500      0.0000    461.9918     13.7262     73.6364
   772.5000      0.0000    431.2990     13.5551     75.8866
   772.7500      0.0000    413.9045     13.4106     78.4577
   773.0000      0.0000    419.2776     13.2642     80.0049
   773.2500      0.0000    442.2218     13.0908     80.5721
   773.5000      0.0000    472.4792     12.8825     80.9757
   773.7500      0.0000    505.8141     12.6513     81.3338
   774.0000      0.0000    544.5685     12.4217     80.8805
   774.2500      0.0000    588.5607     12.2190     79.3280
   774.5000      0.0000    630.3114     12.0604     77.9292
   774.7500      0.0000    661.1589     11.9531     78.7928
   775.0000      0.0000    678.6083     11.8972     83.0946
   775.2500      0.0000    686.0897     11.8866     89.9514
   775.5000      0.0000    688.0286     11.9119     96.9018
   775.7500      0.0000    686.1979     11.9642    101.5593
   776.0000      0.0000    678.7788     12.0339    103.0590
   776.2500      0.0000    661.3896     12.1060    102.2853
   776.5000      0.0000    630.7874     12.1677    101.0990
   776.7500      0.0000    589.6520     12.2262    101.2792
   777.0000      0.0000    546.4164     12.3121    103.6959
   777.2500      0.0000    507.7156     12.4516    108.1496
   777.5000      0.0000    472.6122     12.6353    113.9637
   777.7500      0.0000    437.4849     12.8187    120.7270
   778.0000      0.0000    404.2188     12.9562    128.4111
   778.2500      0.0000    379.6541     13.0282    136.6361
   778.5000      0.0000    368.7051     13.0388    143.9048
   778.7500      0.0000    370.6938     12.9954    147.9701
   779.0000      0.0000    380.3978     12.9012    147.2931
   779.2500      0.0000    390.5343     12.7633    142.2469
   779.5000      0.0000    394.9302     12.6007    135.0725
   779.7500      0.0000    391.6483     12.4415    128.7745
   780.0000      0.0000    383.2708     12.3084    125.5913
   780.2500      0.0000    373.9959     12.2074    125.7640
   780.5000      0.0000    366.8314     12.1308    127.4155
   780.7500      0.0000    362.7376     12.0764    127.9403
   781.0000      0.0000    360.9243     12.0585    126.0888
   781.2500      0.0000    359.6559     12.0980    122.8898
   781.5000      0.0000    357.6258     12.2021    120.2725
   781.7500      0.0000    354.8925     12.3585    118.8101
   782.0000      0.0000    352.3609     12.5471    117.1631
   782.2500      0.0000    350.6570     12.7536    113.8362
   782.5000      0.0000    349.7964     12.9684    109.2381
   782.7500      0.0000    349.7733     13.1765    105.7954
   783.0000      0.0000    351.3125     13.3545    105.9527
   783.2500      0.0000    356.2514     13.4808    110.1550
   783.5000      0.0000    367.0222     13.5514    116.7660
   783.7500      0.0000    384.8570     13.5844    123.7328
   784.0000      0.0000    407.5878     13.6076    130.1942
   784.2500      0.0000    429.6225     13.6399    136.5570
   784.5000      0.0000    445.4968     13.6822    143.1969
   784.7500      0.0000    454.0403     13.7223    149.3673
   785.0000      0.0000    458.3837     13.7516    153.5485
   785.2500      0.0000    461.8023     13.7768    154.9094
   785.5000      0.0000    465.1146     13.8128    154.3210
   785.7500      0.0000    469.5202     13.8652    153.6630
   786.0000      0.0000    480.7013     13.9226    153.8328
   786.2500      0.0000    506.6592     13.9683    153.6746
   786.5000      0.0000    549.2469     13.9962    151.2422
   786.7500      0.0000    599.3287     14.0116    145.8704
   787.0000      0.0000    642.8791     14.0179    138.7099
   787.2500      0.0000    671.6003     14.0076    131.6431
   787.5000      0.0000    686.3300     13.9695    125.9887
   787.7500      0.0000    691.6042     13.9069    121.9135
   788.0000      0.0000    688.8442     13.8466    118.6698
   788.2500      0.0000    674.4801     13.8269    115.4667
   788.5000      0.0000    643.9399     13.8696    112.3561
   788.7500      0.0000    598.8468     13.9642    110.1792
   789.0000      0.0000    551.0848     14.0805    109.4510
   789.2500      0.0000    517.3018     14.1941    109.5941
   789.5000      0.0000    505.7333     14.2993    109.6005
   789.7500      0.0000    507.8487     14.4050    109.3066
   790.0000      0.0000    504.8863     14.5247    109.5727
   790.2500      0.0000    483.7227     14.6716    111.0324
   790.5000      0.0000    446.9325     14.8565    112.9207
   790.7500      0.0000    409.0487     15.0883    113.5001
   791.0000      0.0000    385.1468     15.3735    111.6707
   791.2500      0.0000    382.5773     15.7115    107.8760
   791.5000      0.0000    399.1395     16.0854    103.4278
   791.7500      0.0000    425.4325     16.4610     99.6098
   792.0000      0.0000    450.6194     16.7990     97.7050
   792.2500      0.0000    469.4017     17.0719     98.9698
   792.5000      0.0000    482.4345     17.2725    103.6014
   792.7500      0.0000    489.3278     17.4117    109.9782
   793.0000      0.0000    485.0169     17.5045    115.6123
   793.2500      0.0000    465.6608     17.5545    119.0975
   793.5000      0.0000    436.2580     17.5470    120.9566
   793.7500      0.0000    410.8863     17.4564    122.6430
