~Version Information
VERS.                      2.0: CWLS Log ASCII Standard - VERSION 2.0
WRAP.                       NO: One line per depth step
~Well Information Block
STRT.FT               619.7000: 
STOP.FT               951.7000: 
STEP.FT                 0.1000: 
NULL.                -999.2500: 
COMP.          Pioneer Natural Resources: COMPANY
WELL.          Screamin 12-29 Tr: WELL
FLD.           Purgatoire River: FIELD
LOC.           1979' FNL & 532' FWL--: LOCATION
CNTY.               Las Animas: COUNTY
SRVC.                Patterson: SERVICE COMPANY
DATE.          Fri Mar 31 15:43:57 2006: LOG DATE
UWI.           05 071 08660 00: UNIQUE WELL ID
STAT.                 Colorado: STATE
~Curve Information Block
DEPT.FT            0 000 00 00: Depth
DCAL.in                       : CDL Caliper
RHOB.g/cc                     : CDL Bulk Density
RHOC.g/cc                     : CDL Density Correction
DPOR.pu                       : CDL Density Porosity
GR.GAPI                       : Gamma Ray
~Parameter Information Block
~A  Depth       DCAL        RHOB        RHOC        DPOR         GR     
# ...
   630.9000      8.2171      2.4734     -0.1587     10.7020     81.2340
   631.0000      8.2176      2.4629     -0.1927     11.3383     78.5838
   631.1000      8.2176      2.4801     -0.1849     10.2978     75.3587
   631.2000      8.2176      2.5229     -0.1590      7.7047     69.9179
   631.3000      8.2162      2.5664     -0.1316      5.0689     63.8669
   631.4000      8.2162      2.5875     -0.1156      3.7878     60.2520
   631.5000      8.2131      2.5921     -0.1905      3.5073     60.2945
   631.6000      8.2131      2.6005     -0.1098      2.9970     62.9794
   631.7000      8.2131      2.6194     -0.1340      1.8524     65.7010
   631.8000      8.2087      2.6593     -0.1304     -0.5663     66.5841
   631.9000      8.2087      2.7260     -0.1416     -4.6048     66.1576
   632.0000      8.2053      2.7974     -0.0935     -8.9324     66.7891
   632.1000      8.2053      2.8522     -0.1280    -12.2548     69.9065
   632.2000      8.2053      2.8843     -0.1351    -14.2002     71.7898
   632.3000      8.2058      2.8784     -0.1848    -13.8399     70.9928
   632.4000      8.2058      2.8144     -0.1994     -9.9608     70.2715
   632.5000      8.2090      2.7064     -0.2579     -3.4199     69.1419
   632.6000      8.2090      2.5999     -0.3415      3.0354     68.0665
   632.7000      8.2090      2.5157     -0.3563      8.1388     66.9368
   632.8000      8.2123      2.4466     -0.5421     12.3249     63.3696
   632.9000      8.2123      2.3958     -0.5879     15.4040     59.3793
   633.0000      8.2174      2.3756     -0.7842     16.6312     57.2433
   633.1000      8.2174      2.3815     -0.6874     16.2735     55.4811
   633.2000      8.2174      2.3759     -0.5846     16.6114     56.0056
   633.3000      8.2275      2.3408     -0.6479     18.7418     60.8262
   633.4000      8.2275      2.3163     -0.7180     20.2267     64.7110
   633.5000      8.2397      2.3360     -0.5233     19.0277     63.2216
   633.6000      8.2397      2.3800     -0.3557     16.3641     59.0409
   633.7000      8.2397      2.4237     -0.3043     13.7174     55.2742
   633.8000      8.2514      2.4653     -0.1879     11.1955     53.0802
   633.9000      8.2514      2.4954     -0.1576      9.3668     52.9250
   634.0000      8.2571      2.5030     -0.1610      8.9091     52.3572
   634.1000      8.2571      2.4968     -0.2299      9.2862     49.7768
   634.2000      8.2571      2.4897     -0.1963      9.7154     46.7451
   634.3000      8.2523      2.4780     -0.1524     10.4218     45.3246
   634.4000      8.2523      2.4568     -0.1998     11.7075     47.4152
   634.5000      8.2426      2.4293     -0.1912     13.3760     51.0676
   634.6000      8.2426      2.3993     -0.1842     15.1962     52.0778
   634.7000      8.2426      2.3753     -0.2534     16.6465     51.0934
   634.8000      8.2370      2.3619     -0.2264     17.4580     52.5963
   634.9000      8.2370      2.3508     -0.1821     18.1352     56.6988
   635.0000      8.2359      2.3453     -0.2653     18.4684     58.6736
   635.1000      8.2359      2.3588     -0.1935     17.6462     57.4534
   635.2000      8.2359      2.3816     -0.1692     16.2680     56.6798
   635.3000      8.2336      2.3972     -0.1745     15.3208     59.1114
   635.4000      8.2336      2.4091     -0.1841     14.5999     63.0992
   635.5000      8.2306      2.4182     -0.1302     14.0495     64.3047
   635.6000      8.2306      2.4147     -0.1856     14.2623     61.5495
   635.7000      8.2306      2.4026     -0.1389     14.9924     58.5588
   635.8000      8.2319      2.3996     -0.1889     15.1744     57.7758
   635.9000      8.2319      2.4139     -0.1391     14.3069     58.2417
   636.0000      8.2396      2.4326     -0.1667     13.1777     60.4784
   636.1000      8.2396      2.4349     -0.1275     13.0362     65.7050
   636.2000      8.2396      2.4151     -0.1698     14.2337     72.1629
   636.3000      8.2497      2.3921     -0.1921     15.6309     76.3692
   636.4000      8.2497      2.3832     -0.1801     16.1702     77.9934
   636.5000      8.2550      2.3826     -0.1421     16.2080     78.8124
   636.6000      8.2550      2.3791     -0.1772     16.4189     78.2235
   636.7000      8.2550      2.3713     -0.1861     16.8927     76.7678
   636.8000      8.2562      2.3582     -0.2057     17.6872     77.1746
   636.9000      8.2562      2.3410     -0.2004     18.7267     80.3570
   637.0000      8.2576      2.3279     -0.2148     19.5206     84.1141
   637.1000      8.2576      2.3212     -0.1738     19.9283     84.2261
   637.2000      8.2576      2.3119     -0.1953     20.4890     80.3266
   637.3000      8.2587      2.3028     -0.2154     21.0434     78.2555
   637.4000      8.2587      2.3090     -0.2169     20.6651     81.4268
   637.5000      8.2587      2.3331     -0.2294     19.2091     84.4303
   637.6000      8.2587      2.3554     -0.1656     17.8544     81.8475
   637.7000      8.2587      2.3546     -0.2016     17.9047     78.0393
   637.8000      8.2577      2.3395     -0.2179     18.8171     78.8925
   637.9000      8.2577      2.3422     -0.2317     18.6565     80.6880
   638.0000      8.2565      2.3743     -0.1805     16.7066     78.8444
   638.1000      8.2565      2.4108     -0.1685     14.4990     76.5113
   638.2000      8.2565      2.4207     -0.1303     13.8951     77.2764
   638.3000      8.2561      2.4043     -0.1601     14.8897     79.9068
   638.4000      8.2561      2.3916     -0.2310     15.6607     81.8819
   638.5000      8.2562      2.3986     -0.1882     15.2336     79.9564
   638.6000      8.2562      2.4124     -0.1847     14.4008     74.3574
   638.7000      8.2562      2.4235     -0.1978     13.7297     71.0131
   638.8000      8.2549      2.4300     -0.2027     13.3357     70.8119
   638.9000      8.2549      2.4247     -0.2037     13.6571     69.3033
   639.0000      8.2540      2.3961     -0.1851     15.3853     65.9862
   639.1000      8.2540      2.3355     -0.2210     19.0607     64.1593
   639.2000      8.2540      2.2510     -0.2837     24.1809     65.2925
   639.3000      8.2546      2.1672     -0.3505     29.2592     68.1395
   639.4000      8.2546      2.1030     -0.3652     33.1494     71.2906
   639.5000      8.2561      2.0581     -0.3648     35.8740     74.0215
   639.6000      8.2561      2.0249     -0.3985     37.8836     74.3943
   639.7000      8.2561      2.0012     -0.3600     39.3201     69.8036
   639.8000      8.2579      1.9865     -0.3842     40.2103     63.7541
   639.9000      8.2579      1.9866     -0.3984     40.2050     62.3164
   640.0000      8.2591      2.0088     -0.3791     38.8611     65.0847
   640.1000      8.2591      2.0504     -0.3815     36.3403     66.2549
   640.2000      8.2591      2.0922     -0.3066     33.8040     63.0964
   640.3000      8.2593      2.1137     -0.3201     32.5020     58.8491
   640.4000      8.2593      2.1223     -0.3541     31.9833     56.4032
   640.5000      8.2598      2.1307     -0.3039     31.4719     56.1057
   640.6000      8.2598      2.1258     -0.2973     31.7669     59.4103
   640.7000      8.2598      2.1031     -0.4012     33.1432     65.2321
   640.8000      8.2602      2.0848     -0.4066     34.2528     67.7257
   640.9000      8.2602      2.0792     -0.3628     34.5922     65.4689
   641.0000      8.2597      2.0736     -0.3622     34.9342     62.4933
   641.1000      8.2597      2.0657     -0.3942     35.4120     61.7900
   641.2000      8.2597      2.0686     -0.3638     35.2371     63.1943
   641.3000      8.2591      2.0914     -0.3741     33.8534     64.2585
   641.4000      8.2591      2.1316     -0.3328     31.4172     66.1052
   641.5000      8.2590      2.1782     -0.3194     28.5926     69.8579
   641.6000      8.2590      2.2125     -0.2629     26.5151     73.4663
   641.7000      8.2590      2.2213     -0.2644     25.9836     76.2593
   641.8000      8.2584      2.2244     -0.3281     25.7918     79.9137
   641.9000      8.2584      2.2481     -0.2644     24.3570     85.2465
   642.0000      8.2572      2.2796     -0.1867     22.4455     91.1308
