~Version Information
VERS.                      2.0: CWLS Log ASCII Standard - VERSION 2.0
WRAP.                       NO: One line per depth step
~Well Information Block
STRT.FT               595.0000: 
STOP.FT              1693.0000: 
STEP.FT                 0.1000: 
NULL.                -999.2500: 
COMP.          Pioneer Natural Resources: COMPANY
WELL.          Rollerball 34-30: WELL
FLD.           Purgatoire River: FIELD
LOC.           893' FSL & 2408' FEL: LOCATION
CNTY.               Las Animas: COUNTY
SRVC.                Patterson: SERVICE COMPANY
DATE.          Tue Feb 14 15:43:01 2006: LOG DATE
UWI.           05 071 08581 00: UNIQUE WELL ID
STAT.                 Colorado: STATE
~Curve Information Block
DEPT.FT            0 000 00 00: Depth
DCAL.in                       : CDL Caliper
RHOB.g/cc                     : CDL Bulk Density
RHOC.g/cc                     : CDL Density Correction
DPOR.pu                       : CDL Density Porosity
GR.GAPI                       : Gamma Ray
NPOR.pu                       : Neutron Porosity
~Parameter Information Block
~A  Depth       DCAL        RHOB        RHOC        DPOR         GR         NPOR    
# ...
  1535.8000      8.0027      2.6177      0.0693      1.9563     62.7549     17.2838
  1535.9000      8.0027      2.6099      0.0481      2.4301     61.3102     17.8955
  1536.0000      8.0011      2.5952      0.1063      3.3189     58.3233     18.3966
  1536.1000      8.0011      2.5846      0.0747      3.9642     54.7743     18.2330
  1536.2000      8.0011      2.5828      0.0504      4.0755     51.9184     17.9605
  1536.3000      8.0041      2.5920      0.0422      3.5177     49.9588     17.9053
  1536.4000      8.0041      2.6017      0.0571      2.9277     49.6633     18.0155
  1536.5000      8.0064      2.5905      0.0989      3.6072     51.3097     18.3351
  1536.6000      8.0064      2.5530      0.0063      5.8792     53.6891     19.0180
  1536.7000      8.0064      2.5155      0.0033      8.1538     54.2996     20.2566
  1536.8000      8.0067      2.5037     -0.0031      8.8671     52.8405     21.3088
  1536.9000      8.0067      2.5164      0.0094      8.0961     50.9293     20.8396
  1537.0000      8.0070      2.5353      0.0125      6.9524     50.0574     19.3760
  1537.1000      8.0070      2.5523      0.0035      5.9200     51.7618     18.5861
  1537.2000      8.0070      2.5710      0.0434      4.7894     54.1549     18.9083
  1537.3000      8.0066      2.5860      0.0691      3.8814     54.0660     19.6818
  1537.4000      8.0066      2.5863      0.0485      3.8596     53.9851     19.8743
  1537.5000      8.0058      2.5778      0.0136      4.3774     55.0644     19.0406
  1537.6000      8.0058      2.5780     -0.0134      4.3625     54.5660     17.8545
  1537.7000      8.0058      2.5867      0.0774      3.8368     52.2142     16.8623
  1537.8000      8.0051      2.5870      0.0591      3.8158     49.6027     16.3301
  1537.9000      8.0051      2.5795      0.0084      4.2715     50.3912     16.4295
  1538.0000      8.0070      2.5753      0.0665      4.5287     55.3497     16.9236
  1538.1000      8.0070      2.5706      0.0636      4.8112     58.2126     17.7737
  1538.2000      8.0070      2.5649      0.0482      5.1570     55.0579     18.9614
  1538.3000      8.0056      2.5699      0.0497      4.8538     49.6534     20.0905
  1538.4000      8.0056      2.5889      0.0753      3.7051     46.9911     20.2949
  1538.5000      8.0046      2.6057      0.0905      2.6827     48.3657     19.4733
  1538.6000      8.0046      2.6083      0.0474      2.5252     50.2644     18.7114
  1538.7000      8.0046      2.6055      0.0632      2.6995     50.1374     18.4647
  1538.8000      8.0063      2.6047      0.0589      2.7483     50.1056     18.0934
  1538.9000      8.0063      2.5988      0.0890      3.1047     51.6454     17.4639
  1539.0000      8.0083      2.5836      0.0576      4.0245     55.2384     17.4586
  1539.1000      8.0083      2.5698      0.0140      4.8617     58.5409     18.4833
  1539.2000      8.0083      2.5608      0.0360      5.4074     59.0815     19.5820
  1539.3000      8.0079      2.5504      0.0241      6.0334     60.0368     19.8724
  1539.4000      8.0079      2.5424      0.0116      6.5194     60.9104     19.3205
  1539.5000      8.0075      2.5366      0.0376      6.8731     60.1886     18.5813
  1539.6000      8.0075      2.5254      0.0116      7.5514     61.3018     18.4917
  1539.7000      8.0075      2.5113      0.0141      8.4043     64.1423     19.1474
  1539.8000      8.0076      2.5015      0.0117      8.9978     64.4024     19.7389
  1539.9000      8.0076      2.4990      0.0011      9.1494     58.9943     19.5541
  1540.0000      8.0084      2.5081     -0.0268      8.5996     51.1054     18.8396
  1540.1000      8.0084      2.5331      0.0336      7.0844     49.1645     18.5235
  1540.2000      8.0084      2.5660      0.0696      5.0924     55.1492     19.2935
  1540.3000      8.0075      2.5942      0.0813      3.3795     61.2845     20.6669
  1540.4000      8.0075      2.6147      0.0744      2.1404     61.2235     21.4638
  1540.5000      8.0068      2.6217      0.1157      1.7171     56.1209     21.2471
  1540.6000      8.0068      2.6081      0.0944      2.5423     50.4112     20.7469
  1540.7000      8.0068      2.5882      0.0784      3.7434     47.1301     20.9297
  1540.8000      8.0069      2.5828      0.0771      4.0709     46.9678     21.5653
  1540.9000      8.0069      2.5916      0.0674      3.5396     50.9995     21.6222
  1541.0000      8.0088      2.6010      0.1309      2.9676     57.2465     21.2878
  1541.1000      8.0088      2.6050      0.0808      2.7288     59.7302     21.4886
  1541.2000      8.0088      2.6143      0.0588      2.1633     56.1011     22.2644
  1541.3000      8.0090      2.6354      0.0991      0.8845     51.5026     23.0121
  1541.4000      8.0090      2.6531      0.1209     -0.1880     51.1495     23.3659
  1541.5000      8.0085      2.6490      0.0977      0.0599     53.2302     23.0693
  1541.6000      8.0085      2.6244      0.0543      1.5530     54.5783     22.3373
  1541.7000      8.0085      2.5981      0.0674      3.1482     55.7321     21.6702
  1541.8000      8.0100      2.5834      0.0572      4.0347     55.9832     21.6918
  1541.9000      8.0100      2.5773      0.0618      4.4033     53.5918     22.5226
  1542.0000      8.0105      2.5705      0.0733      4.8159     52.0322     22.9140
  1542.1000      8.0105      2.5624     -0.0057      5.3121     54.8982     22.1811
  1542.2000      8.0105      2.5561      0.0392      5.6937     59.6588     21.3142
  1542.3000      8.0150      2.5520      0.0208      5.9392     62.4179     20.9356
  1542.4000      8.0150      2.5557      0.0448      5.7167     62.4456     20.4826
  1542.5000      8.0116      2.5701      0.0173      4.8425     62.2093     19.6976
  1542.6000      8.0116      2.5869      0.0789      3.8239     63.9541     19.2988
  1542.7000      8.0116      2.5931      0.0423      3.4473     64.9458     19.5924
  1542.8000      8.0089      2.5871      0.0500      3.8149     61.6206     20.2884
  1542.9000      8.0089      2.5775      0.0344      4.3953     57.4510     21.0742
  1543.0000      8.0082      2.5694      0.0391      4.8869     55.9338     21.3782
  1543.1000      8.0082      2.5690     -0.0253      4.9089     56.2905     20.9570
  1543.2000      8.0082      2.5820      0.0162      4.1236     56.8739     20.2734
  1543.3000      8.0100      2.5908      0.0584      3.5876     57.1235     19.9293
  1543.4000      8.0100      2.5788      0.0617      4.3130     59.2600     19.9420
  1543.5000      8.0102      2.5632      0.0047      5.2597     64.2868     19.6659
  1543.6000      8.0102      2.5637      0.0781      5.2299     68.1776     19.2460
  1543.7000      8.0102      2.5706      0.0332      4.8148     67.1016     19.4626
  1543.8000      8.0079      2.5760      0.0056      4.4847     62.6673     20.1541
  1543.9000      8.0079      2.5849      0.0230      3.9434     60.7134     20.6008
  1544.0000      8.0087      2.5884      0.0496      3.7313     64.1157     20.4181
  1544.1000      8.0087      2.5754      0.0565      4.5202     68.3490     20.1699
  1544.2000      8.0087      2.5565     -0.0117      5.6644     69.7978     20.6754
  1544.3000      8.0102      2.5515      0.0204      5.9709     69.6139     21.6774
  1544.4000      8.0102      2.5516      0.0601      5.9636     69.1114     22.1987
  1544.5000      8.0088      2.5291      0.0376      7.3260     69.7166     21.6804
  1544.6000      8.0088      2.4921     -0.0149      9.5711     72.0519     20.6701
  1544.7000      8.0088      2.4810     -0.0114     10.2406     74.3112     20.3150
  1544.8000      8.0084      2.5056      0.0306      8.7490     74.6014     20.7082
  1544.9000      8.0084      2.5359      0.0566      6.9163     73.2874     20.9964
  1545.0000      8.0095      2.5557      0.0627      5.7137     70.1684     20.6548
  1545.1000      8.0095      2.5753      0.0731      4.5275     65.9116     20.0590
  1545.2000      8.0095      2.5971      0.0699      3.2081     63.2980     20.0830
  1545.3000      8.0110      2.6084      0.1027      2.5201     61.2384     20.7908
