~Version Information
VERS.                      2.0: CWLS Log ASCII Standard - VERSION 2.0
WRAP.                       NO: One line per depth step
~Well Information Block
STRT.FT               400.0000: 
STOP.FT              2232.0000: 
STEP.FT                 0.2500: 
NULL.                -999.2500: 
COMP.          Evergreen Operating Corporation: COMPANY
WELL.                Croc 42-9: WELL
FLD.           Purgatorie River: FIELD
LOC.           2262' FNL & 238' FEL: LOCATION
STAT.                 Colorado: State
CNTY.               Las Animas: COUNTY
CTRY. USA : Country
SECT. 9 : Section
TOWN. 32S : Township
RANG. 66W : Range
SRVC.                Patterson: SERVICE COMPANY
DATE.          Wed Jul 21 23:25:54 2004: LOG DATE
API.           05 071 08106 00: UNIQUE WELL ID
~Curve Information Block
DEPT.FT            0 000 00 00: Depth
SN.Ohm-m                      : IEL Short Normal
SP.mV                         : IEL Spontaneous Potential
DIR.Ohm-m                     : IEL Induction Resistivity
GR.GAPI                       : Gamma Ray
~Parameter Information Block
~A  Depth        SN          SP         DIR          GR     
# ...
  1003.0000     42.9388     65.7796     45.2789     91.8887
  1003.2500     44.8334     65.7882     48.4206     91.8269
  1003.5000     46.7871     65.7963     50.5160     92.4899
  1003.7500     48.7097     65.7627     51.5603     93.1351
  1004.0000     50.5805     65.6649     52.0050     93.1179
  1004.2500     52.4267     65.5174     52.4250     91.9538
  1004.5000     54.2694     65.3617     53.2236     88.8631
  1004.7500     56.0519     65.2365     54.5152     86.4613
  1005.0000     57.6619     65.1548     56.1104     82.7423
  1005.2500     59.0808     65.1046     57.5819     80.0494
  1005.5000     60.3918     65.0626     58.4651     75.6015
  1005.7500     61.5658     65.0088     58.5573     72.6658
  1006.0000     62.4365     64.9355     58.0816     69.2544
  1006.2500     62.8901     64.8488     57.5411     68.2111
  1006.5000     62.9252     64.7640     57.4231     69.1013
  1006.7500     62.6141     64.6972     57.9934     71.2981
  1007.0000     62.0805     64.6542     59.2318     76.1920
  1007.2500     61.4737     64.6190     60.8540     79.7574
  1007.5000     60.9310     64.5576     62.3997     84.1960
  1007.7500     60.5603     64.4392     63.4221     85.9219
  1008.0000     60.4640     64.2568     63.7198     86.1985
  1008.2500     60.7442     64.0282     63.4229     85.0408
  1008.5000     61.4434     63.7794     62.8536     82.2086
  1008.7500     62.4486     63.5262     62.3086     80.1457
  1009.0000     63.4790     63.2632     61.9407     77.3722
  1009.2500     64.2881     62.9687     61.7531     75.8592
  1009.5000     64.8635     62.6224     61.6422     74.0266
  1009.7500     65.3445     62.2263     61.4577     72.9188
  1010.0000     65.8246     61.8104     61.0648     71.0365
  1010.2500     66.2389     61.4183     60.3803     69.5489
  1010.5000     66.3738     61.0855     59.3429     67.2929
  1010.7500     66.0257     60.8281     57.8623     66.1044
  1011.0000     65.1379     60.6538     55.8262     65.0936
  1011.2500     63.7483     60.5813     53.1919     64.9014
  1011.5000     61.8933     60.6442     50.0665     65.3700
  1011.7500     59.5657     60.8658     46.6790     66.4246
  1012.0000     56.7367     61.2214     43.2676     69.5740
  1012.2500     53.4840     61.6300     39.9940     72.7277
  1012.5000     50.0569     61.9880     36.9369     78.6008
  1012.7500     46.6995     62.2208     34.1303     83.0094
  1013.0000     43.4484     62.3140     31.5908     90.1390
  1013.2500     40.2097     62.3061     29.3208     95.1756
  1013.5000     36.9782     62.2567     27.3010    103.0183
  1013.7500     33.8984     62.2136     25.4941    108.2818
  1014.0000     31.1508     62.1982     23.8600    115.7486
  1014.2500     28.8355     62.2071     22.3755    120.1766
  1014.5000     26.9225     62.2236     21.0427    126.0238
  1014.7500     25.2897     62.2298     19.8805    129.5816
  1015.0000     23.8358     62.2151     18.9035    134.2637
  1015.2500     22.5446     62.1760     18.1050    136.5507
  1015.5000     21.4520     62.1097     17.4556    138.4134
  1015.7500     20.5979     62.0102     16.9180    139.0083
  1016.0000     19.9891     61.8739     16.4638    140.1134
  1016.2500     19.5778     61.7105     16.0807    141.3519
  1016.5000     19.2889     61.5432     15.7679    143.4870
  1016.7500     19.0837     61.3985     15.5254    144.4659
  1017.0000     18.9833     61.2914     15.3500    144.4488
  1017.2500     19.0209     61.2187     15.2378    143.3286
  1017.5000     19.1848     61.1631     15.1901    140.4483
  1017.7500     19.4219     61.1019     15.2147    138.3509
  1018.0000     19.6980     61.0151     15.3217    136.2456
  1018.2500     20.0252     60.8934     15.5158    136.0443
  1018.5000     20.3879     60.7464     15.7919    137.5333
  1018.7500     20.6858     60.6027     16.1345    139.2857
  1019.0000     20.8167     60.4982     16.5194    142.0579
  1019.2500     20.7739     60.4585     16.9164    143.4702
  1019.5000     20.6238     60.4898     17.2934    144.2847
  1019.7500     20.4389     60.5843     17.6246    143.7589
  1020.0000     20.2790     60.7279     17.9005    141.3440
  1020.2500     20.1692     60.9019     18.1326    138.7730
  1020.5000     20.0625     61.0923     18.3495    133.6939
  1020.7500     19.9045     61.3110     18.5869    129.5860
  1021.0000     19.7709     61.6038     18.8758    122.8703
  1021.2500     19.8632     62.0200     19.2347    118.8191
  1021.5000     20.3495     62.5672     19.6658    115.1428
  1021.7500     21.2390     63.1922     20.1544    114.8483
  1022.0000     22.3818     63.8060     20.6709    116.8711
  1022.2500     23.5628     64.3321     21.1745    118.6463
  1022.5000     24.6412     64.7395     21.6208    119.9467
  1022.7500     25.6306     65.0406     21.9742    119.4699
  1023.0000     26.6002     65.2653     22.2222    117.4436
  1023.2500     27.5008     65.4375     22.3783    115.9895
  1023.5000     28.2199     65.5683     22.4686    114.4682
  1023.7500     28.7716     65.6596     22.5093    113.8195
  1024.0000     29.2410     65.7087     22.4933    112.7178
  1024.2500     29.6051     65.7115     22.3959    111.5595
  1024.5000     29.7382     65.6696     22.1926    109.1515
  1024.7500     29.5377     65.5980     21.8753    107.3774
  1025.0000     29.0014     65.5261     21.4536    105.0450
  1025.2500     28.2242     65.4849     20.9438    103.8984
  1025.5000     27.3403     65.4891     20.3579    102.8931
  1025.7500     26.4490     65.5285     19.7049    102.7802
  1026.0000     25.5707     65.5751     19.0010    103.6242
  1026.2500     24.6731     65.5995     18.2783    104.8826
  1026.5000     23.7517     65.5844     17.5802    107.7775
  1026.7500     22.8627     65.5278     16.9484    110.3762
  1027.0000     22.0758     65.4390     16.4117    114.9223
  1027.2500     21.4226     65.3313     15.9851    117.8566
  1027.5000     20.8918     65.2174     15.6747    121.3731
  1027.7500     20.4481     65.1053     15.4811    123.2308
  1028.0000     20.0422     64.9963     15.4004    125.8497
  1028.2500     19.6335     64.8856     15.4198    127.3394
  1028.5000     19.2507     64.7657     15.5163    127.9261
  1028.7500     19.0176     64.6311     15.6590    126.5364
  1029.0000     19.0515     64.4824     15.8160    121.6287
  1029.2500     19.3736     64.3308     15.9623    116.7744
  1029.5000     19.9881     64.1968     16.0839    107.5750
  1029.7500     20.9437     64.1031     16.1771    100.4721
  1030.0000     22.2269     64.0662     16.2451     89.6630
  1030.2500     23.6405     64.0937     16.2941     83.6412
  1030.5000     24.8257     64.1895     16.3291     78.6920
  1030.7500     25.4384     64.3586     16.3504     78.8570
  1031.0000     25.3788     64.6029     16.3540     83.7560
  1031.2500     24.8653     64.9111     16.3368     88.8273
  1031.5000     24.2099     65.2558     16.3022     96.4148
  1031.7500     23.5494     65.5989     16.2627    100.3568
  1032.0000     22.8804     65.9006     16.2345    104.1353
  1032.2500     22.2477     66.1278     16.2240    105.4651
  1032.5000     21.7417     66.2635     16.2140    106.1798
  1032.7500     21.3783     66.3135     16.1633    106.1847
  1033.0000     21.0904     66.3022     16.0275    106.4650
  1033.2500     20.8024     66.2591     15.7899    107.1577
  1033.5000     20.4582     66.2063     15.4728    108.1479
  1033.7500     20.0039     66.1585     15.1187    107.8527
  1034.0000     19.4123     66.1316     14.7630    105.4334
  1034.2500     18.7557     66.1471     14.4249    103.1598
  1034.5000     18.2224     66.2288     14.1154    100.2805
  1034.7500     17.9746     66.3946     13.8478     99.0510
  1035.0000     17.9683     66.6467     13.6382     97.8129
  1035.2500     17.9975     66.9636     13.4982     97.0952
  1035.5000     17.9238     67.3034     13.4266     96.5033
  1035.7500     17.7770     67.6236     13.4073     97.1870
  1036.0000     17.6645     67.9017     13.4130    101.3068
  1036.2500     17.6460     68.1357     13.4123    106.3621
