~Version Information
VERS.                      2.0: CWLS Log ASCII Standard - VERSION 2.0
WRAP.                       NO: One line per depth step
~Well Information Block
STRT.FT                -2.7500: 
STOP.FT               973.2500: 
STEP.FT                 0.2500: 
NULL.                -999.2500: 
COMP.          Pioneer Natural Resources: COMPANY
WELL.          Red Raider 22-15: WELL
FLD.           Purgatoire River: FIELD
LOC.           1809' FNL & 2107' FWL: LOCATION
CNTY.               Las Animas: COUNTY
SRVC.                Patterson: SERVICE COMPANY
DATE.          Mon Apr 17 16:50:50 2006: LOG DATE
UWI.           05 071 08718 00: UNIQUE WELL ID
STAT.                 Colorado: STATE
~Curve Information Block
DEPT.FT            0 000 00 00: Depth
GR.GAPI                       : Gamma Ray
CCL.                          : Casing Collar Locator
TT3.usec                      : CBL 3' Travel Time
AMP3.mV                       : CBL 3' Amplitude
~Parameter Information Block
~A  Depth        GR         CCL         TT3         AMP3    
# ...
   935.2500     91.5933      0.0000    690.4053      5.4550
   935.5000     99.3134      0.0000    702.0743      5.8756
   935.7500    107.0086      0.0000    717.1497      6.2966
   936.0000    111.7593      0.0000    732.0381      6.6775
   936.2500    111.3727      0.0000    743.7339      6.9802
   936.5000    105.9197      0.0000    750.6454      7.1767
   936.7500     97.7426      0.0000    751.8217      7.2549
   937.0000     89.6346      0.0000    746.2030      7.2227
   937.2500     83.1100      0.0000    733.5984      7.1067
   937.5000     78.3846      0.0000    716.0644      6.9430
   937.7500     75.2972      0.0000    697.5760      6.7645
   938.0000     73.6813      0.0000    682.3286      6.5926
   938.2500     73.2013      0.0000    673.0615      6.4381
   938.5000     73.4433      0.0000    670.0657      6.3082
   938.7500     74.2050      0.0000    671.4760      6.2141
   939.0000     75.4557      0.0000    674.9576      6.1700
   939.2500     77.2293      0.0000    679.3289      6.1836
   939.5000     79.9109      0.0000    684.5333      6.2472
   939.7500     84.3191      0.0000    690.3226      6.3384
   940.0000     90.7383      0.0000    695.5254      6.4308
   940.2500     97.7361      0.0000    698.6245      6.5052
   940.5000    102.5796      0.0000    698.5710      6.5539
   940.7500    103.2755      0.0000    695.1412      6.5781
   941.0000    100.0171      0.0000    689.1277      6.5853
   941.2500     94.5659      0.0000    682.3648      6.5888
   941.5000     88.7103      0.0000    676.9252      6.6038
   941.7500     83.5482      0.0000    673.6525      6.6352
   942.0000     79.6259      0.0000    671.4911      6.6700
   942.2500     77.1093      0.0000    668.7107      6.6855
   942.5000     75.8260      0.0000    665.0502      6.6709
   942.7500     75.3398      0.0000    662.3569      6.6403
   943.0000     75.0565      0.0000    662.7810      6.6229
   943.2500     74.4670      0.0000    666.5264      6.6413
   943.5000     73.5505      0.0000    671.4074      6.7005
   943.7500     72.9363      0.0000    674.3696      6.7927
   944.0000     73.4638      0.0000    673.7246      6.9097
   944.2500     75.3924      0.0000    670.5469      7.0470
   944.5000     77.9881      0.0000    667.9801      7.1999
   944.7500     79.9757      0.0000    668.9542      7.3612
   945.0000     80.5189      0.0000    674.3448      7.5279
   945.2500     79.7642      0.0000    682.7554      7.7051
   945.5000     78.4393      0.0000    691.5934      7.9010
   945.7500     77.0493      0.0000    698.6357      8.1184
   946.0000     75.5301      0.0000    703.0593      8.3533
   946.2500     73.5979      0.0000    705.1992      8.5983
   946.5000     71.3430      0.0000    705.5530      8.8440
   946.7500     69.3863      0.0000    703.8468      9.0791
   947.0000     68.4593      0.0000    698.4779      9.2927
   947.2500     68.9392      0.0000    686.3311      9.4791
   947.5000     70.6972      0.0000    663.5670      9.6407
   947.7500     73.1426      0.0000    628.4339      9.7854
   948.0000     75.4270      0.0000    585.8961      9.9240
   948.2500     76.8528      0.0000    549.9457     10.0659
   948.5000     77.1687      0.0000    537.6459     10.2172
   948.7500     76.4866      0.0000    556.5582     10.3794
   949.0000     75.1051      0.0000    597.5951     10.5478
   949.2500     73.4736      0.0000    641.6594     10.7079
   949.5000     72.1508      0.0000    672.7314     10.8370
   949.7500     71.6279      0.0000    683.7834     10.9180
   950.0000     72.0651      0.0000    673.4977     10.9577
   950.2500     73.0690      0.0000    643.1619     10.9898
   950.5000     73.7958      0.0000    599.5859     11.0538
   950.7500     73.4835      0.0000    557.7473     11.1652
   951.0000     72.0352      0.0000    534.7913     11.3058
   951.2500     70.1583      0.0000    538.8839     11.4381
   951.5000     68.9568      0.0000    565.1544     11.5263
   951.7500     69.2570      0.0000    602.0190     11.5505
   952.0000     71.0568      0.0000    638.9442     11.5136
   952.2500     73.4863      0.0000    669.1409     11.4385
   952.5000     75.3573      0.0000    689.5540     11.3514
   952.7500     75.9372      0.0000    700.7081     11.2675
   953.0000     75.3751      0.0000    705.4979     11.1938
   953.2500     74.4337      0.0000    707.0209     11.1375
   953.5000     73.8355      0.0000    707.2424     11.1100
   953.7500     73.8331      0.0000    706.9984     11.1204
   954.0000     74.2492      0.0000    706.5788     11.1632
   954.2500     74.7658      0.0000    706.1251     11.2138
   954.5000     75.1564      0.0000    705.7794     11.2435
   954.7500     75.2575      0.0000    705.6396     11.2441
   955.0000     74.7610      0.0000    705.7359     11.2347
   955.2500     73.1069      0.0000    706.0341     11.2452
   955.5000     69.7891      0.0000    706.4924     11.2936
   955.7500     65.0488      0.0000    707.1503     11.3801
   956.0000     60.2231      0.0000    708.1693     11.4945
   956.2500     57.0263      0.0000    709.4343     11.6251
   956.5000     56.3450      0.0000    709.5262     11.7618
   956.7500     57.8903      0.0000    704.5919     11.8973
   957.0000     60.8415      0.0000    689.0150     12.0322
   957.2500     64.3754      0.0000    659.0034     12.1736
   957.5000     67.7116      0.0000    616.4167     12.3235
   957.7500     70.3240      0.0000    568.2223     12.4668
   958.0000     72.3597      0.0000    521.5009     12.5674
   958.2500     74.5542      0.0000    479.1417     12.5561
   958.5000     77.5043      0.0000    438.6067     12.3002
   958.7500     80.9707      0.0000    392.3343     11.5927
   959.0000     83.8951      0.0000    331.2464     10.2449
   959.2500     85.1505      0.0000    252.9855      8.2853
   959.5000     84.4560      0.0000    167.9277      6.0734
   959.7500     82.7105      0.0000     93.8582      4.1292
   960.0000     81.4081      0.0000     43.1741      2.7978
   960.2500     81.5221      0.0000     16.0833      2.0874
   960.5000     82.7969      0.0000      4.7991      1.7920
   960.7500     84.1878      0.0000      1.1363      1.6963
   961.0000     84.9667      0.0000      0.2103      1.6721
   961.2500     85.1468      0.0000      0.0280      1.6674
   961.5000     85.0067      0.0000   -999.2500   -999.2500
   961.7500     84.7519      0.0000   -999.2500   -999.2500
   962.0000     84.5704      0.0000   -999.2500   -999.2500
   962.2500     84.4593      0.0000   -999.2500   -999.2500
   962.5000     84.0025      0.0000   -999.2500   -999.2500
   962.7500     82.7470      0.0000   -999.2500   -999.2500
   963.0000     80.8282      0.0000   -999.2500   -999.2500
   963.2500     79.0611      0.0000   -999.2500   -999.2500
   963.5000     78.4187      0.0000   -999.2500   -999.2500
   963.7500     79.2640      0.0000   -999.2500   -999.2500
   964.0000     80.8387      0.0000   -999.2500   -999.2500
   964.2500     81.7074      0.0000   -999.2500   -999.2500
   964.5000     81.0757      0.0000   -999.2500   -999.2500
   964.7500     79.6462      0.0000   -999.2500   -999.2500
   965.0000     79.0079      0.0000   -999.2500   -999.2500
   965.2500     80.1751      0.0000   -999.2500   -999.2500
   965.5000     82.6741      0.0000   -999.2500   -999.2500
   965.7500     84.9098      0.0000   -999.2500   -999.2500
   966.0000     85.3974      0.0000   -999.2500   -999.2500
   966.2500     83.7737      0.0000   -999.2500   -999.2500
   966.5000     80.8783      0.0000   -999.2500   -999.2500
   966.7500     78.0155      0.0000   -999.2500   -999.2500
   967.0000     75.9849   -999.2500   -999.2500   -999.2500
   967.2500     74.6290   -999.2500   -999.2500   -999.2500
   967.5000     73.3521   -999.2500   -999.2500   -999.2500
   967.7500     72.0460   -999.2500   -999.2500   -999.2500
   968.0000     71.2756   -999.2500   -999.2500   -999.2500
   968.2500     71.5819   -999.2500   -999.2500   -999.2500
   968.5000     72.8238   -999.2500   -999.2500   -999.2500
