~Version Information
VERS.                      2.0: CWLS Log ASCII Standard - VERSION 2.0
WRAP.                       NO: One line per depth step
~Well Information Block
STRT.FT               335.0000: 
STOP.FT              1013.5000: 
STEP.FT                 0.1000: 
NULL.                -999.2500: 
COMP.          Pioneer Natural Resources: COMPANY
WELL.             Giggle 21-22: WELL
FLD.           Purgatoire River: FIELD
LOC.           950' FNL & 2094' FWL: LOCATION
CNTY.               Las Animas: COUNTY
SRVC.                Patterson: SERVICE COMPANY
DATE.          Thu Apr 13 09:31:38 2006: LOG DATE
UWI.           05 071 08726 00: UNIQUE WELL ID
STAT.                 Colorado: STATE
~Curve Information Block
DEPT.FT            0 000 00 00: Depth
DCAL.in                       : CDL Caliper
RHOB.g/cc                     : CDL Bulk Density
RHOC.g/cc                     : CDL Density Correction
DPOR.pu                       : CDL Density Porosity
GR.GAPI                       : Gamma Ray
NPOR.pu                       : Neutron Porosity
~Parameter Information Block
~A  Depth       DCAL        RHOB        RHOC        DPOR         GR         NPOR    
# ...
   555.8000      8.1842      2.3944     -0.0496     15.4893    173.9901     22.1528
   555.9000      8.1842      2.3784     -0.0031     16.4633    166.7614     22.3279
   556.0000      8.1765      2.3834      0.0089     16.1572    158.9980     22.4299
   556.1000      8.1765      2.4026      0.0564     14.9910    152.3804     22.4119
   556.2000      8.1765      2.4224      0.0742     13.7964    150.0489     22.3572
   556.3000      8.1743      2.4359      0.0607     12.9733    153.8956     22.3922
   556.4000      8.1743      2.4464      0.0447     12.3402    158.2471     22.4352
   556.5000      8.1761      2.4569      0.0744     11.7023    158.1532     22.3427
   556.6000      8.1761      2.4642      0.0600     11.2591    157.1608     21.9907
   556.7000      8.1761      2.4655      0.0755     11.1822    155.9902     21.4858
   556.8000      8.1762      2.4621      0.0813     11.3862    150.3857     21.0367
   556.9000      8.1762      2.4623      0.0550     11.3771    144.6751     21.0223
   557.0000      8.1769      2.4720      0.1092     10.7894    147.6759     21.6271
   557.1000      8.1769      2.4812      0.1190     10.2319    157.2571     22.2208
   557.2000      8.1769      2.4797      0.0904     10.3208    162.1987     22.2226
   557.3000      8.1762      2.4695      0.0864     10.9403    160.2783     21.9855
   557.4000      8.1762      2.4512      0.1279     12.0477    159.7055     21.8801
   557.5000      8.1759      2.4223      0.1267     13.7992    160.7213     21.8676
   557.6000      8.1759      2.3964      0.0747     15.3716    157.6287     22.1433
   557.7000      8.1759      2.3931      0.0780     15.5684    154.2054     22.8253
   557.8000      8.1768      2.4036      0.1818     14.9335    156.8551     23.5834
   557.9000      8.1768      2.4059      0.1224     14.7927    165.3131     23.9211
   558.0000      8.1751      2.4215      0.0622     13.8494    174.5664     23.6750
   558.1000      8.1751      2.4810      0.2029     10.2424    179.7780     23.2082
   558.2000      8.1751      2.5505      0.2768      6.0281    179.4951     22.9166
   558.3000      8.1744      2.5772      0.2911      4.4123    173.2586     22.6997
   558.4000      8.1744      2.5613      0.2502      5.3729    164.5706     22.4424
   558.5000      8.1752      2.5282      0.2260      7.3845    157.6886     22.6754
   558.6000      8.1752      2.4851      0.1932      9.9924    152.4250     23.5751
   558.7000      8.1752      2.4373      0.1719     12.8897    148.4164     24.4613
   558.8000      8.1770      2.4083      0.1527     14.6514    143.6925     25.0165
   558.9000      8.1770      2.4198      0.1925     13.9533    137.7216     25.5725
   559.0000      8.1747      2.4627      0.1507     11.3492    132.8821     26.1848
   559.1000      8.1747      2.5144      0.1787      8.2182    127.2141     26.5956
   559.2000      8.1747      2.5576      0.2464      5.5974    120.6222     26.7871
   559.3000      8.1731      2.5812      0.2323      4.1725    117.0211     26.5863
   559.4000      8.1731      2.5831      0.2829      4.0519    116.3474     25.7640
   559.5000      8.1738      2.5666      0.2383      5.0563    116.8616     24.3048
   559.6000      8.1738      2.5344      0.2178      7.0059    119.5297     22.5769
   559.7000      8.1738      2.4889      0.1582      9.7662    126.3128     21.2960
   559.8000      8.1721      2.4291      0.0994     13.3874    132.3843     20.6358
   559.9000      8.1721      2.3400      0.1059     18.7886    130.6464     20.0766
   560.0000      8.1751      2.2136      0.0422     26.4470    122.8812     18.9606
   560.1000      8.1751      2.0782      0.0048     34.6552    116.2637     17.4299
   560.2000      8.1751      1.9539      0.0539     42.1867    112.9899     16.0597
   560.3000      8.1914      1.8319      0.0540     49.5797    108.6355     14.9898
   560.4000      8.1914      1.7260     -0.0521     55.9987    103.3073     14.4397
   560.5000      8.1957      1.6795     -0.0633     58.8194    102.7139     14.6542
   560.6000      8.1957      1.7076      0.0550     57.1150    104.9390     15.4367
   560.7000      8.1957      1.7872      0.0991     52.2903    104.5566     16.4644
   560.8000      8.2028      1.9009      0.1913     45.4013    101.2144     17.6783
   560.9000      8.2028      2.0316      0.3135     37.4783     97.1535     19.0970
   561.0000      8.2041      2.1571      0.2574     29.8744     94.8798     20.6331
   561.1000      8.2041      2.2804      0.2702     22.4011     98.1764     21.9218
   561.2000      8.2041      2.4004      0.3571     15.1258    106.8338     22.6956
   561.3000      8.1992      2.4883      0.2525      9.8002    115.7548     23.1051
   561.4000      8.1992      2.5230      0.1847      7.6943    122.2097     23.3039
   561.5000      8.1527      2.5156      0.0212      8.1443    126.9366     23.2315
   561.6000      8.1527      2.5026      0.0113      8.9334    133.5115     22.7578
   561.7000      8.1527      2.5005      0.0762      9.0580    143.7083     22.1138
   561.8000      8.1190      2.4935      0.0694      9.4818    150.2701     21.8818
   561.9000      8.1190      2.4772      0.0447     10.4698    148.0657     22.0970
   562.0000      8.1149      2.4699      0.0649     10.9173    145.1360     22.1558
   562.1000      8.1149      2.4787      0.0646     10.3823    148.3194     22.0021
   562.2000      8.1149      2.4893      0.0921      9.7374    152.7671     21.9695
   562.3000      8.1148      2.4911      0.1158      9.6287    152.9513     22.2801
   562.4000      8.1148      2.4885      0.1180      9.7871    150.7232     22.9713
   562.5000      8.1124      2.4952      0.1205      9.3811    149.7669     23.5627
   562.6000      8.1124      2.5287      0.1666      7.3489    152.2858     23.7132
   562.7000      8.1124      2.5916      0.1986      3.5386    156.2224     23.8166
   562.8000      8.0990      2.6547      0.2727     -0.2832    153.8081     24.2636
   562.9000      8.0990      2.6837      0.2768     -2.0395    144.2595     24.7822
   563.0000      8.0988      2.6822      0.2428     -1.9531    136.3790     25.0540
   563.1000      8.0988      2.6729      0.2082     -1.3886    132.2578     25.3369
   563.2000      8.0988      2.6608      0.1640     -0.6544    126.2752     25.6565
   563.3000      8.0947      2.6423      0.1901      0.4650    121.4716     25.6776
   563.4000      8.0947      2.6307      0.1136      1.1697    126.1407     25.4111
   563.5000      8.0925      2.6440      0.0955      0.3666    135.1378     25.3097
   563.6000      8.0925      2.6546      0.1618     -0.2781    137.5595     25.4102
   563.7000      8.0925      2.6219      0.0506      1.7004    133.3744     25.2536
   563.8000      8.0722      2.5799     -0.0494      4.2514    127.0077     24.8984
   563.9000      8.0722      2.5812      0.0307      4.1699    121.2377     24.5993
   564.0000      8.0643      2.6059      0.0944      2.6730    120.5899     24.2497
   564.1000      8.0643      2.6157      0.0376      2.0786    125.9423     24.1101
   564.2000      8.0643      2.6184      0.0743      1.9141    132.5302     24.4705
   564.3000      8.0738      2.6296      0.1459      1.2360    136.0177     25.0951
   564.4000      8.0738      2.6435      0.0990      0.3953    134.4923     25.5703
   564.5000      8.1009      2.6575      0.0808     -0.4541    129.3676     25.7691
   564.6000      8.1009      2.6707      0.1013     -1.2572    126.0080     25.8635
   564.7000      8.1009      2.6760      0.0705     -1.5754    127.2579     25.8876
   564.8000      8.0996      2.6791      0.0407     -1.7654    127.6122     25.7674
   564.9000      8.0996      2.6770      0.1228     -1.6358    123.0350     25.9046
   565.0000      8.1025      2.6513      0.0985     -0.0768    117.7360     26.2598
   565.1000      8.1025      2.6087      0.0494      2.5054    115.1469     26.1673
   565.2000      8.1025      2.5662      0.0240      5.0761    115.1813     25.4566
   565.3000      8.1023      2.5289     -0.0230      7.3390    117.3259     24.4594
