~Version Information
VERS.                      2.0: CWLS Log ASCII Standard - VERSION 2.0
WRAP.                       NO: One line per depth step
~Well Information Block
STRT.FT               520.0000: 
STOP.FT              2555.2000: 
STEP.FT                 0.1000: 
NULL.                -999.2500: 
COMP.          Pioneer Natural Resources: COMPANY
WELL.          Horsefeathers 24-34: WELL
FLD.           Purgatoire River: FIELD
LOC.           183' FSL & 1570' FWL--: LOCATION
CNTY.               Las Animas: COUNTY
SRVC.                Patterson: SERVICE COMPANY
DATE.          Mon Feb 06 08:03:40 2006: LOG DATE
UWI.           05 071 08675 00: UNIQUE WELL ID
STAT.                 Colorado: STATE
~Curve Information Block
DEPT.FT            0 000 00 00: Depth
DCAL.in                       : CDL Caliper
RHOB.g/cc                     : CDL Bulk Density
RHOC.g/cc                     : CDL Density Correction
DPOR.pu                       : CDL Density Porosity
NPOR.pu                       : Neutron Porosity
GR.GAPI                       : Gamma Ray
~Parameter Information Block
~A  Depth       DCAL        RHOB        RHOC        DPOR        NPOR         GR     
# ...
  1192.0000      8.0411      2.6237     -0.0156      1.5951     23.8351    105.8071
  1192.1000      8.0411      2.6164      0.0660      2.0368     24.0505    103.5334
  1192.2000      8.0411      2.6091     -0.0137      2.4814     24.2926    106.6770
  1192.3000      8.0387      2.5930     -0.0048      3.4554     24.5732    113.8274
  1192.4000      8.0387      2.5672      0.0109      5.0164     24.6163    120.2339
  1192.5000      8.0369      2.5485     -0.0159      6.1512     24.1116    122.4570
  1192.6000      8.0369      2.5507      0.0487      6.0198     22.9922    120.9939
  1192.7000      8.0369      2.5517      0.0620      5.9550     21.9674    117.8180
  1192.8000      8.0361      2.5274      0.0440      7.4325     21.7792    114.4167
  1192.9000      8.0361      2.4801      0.0635     10.2976     22.2545    111.4648
  1193.0000      8.0357      2.4309     -0.0402     13.2771     22.7823    108.4766
  1193.1000      8.0357      2.3932      0.0140     15.5658     23.1118    106.5655
  1193.2000      8.0357      2.3572     -0.0331     17.7475     23.1973    105.7830
  1193.3000      8.0349      2.3223     -0.0288     19.8617     22.8592    106.8032
  1193.4000      8.0349      2.3061     -0.0144     20.8453     22.1266    111.8054
  1193.5000      8.0337      2.3156      0.0058     20.2690     21.5669    117.4327
  1193.6000      8.0337      2.3434     -0.0002     18.5790     21.5648    118.2399
  1193.7000      8.0337      2.3827      0.0932     16.2021     21.6841    116.2953
  1193.8000      8.0320      2.4241      0.1168     13.6916     21.5138    115.8380
  1193.9000      8.0320      2.4562      0.1561     11.7453     21.3478    115.0758
  1194.0000      8.0311      2.4756      0.1591     10.5698     21.5501    111.4291
  1194.1000      8.0311      2.5007      0.1413      9.0501     22.1496    106.0683
  1194.2000      8.0311      2.5586      0.1158      5.5364     23.0318    102.6450
  1194.3000      8.0357      2.6398      0.1884      0.6184     24.1702    102.2199
  1194.4000      8.0357      2.6893      0.1653     -2.3837     25.6165    102.4507
  1194.5000      8.0460      2.6681      0.0845     -1.0999     27.2295    102.5191
  1194.6000      8.0460      2.6011     -0.0327      2.9651     28.2678    103.2178
  1194.7000      8.0460      2.5501     -0.0452      6.0569     27.7638    105.5689
  1194.8000      8.0536      2.5405      0.0016      6.6366     25.9634    111.3118
  1194.9000      8.0536      2.5431      0.0510      6.4762     24.4712    119.1313
  1195.0000      8.0562      2.5286      0.0452      7.3559     24.0789    124.7593
  1195.1000      8.0562      2.5053      0.0478      8.7700     24.0813    127.0623
  1195.2000      8.0562      2.5016      0.0101      8.9946     24.0003    127.4840
  1195.3000      8.0572      2.5277      0.0263      7.4112     24.1380    124.7025
  1195.4000      8.0572      2.5616      0.0573      5.3591     24.4815    119.2972
  1195.5000      8.0566      2.5732      0.0771      4.6573     24.8126    116.1554
  1195.6000      8.0566      2.5652      0.0029      5.1374     25.0681    116.6869
  1195.7000      8.0566      2.5678      0.0310      4.9799     25.0994    118.0033
  1195.8000      8.0557      2.5890      0.0444      3.6967     24.9143    120.2925
  1195.9000      8.0557      2.6074      0.0620      2.5805     24.7754    124.9210
  1196.0000      8.0561      2.6119      0.0744      2.3065     24.7241    126.7226
  1196.1000      8.0561      2.6170      0.0439      2.0029     24.6235    122.2393
  1196.2000      8.0561      2.6279      0.0855      1.3417     24.6596    116.1750
  1196.3000      8.0569      2.6261      0.0857      1.4481     24.9573    111.9466
  1196.4000      8.0569      2.6031      0.0300      2.8430     25.4875    110.7304
  1196.5000      8.0575      2.5633      0.0620      5.2570     26.0232    112.5094
  1196.6000      8.0575      2.5048     -0.0067      8.8002     26.1830    115.4361
  1196.7000      8.0575      2.4347     -0.0356     13.0466     25.8201    118.2399
  1196.8000      8.0573      2.3616     -0.0569     17.4780     25.0160    118.7055
  1196.9000      8.0573      2.2819     -0.0460     22.3099     23.9183    115.6180
  1197.0000      8.0539      2.2036     -0.1020     27.0551     22.7289    110.7397
  1197.1000      8.0539      2.1476     -0.0828     30.4512     21.5187    108.9577
  1197.2000      8.0539      2.1201     -0.1038     32.1149     20.0494    113.0578
  1197.3000      8.0486      2.1152     -0.0485     32.4112     18.1080    118.3167
  1197.4000      8.0486      2.1331     -0.0155     31.3300     16.2666    118.3592
  1197.5000      8.0466      2.1851      0.0461     28.1757     15.1344    114.5601
  1197.6000      8.0466      2.2731      0.1532     22.8436     14.4224    112.6762
  1197.7000      8.0466      2.3685      0.2166     17.0631     13.8564    113.8919
  1197.8000      8.0485      2.4419      0.1839     12.6135     13.7310    116.0000
  1197.9000      8.0485      2.4957      0.1638      9.3542     14.0815    116.2208
  1198.0000      8.0503      2.5428      0.1511      6.4969     14.5209    113.3697
  1198.1000      8.0503      2.5872      0.1136      3.8056     14.9698    110.5077
  1198.2000      8.0503      2.6159      0.1569      2.0644     15.5563    109.1612
  1198.3000      8.0521      2.6111      0.1094      2.3562     16.3878    106.8766
  1198.4000      8.0521      2.5923      0.0305      3.4967     17.4606    104.3489
  1198.5000      8.0549      2.5897      0.0540      3.6524     18.4973    104.1511
  1198.6000      8.0549      2.5988      0.0451      3.1032     19.6558    105.9025
  1198.7000      8.0549      2.6074     -0.0065      2.5840     21.0160    105.8650
  1198.8000      8.0570      2.6134      0.0251      2.2179     22.1160    103.1927
  1198.9000      8.0570      2.6080      0.0258      2.5439     22.9259    100.9872
  1199.0000      8.0586      2.5886      0.0189      3.7184     23.6124     98.3099
  1199.1000      8.0586      2.5720      0.0013      4.7243     24.1671     94.5146
  1199.2000      8.0586      2.5646      0.0442      5.1758     24.6971     93.5498
  1199.3000      8.0573      2.5540      0.0477      5.8182     25.1423     98.2597
  1199.4000      8.0573      2.5406      0.0108      6.6295     25.3854    106.8354
  1199.5000      8.0544      2.5393      0.0375      6.7078     25.3285    114.8801
  1199.6000      8.0544      2.5531      0.0380      5.8711     24.9440    117.1886
  1199.7000      8.0544      2.5746      0.0099      4.5671     24.5515    114.4607
  1199.8000      8.0546      2.5962      0.0456      3.2589     24.3472    116.2867
  1199.9000      8.0546      2.6122      0.0823      2.2921     24.1953    125.6524
  1200.0000      8.0558      2.6243      0.0654      1.5582     24.0303    130.4469
  1200.1000      8.0558      2.6286      0.0637      1.2987     23.8265    125.9829
  1200.2000      8.0558      2.6080      0.0877      2.5452     23.4465    121.5142
  1200.3000      8.0544      2.5576      0.0493      5.6028     22.9167    121.1720
  1200.4000      8.0544      2.4927      0.0123      9.5356     22.4365    123.3787
  1200.5000      8.0498      2.4241      0.0341     13.6902     22.2069    125.9273
  1200.6000      8.0498      2.3597     -0.0346     17.5925     22.2880    124.4864
  1200.7000      8.0498      2.3270     -0.0496     19.5745     22.7576    120.1395
  1200.8000      8.0440      2.3469     -0.0023     18.3694     23.7253    119.0204
  1200.9000      8.0440      2.4161      0.0226     14.1787     24.8087    121.5151
  1201.0000      8.0399      2.5237      0.0791      7.6552     25.4861    121.3404
  1201.1000      8.0399      2.6498      0.1346      0.0135     25.8147    117.2529
  1201.2000      8.0399      2.7566      0.2546     -6.4577     26.2707    114.1293
  1201.3000      8.0422      2.8039      0.2834     -9.3274     27.0833    114.0734
  1201.4000      8.0422      2.7881      0.2475     -8.3689     27.8796    114.1244
  1201.5000      8.0509      2.7375      0.2138     -5.3044     28.1537    111.5697
