~Version Information
VERS.                      2.0: CWLS Log ASCII Standard - VERSION 2.0
WRAP.                       NO: One line per depth step
~Well Information Block
STRT.FT               655.0000: 
STOP.FT              2623.7000: 
STEP.FT                 0.1000: 
NULL.                -999.2500: 
COMP.          Pioneer Natural Resources: COMPANY
WELL.             Aviator 12-4: WELL
FLD.           Purgatoire River: FIELD
LOC.           1969' FNL & 732' FWL--: LOCATION
CNTY.               Las Animas: COUNTY
SRVC.                Patterson: SERVICE COMPANY
DATE.          Mon Apr 10 07:35:20 2006: LOG DATE
UWI.           05 071 08714 00: UNIQUE WELL ID
STAT.                 Colorado: STATE
~Curve Information Block
DEPT.FT            0 000 00 00: Depth
DCAL.in                       : CDL Caliper
RHOB.g/cc                     : CDL Bulk Density
RHOC.g/cc                     : CDL Density Correction
DPOR.pu                       : CDL Density Porosity
NPOR.pu                       : Neutron Porosity
GR.GAPI                       : Gamma Ray
~Parameter Information Block
~A  Depth       DCAL        RHOB        RHOC        DPOR        NPOR         GR     
# ...
  2469.4000      7.9230      2.5920      0.0503      3.5173     22.0733     93.4742
  2469.5000      7.9175      2.5869      0.0491      3.8257     21.8496     85.7373
  2469.6000      7.9175      2.5804      0.0661      4.2161     21.9028     84.1831
  2469.7000      7.9175      2.5696      0.0046      4.8719     21.9868     84.6966
  2469.8000      7.9121      2.5650      0.0621      5.1503     21.8995     84.3206
  2469.9000      7.9121      2.5700      0.0601      4.8479     21.8186     83.6108
  2470.0000      7.9086      2.5775      0.0440      4.3931     21.6804     85.2024
  2470.1000      7.9086      2.5804      0.0738      4.2175     21.5542     90.3378
  2470.2000      7.9086      2.5787      0.0358      4.3200     21.5372     94.7469
  2470.3000      7.9065      2.5766      0.0839      4.4455     21.4726     96.8666
  2470.4000      7.9065      2.5688      0.0693      4.9240     21.3651     99.1525
  2470.5000      7.9055      2.5544      0.0346      5.7952     21.1395    100.9370
  2470.6000      7.9055      2.5409      0.0628      6.6144     20.8076    102.5425
  2470.7000      7.9055      2.5341      0.0397      7.0254     20.7120    106.3842
  2470.8000      7.9067      2.5376      0.0514      6.8133     20.6572    109.8321
  2470.9000      7.9067      2.5432      0.0666      6.4735     20.4071    109.1170
  2471.0000      7.9084      2.5459      0.0169      6.3085     20.3847    105.7723
  2471.1000      7.9084      2.5510      0.0771      5.9988     20.8540    105.5402
  2471.2000      7.9084      2.5498      0.0670      6.0725     21.3649    111.2220
  2471.3000      7.9095      2.5379      0.0280      6.7913     21.4223    114.3079
  2471.4000      7.9095      2.5318      0.0575      7.1627     21.3286    109.8532
  2471.5000      7.9094      2.5373      0.0651      6.8331     21.5311    106.9370
  2471.6000      7.9094      2.5479      0.0149      6.1870     21.7626    107.9615
  2471.7000      7.9094      2.5531      0.1014      5.8751     21.7966    107.3654
  2471.8000      7.9060      2.5428      0.0817      6.4982     21.9004    103.9088
  2471.9000      7.9060      2.5263      0.0678      7.4940     21.9594    100.8642
  2472.0000      7.9026      2.5188      0.0206      7.9544     21.7091    102.5104
  2472.1000      7.9026      2.5222      0.0521      7.7460     21.3509    112.0009
  2472.2000      7.9026      2.5334      0.0530      7.0638     21.1780    123.5893
  2472.3000      7.9012      2.5535      0.0503      5.8481     21.4309    125.6977
  2472.4000      7.9012      2.5798      0.0688      4.2516     22.0410    116.0111
  2472.5000      7.9023      2.6043      0.0886      2.7726     22.2653    104.5969
  2472.6000      7.9023      2.6182      0.1201      1.9300     21.8367    100.9447
  2472.7000      7.9023      2.6094      0.1085      2.4576     21.4306    102.8199
  2472.8000      7.9063      2.5761      0.0893      4.4785     21.4302    104.9349
  2472.9000      7.9063      2.5363      0.0598      6.8909     21.4264    107.4999
  2473.0000      7.9119      2.5131      0.0032      8.2954     20.9596    110.7754
  2473.1000      7.9119      2.5115      0.0790      8.3947     20.4630    108.3851
  2473.2000      7.9119      2.5142      0.0478      8.2317     20.3022     97.0042
  2473.3000      7.9181      2.5124      0.0538      8.3390     20.2496     88.3392
  2473.4000      7.9181      2.5144      0.0278      8.2161     20.2397     93.3741
  2473.5000      7.9178      2.5287      0.0317      7.3521     20.2496    106.2765
  2473.6000      7.9178      2.5499      0.0851      6.0687     20.4798    116.4749
  2473.7000      7.9178      2.5646      0.0719      5.1786     21.1779    120.7712
  2473.8000      7.9118      2.5689      0.0843      4.9158     21.8309    122.7610
  2473.9000      7.9118      2.5666      0.0644      5.0547     21.9088    122.2804
  2474.0000      7.9049      2.5640      0.0761      5.2128     21.5416    114.3632
  2474.1000      7.9049      2.5648      0.0783      5.1614     21.1717    102.6977
  2474.2000      7.9049      2.5606      0.1194      5.4156     21.1458     94.7727
  2474.3000      7.9002      2.5504      0.0733      6.0393     21.3546     90.7980
  2474.4000      7.9002      2.5515      0.0532      5.9703     21.7341     89.4827
  2474.5000      7.8989      2.5592      0.0794      5.5049     22.0300     91.2971
  2474.6000      7.8989      2.5500      0.0824      6.0610     21.6356     89.7769
  2474.7000      7.8989      2.5333      0.0458      7.0703     20.6630     80.6772
  2474.8000      7.8997      2.5322      0.0610      7.1372     19.9412     74.4306
  2474.9000      7.8997      2.5457      0.0856      6.3232     19.7975     78.8498
  2475.0000      7.9020      2.5630      0.0940      5.2745     19.8543     85.3570
  2475.1000      7.9020      2.5830      0.0904      4.0599     19.5759     84.6395
  2475.2000      7.9020      2.6063      0.1288      2.6492     18.9049     77.5184
  2475.3000      7.9033      2.6263      0.1318      1.4335     18.2111     66.7023
  2475.4000      7.9033      2.6408      0.1287      0.5572     17.5740     57.9373
  2475.5000      7.9038      2.6474      0.1040      0.1599     17.0237     57.1742
  2475.6000      7.9038      2.6398      0.0987      0.6189     16.7577     60.0102
  2475.7000      7.9038      2.6194      0.0720      1.8548     16.5479     61.1796
  2475.8000      7.9033      2.6028      0.0907      2.8602     16.1909     62.3285
  2475.9000      7.9033      2.6068      0.0769      2.6185     16.0548     62.2363
  2476.0000      7.8999      2.6197      0.1168      1.8369     16.4909     58.3168
  2476.1000      7.8999      2.6121      0.0917      2.2987     16.9773     53.1040
  2476.2000      7.8999      2.5858      0.0197      3.8920     16.7567     50.1077
  2476.3000      7.8961      2.5587      0.0644      5.5327     16.0061     51.9091
  2476.4000      7.8961      2.5246      0.0395      7.5978     15.5559     59.2889
  2476.5000      7.8967      2.4900     -0.0341      9.6966     15.8018     67.3864
  2476.6000      7.8967      2.4874     -0.0297      9.8571     16.3316     72.2506
  2476.7000      7.8967      2.5256      0.0192      7.5389     16.5563     75.6357
  2476.8000      7.9015      2.5799      0.0062      4.2473     16.1251     75.1085
  2476.9000      7.9015      2.6222      0.1080      1.6872     15.3217     69.3516
  2477.0000      7.9063      2.6375      0.0645      0.7568     14.8906     64.0656
  2477.1000      7.9063      2.6383      0.0479      0.7099     14.9187     60.2518
  2477.2000      7.9063      2.6367      0.0909      0.8074     14.7584     55.8543
  2477.3000      7.9078      2.6228      0.0805      1.6475     14.5591     53.4416
  2477.4000      7.9078      2.5979      0.0660      3.1560     14.8530     57.1788
  2477.5000      7.9031      2.5799      0.0456      4.2457     15.1786     65.0681
  2477.6000      7.9031      2.5766      0.0607      4.4485     15.2088     68.9999
  2477.7000      7.9031      2.5808      0.0812      4.1945     15.2869     66.1431
  2477.8000      7.8996      2.5905      0.0346      3.6031     15.3588     61.9685
  2477.9000      7.8996      2.6019      0.0740      2.9149     15.1930     60.5324
  2478.0000      7.9014      2.5917      0.0845      3.5326     15.0926     62.1342
  2478.1000      7.9014      2.5584      0.0061      5.5533     15.3807     64.4997
  2478.2000      7.9014      2.5407     -0.0075      6.6266     15.7602     64.4504
  2478.3000      7.9019      2.5615      0.0569      5.3641     15.8470     64.3329
  2478.4000      7.9019      2.5962      0.0907      3.2630     15.6867     66.5002
  2478.5000      7.9014      2.6103      0.0941      2.4091     15.8768     67.2000
  2478.6000      7.9014      2.5961      0.0765      3.2645     16.8038     67.3607
  2478.7000      7.9014      2.5716      0.0475      4.7535     17.9908     70.4497
  2478.8000      7.9031      2.5581      0.0333      5.5715     18.6967     72.8140
  2478.9000      7.9031      2.5576      0.0766      5.5988     18.6812     72.3329
