~Version Information
VERS.                      2.0: CWLS Log ASCII Standard - VERSION 2.0
WRAP.                       NO: One line per depth step
~Well Information Block
STRT.FT               555.0000: 
STOP.FT              1158.0000: 
STEP.FT                 0.1000: 
NULL.                -999.2500: 
COMP.          Pioneer Natural Resources: COMPANY
WELL.              Draco 31-21: WELL
FLD.           Purgatoire River: FIELD
LOC.           491' FNL & 2446' FEL: LOCATION
CNTY.               Las Animas: COUNTY
SRVC.                Patterson: SERVICE COMPANY
DATE.          Wed Feb 01 07:01:32 2006: LOG DATE
UWI.           05 071 08672 00: UNIQUE WELL ID
STAT.                 Colorado: STATE
~Curve Information Block
DEPT.FT            0 000 00 00: Depth
DCAL.in                       : CDL Caliper
RHOB.g/cc                     : CDL Bulk Density
RHOC.g/cc                     : CDL Density Correction
DPOR.pu                       : CDL Density Porosity
GR.GAPI                       : Gamma Ray
NPOR.pu                       : Neutron Porosity
~Parameter Information Block
~A  Depth       DCAL        RHOB        RHOC        DPOR         GR         NPOR    
# ...
   785.4000      7.8897      2.5159      0.0479      8.1295     90.6002     28.0681
   785.5000      7.8899      2.5105      0.0023      8.4526     84.5134     28.3783
   785.6000      7.8899      2.5229      0.0382      7.7021     85.5433     27.5570
   785.7000      7.8899      2.5385      0.0393      6.7567     91.4168     26.6519
   785.8000      7.8913      2.5462      0.0250      6.2923     95.1811     26.4888
   785.9000      7.8913      2.5473      0.0364      6.2231     95.6005     26.6886
   786.0000      7.8895      2.5405      0.0518      6.6365     94.9790     26.8245
   786.1000      7.8895      2.5286      0.0429      7.3595     93.7189     27.1291
   786.2000      7.8895      2.5225      0.0109      7.7256     94.0940     27.6108
   786.3000      7.8885      2.5310      0.0215      7.2106     97.2949     27.6721
   786.4000      7.8885      2.5511      0.0375      5.9944     98.9791     27.5007
   786.5000      7.8901      2.5706      0.0700      4.8118    100.6736     27.5957
   786.6000      7.8901      2.5820      0.0689      4.1186    106.3343     27.6128
   786.7000      7.8901      2.5890      0.0574      3.6945    112.3443     27.5959
   786.8000      7.8892      2.5900      0.0878      3.6344    114.6580     27.7923
   786.9000      7.8892      2.5762      0.0579      4.4725    112.1739     27.7742
   787.0000      7.8899      2.5551      0.0215      5.7493    107.0564     27.5082
   787.1000      7.8899      2.5404      0.0403      6.6402    103.2764     27.2862
   787.2000      7.8899      2.5285      0.0635      7.3661     99.9671     27.2841
   787.3000      7.8918      2.5148     -0.0269      8.1940     95.1459     27.4954
   787.4000      7.8918      2.5082      0.0093      8.5948     90.0606     27.3217
   787.5000      7.8911      2.5122      0.0246      8.3524     86.4609     26.6382
   787.6000      7.8911      2.5216      0.0244      7.7823     87.0751     26.2831
   787.7000      7.8911      2.5320      0.0231      7.1532     90.3673     26.7999
   787.8000      7.8886      2.5380      0.0319      6.7908     90.4046     27.3705
   787.9000      7.8886      2.5334      0.0517      7.0671     89.3231     26.9756
   788.0000      7.8894      2.5236      0.0151      7.6597     92.5462     26.0562
   788.1000      7.8894      2.5225      0.0384      7.7282     96.7865     25.8019
   788.2000      7.8894      2.5307      0.0299      7.2317     98.6780     26.3967
   788.3000      7.8910      2.5333      0.0776      7.0703    101.6486     26.7684
   788.4000      7.8910      2.5246      0.0484      7.5995    106.0417     26.5916
   788.5000      7.8924      2.5188      0.0290      7.9523    107.0630     26.7566
   788.6000      7.8924      2.5263      0.0537      7.4990    102.3160     27.3465
   788.7000      7.8924      2.5388      0.0488      6.7422     96.5843     27.4118
   788.8000      7.8904      2.5392      0.0797      6.7179     95.6954     26.9723
   788.9000      7.8904      2.5206      0.0402      7.8405     98.1503     27.1587
   789.0000      7.8902      2.4995      0.0089      9.1228    101.5247     27.8297
   789.1000      7.8902      2.4923      0.0311      9.5603    104.5631     27.9669
   789.2000      7.8902      2.4995      0.0241      9.1212    102.5225     27.4855
   789.3000      7.8898      2.5215      0.0649      7.7875     95.7116     26.5863
   789.4000      7.8898      2.5642      0.0745      5.2020     89.3409     25.4167
   789.5000      7.8868      2.6310      0.1112      1.1534     87.1116     24.8199
   789.6000      7.8868      2.7190      0.1171     -4.1833     89.9307     25.2747
   789.7000      7.8868      2.8234      0.1478    -10.5072     95.7068     26.2692
   789.8000      7.8827      2.9379      0.1897    -17.4483     98.8199     27.0711
   789.9000      7.8827      3.0505      0.2217    -24.2725     94.4889     27.3535
   790.0000      7.8818      3.1413      0.2539    -29.7776     85.9121     27.1838
   790.1000      7.8818      3.1879      0.2605    -32.6011     77.0087     26.8445
   790.2000      7.8818      3.1797      0.2032    -32.1054     67.2213     26.4121
   790.3000      7.8812      3.1163      0.1468    -28.2628     57.8372     25.6035
   790.4000      7.8812      3.0110     -0.0383    -21.8793     50.1936     24.5420
   790.5000      7.8831      2.9043     -0.1091    -15.4120     46.1369     23.8925
   790.6000      7.8831      2.8213     -0.1344    -10.3803     49.5033     23.9865
   790.7000      7.8831      2.7462     -0.1386     -5.8301     59.2975     24.1189
   790.8000      7.8907      2.6648     -0.1164     -0.8990     69.2768     23.5055
   790.9000      7.8907      2.5954     -0.0803      3.3100     74.6953     22.7701
   791.0000      7.8917      2.5601     -0.0021      5.4465     77.5190     23.0598
   791.1000      7.8917      2.5454      0.0393      6.3407     81.8377     24.3509
   791.2000      7.8917      2.5292     -0.0027      7.3188     86.4882     25.4111
   791.3000      7.8920      2.5162      0.0032      8.1076     91.1787     25.4775
   791.4000      7.8920      2.5204     -0.0371      7.8570     97.0027     25.2856
   791.5000      7.8934      2.5404      0.0115      6.6451    100.4247     25.3279
   791.6000      7.8934      2.5596      0.0132      5.4765    100.1132     25.0188
   791.7000      7.8934      2.5678      0.0422      4.9800     98.7557     24.4264
   791.8000      7.8926      2.5660      0.0369      5.0881     98.9894     24.3527
   791.9000      7.8926      2.5596      0.0391      5.4760    101.7147     24.4524
   792.0000      7.8922      2.5557      0.0154      5.7140    104.6770     23.9053
   792.1000      7.8922      2.5560      0.0538      5.6992    105.5302     23.3817
   792.2000      7.8922      2.5535      0.0118      5.8463    105.3145     23.7411
   792.3000      7.8923      2.5469      0.0377      6.2458    104.9663     24.3558
   792.4000      7.8923      2.5444      0.0041      6.4025    104.9603     24.4775
   792.5000      7.8913      2.5566     -0.0022      5.6579    106.0713     24.3999
   792.6000      7.8913      2.5780      0.0553      4.3667    105.0542     24.4678
   792.7000      7.8913      2.5909      0.0592      3.5802     98.3367     24.7182
   792.8000      7.8925      2.5957      0.0509      3.2913     91.2754     25.2408
   792.9000      7.8925      2.5963      0.0911      3.2547     90.2386     25.6550
   793.0000      7.8911      2.5844      0.0738      3.9744     93.3482     25.6189
   793.1000      7.8911      2.5632      0.0267      5.2615     95.3987     25.4390
   793.2000      7.8911      2.5513      0.0215      5.9789     94.6882     25.2547
   793.3000      7.8901      2.5569      0.0448      5.6415     91.8656     24.8752
   793.4000      7.8901      2.5715      0.0397      4.7590     87.6398     24.3202
   793.5000      7.8895      2.5793      0.0812      4.2850     84.7101     23.9314
   793.6000      7.8895      2.5716      0.0505      4.7539     84.7690     23.5818
   793.7000      7.8895      2.5598      0.0263      5.4662     88.6604     22.9886
   793.8000      7.8923      2.5538      0.0316      5.8322     94.4933     22.4416
   793.9000      7.8923      2.5492      0.0401      6.1061     94.8013     22.3330
   794.0000      7.8936      2.5485      0.0059      6.1500     86.0618     22.9273
   794.1000      7.8936      2.5604     -0.0068      5.4312     73.0557     23.6490
   794.2000      7.8936      2.5780      0.0541      4.3620     64.2706     23.5906
   794.3000      7.8939      2.5835      0.0745      4.0299     60.6865     23.0298
   794.4000      7.8939      2.5740      0.0475      4.6058     57.9065     22.5253
   794.5000      7.8945      2.5618      0.0150      5.3428     56.5670     22.0407
   794.6000      7.8945      2.5550      0.0094      5.7580     57.7848     21.5996
   794.7000      7.8945      2.5475      0.0376      6.2106     60.1309     21.7978
   794.8000      7.8929      2.5372      0.0089      6.8351     64.2317     22.4887
   794.9000      7.8929      2.5451      0.0008      6.3601     69.2469     22.6346
