~Version Information
 VERS.                                  2.0 : CWLS LAS VERSION
 WRAP.                                   NO : WRAPING MODE
 SWARE .                 MController 2.5.0J : SOFTWARE VERSION
~Well Information
 WELL.                    Buena Vista 31-03 : WELL
 COMP.    Pioneer Natural Resources USA Inc : COMPANY
 FLD.                      Purgatoire River : FIELD
 LOC.                  NWNE Sec03 T35S R65W : LOCATION
 DATE.                             01/24/06 : DATE(S) LOGGED
 SRVC.       Blanco Geological Services LLC : SERVICE COMPANY
 STAT.                             Colorado : STATE
 CNTY.                           Las Animas : COUNTY
 CTRY.                                  USA : COUNTRY
 API.                          05-071-08663 : API NUMBER
 STRT.FT                             175.00 : START DEPTH
 STOP.FT                            1165.00 : STOP DEPTH
 STEP.FT                               1.00 : DEPTH INCREMENT
 NULL.                                -9999 : NULL VALUE
~Curve information
 DEPTH.FT                                   :
 ROP.MIN/FT                                 :
 GAS.UNITS                                  :
~ASCII Log data
# ...
       775.0         0.33          2.9 
       776.0         3.75         14.8 
       777.0         0.63          5.2 
       778.0         0.33          5.0 
       779.0         0.37          4.0 
       780.0         0.33          3.9 
       781.0         0.35          3.4 
       782.0         0.30          3.7 
       783.0         0.27          3.5 
       784.0         0.27          3.8 
       785.0         0.30          3.7 
       786.0         0.27          3.7 
       787.0         0.30          4.6 
       788.0         0.27          5.3 
       789.0         0.27          5.7 
       790.0         0.27          5.9 
       791.0         0.27          6.3 
       792.0         0.27          5.8 
       793.0         0.28          5.6 
       794.0         0.27          6.0 
       795.0         0.27          5.5 
       796.0         0.30          6.4 
       797.0         0.23         10.4 
       798.0         0.27         10.8 
       799.0         0.23         10.1 
       800.0         0.27         10.2 
       801.0         0.30          7.9 
       802.0         0.30          7.7 
       803.0         0.30          3.2 
       804.0         0.27          1.7 
       805.0         0.25          1.9 
       806.0         2.33         16.6 
       807.0         0.27          8.6 
       808.0         0.27          6.4 
       809.0         0.27          5.7 
       810.0         0.35          5.7 
       811.0         0.30          5.4 
       812.0         0.30          5.3 
       813.0         0.37          4.6 
       814.0         0.37          4.3 
       815.0         0.37          4.1 
       816.0         0.40          3.7 
       817.0         0.40          3.6 
       818.0         0.40          3.5 
       819.0         0.45          3.4 
       820.0         0.53          3.9 
       821.0         0.57          3.4 
       822.0         0.53          3.6 
       823.0         0.50          3.8 
       824.0         0.50          3.9 
       825.0         0.65          3.6 
       826.0         0.77          3.5 
       827.0         0.77          3.9 
       828.0         0.87          3.3 
       829.0         0.33          3.6 
       830.0         0.33          3.6 
       831.0         0.38          3.9 
       832.0         0.37          3.7 
       833.0         0.40          4.7 
       834.0         0.40          6.3 
       835.0         0.37          4.9 
       836.0         3.58         17.7 
       837.0         0.43          6.5 
       838.0         0.47          5.6 
       839.0         0.37          4.1 
       840.0         0.42          3.6 
       841.0         0.47          3.3 
       842.0         0.47          3.0 
       843.0         0.30          2.9 
       844.0         0.33          3.0 
       845.0         0.30          3.1 
       846.0         0.33          3.7 
       847.0         0.33         11.8 
       848.0         0.37         18.9 
       849.0         0.35         20.2 
       850.0         0.27         17.6 
       851.0         0.23         15.8 
       852.0         0.27         14.1 
       853.0         0.30         11.2 
       854.0         0.30         10.8 
       855.0         0.27          8.4 
       856.0         0.27          7.8 
       857.0         0.27          7.6 
       858.0         0.23          7.2 
       859.0         0.30          6.7 
       860.0         0.27          6.8 
       861.0         0.28          7.5 
       862.0         0.33          6.4 
       863.0         0.30          5.8 
       864.0         0.33          2.5 
       865.0         0.33          1.2 
       866.0         3.68         23.9 
       867.0         0.63          5.5 
       868.0         0.47          5.0 
       869.0         0.48          4.3 
       870.0         0.47          4.3 
       871.0         0.37          4.1 
       872.0         0.30          3.7 
       873.0         0.33          4.0 
       874.0         0.33          4.2 
       875.0         0.37          3.8 
       876.0         0.40          3.5 
       877.0         0.37          3.1 
       878.0         0.42          3.2 
       879.0         0.37          3.4 
       880.0         0.43          3.2 
       881.0         0.30          3.2 
       882.0         0.30          3.2 
       883.0         0.30          2.8 
       884.0         0.30          3.2 
       885.0         0.33          2.9 
       886.0         0.30          2.7 
       887.0         0.30          2.6 
       888.0         0.38          2.3 
       889.0         0.40          2.7 
       890.0         0.40          3.2 
       891.0         0.27          4.1 
       892.0         0.23          3.7 
       893.0         0.27          3.0 
       894.0         0.30          2.0 
       895.0         0.57          1.2 
       896.0         3.32         29.6 
       897.0         0.40         10.8 
       898.0         0.52         10.0 
       899.0         0.37          8.5 
       900.0         0.40          8.1 
       901.0         0.37          8.5 
       902.0         0.33          9.2 
       903.0         0.30         13.0 
       904.0         0.33         15.2 
       905.0         0.30         14.8 
       906.0         0.30         12.9 
       907.0         0.33         11.4 
       908.0         0.38          9.6 
       909.0         0.37          9.0 
       910.0         0.43          8.2 
       911.0         0.47          8.3 
       912.0         0.47          7.8 
       913.0         0.63          8.5 
       914.0         0.60          8.0 
       915.0         0.65          8.0 
       916.0         0.63          7.4 
       917.0         0.63          7.3 
       918.0         0.37          6.8 
       919.0         0.40          6.7 
       920.0         0.37          7.1 
       921.0         0.37          6.7 
       922.0         0.35          6.6 
       923.0         0.30          7.1 
       924.0         0.30          6.6 
       925.0         0.33          5.9 
       926.0         3.25         15.0 
       927.0         0.37          9.9 
       928.0         0.33          9.8 
       929.0         0.33         11.1 
       930.0         0.30         10.8 
       931.0         0.23         10.1 
       932.0         0.27          9.8 
       933.0         0.23          8.5 
       934.0         0.27          8.2 
       935.0         0.32          7.9 
       936.0         0.23          7.0 
       937.0         0.27          7.5 
       938.0         0.27          7.4 
       939.0         0.27          6.6 
       940.0         0.27          7.5 
       941.0         0.27          7.5 
       942.0         0.23          7.7 
       943.0         0.20          8.4 
       944.0         0.27          7.8 
       945.0         0.30          7.4 
       946.0         0.27          7.4 
       947.0         0.28          7.3 
       948.0         0.30          7.4 
       949.0         0.27          6.9 
       950.0         0.27          7.3 
       951.0         0.27          7.8 
       952.0         0.30          8.1 
       953.0         0.33          6.8 
       954.0         0.27          6.0 
       955.0         0.30          5.0 
       956.0         3.85         17.1 
       957.0         0.40         10.8 
       958.0         0.38         15.9 
       959.0         0.30         34.5 
       960.0         0.27         45.3 
       961.0         0.17         48.5 
       962.0         0.20         48.5 
       963.0         0.17         44.4 
       964.0         0.20         40.6 
       965.0         0.23         39.2 
       966.0         0.23         32.1 
       967.0         0.23         24.5 
       968.0         0.20         24.2 
       969.0         0.23         18.9 
       970.0         0.23         24.8 
       971.0         0.23         33.1 
       972.0         0.28         48.1 
       973.0         0.20         61.9 
       974.0         0.20         67.7 
