~Version Information
VERS.                      2.0: CWLS Log ASCII Standard - VERSION 2.0
WRAP.                       NO: One line per depth step
~Well Information Block
STRT.FT                 5.0000: 
STOP.FT               880.0000: 
STEP.FT                 0.2500: 
NULL.                -999.2500: 
COMP.          Pioneer Natural Resources: COMPANY
WELL.          Bienville 31-28: WELL
FLD.           Purgatoire River: FIELD
LOC.           1212' FNL & 2271' FEL: LOCATION
PROV.                 Colorado: PROVINCE
CNTY.               Las Animas: COUNTRY
SRVC.                Patterson: SERVICE COMPANY
DATE.          Tue Jan 24 11:44:03 2006: LOG DATE
UWI.           05 071 08666 00: UNIQUE WELL ID
~Curve Information Block
DEPT.FT            0 000 00 00: Depth
GR.GAPI                       : Gamma Ray
CCL.                          : Casing Collar Locator
TT3.usec                      : CBL 3' Travel Time
AMP3.mV                       : CBL 3' Amplitude
~Parameter Information Block
~A  Depth        GR         CCL         TT3         AMP3    
# ...
   842.5000     68.1281      0.0000    754.8535      9.7732
   842.7500     71.7186      0.0000    759.1041     10.5509
   843.0000     74.8808      0.0000    761.8963     11.8998
   843.2500     77.9068      0.0000    760.9838     13.6612
   843.5000     81.4745      0.0000    757.4933     15.3607
   843.7500     85.5214      0.0000    754.2463     16.5531
   844.0000     89.1380      0.0000    752.6891     17.1550
   844.2500     91.3679      0.0000    751.8380     17.3999
   844.5000     91.8014      0.0000    750.1413     17.5556
   844.7500     90.5670      0.0000    747.8535     17.7503
   845.0000     88.0705      0.0000    746.9929     17.9770
   845.2500     84.7843      0.0000    748.9683     18.1641
   845.5000     81.2705      0.0000    752.8777     18.2364
   845.7500     78.2682      0.0000    756.2667     18.1578
   846.0000     76.4028      0.0000    756.8074     17.9513
   846.2500     75.6110      0.0000    752.9882     17.6900
   846.5000     75.0915      0.0000    744.5255     17.4689
   846.7500     74.1211      0.0000    733.5752     17.3671
   847.0000     72.8858      0.0000    725.1021     17.4182
   847.2500     72.3599      0.0000    724.0474     17.6036
   847.5000     73.4777      0.0000    731.1167     17.8662
   847.7500     76.4530      0.0000    742.0709     18.1293
   848.0000     80.6181      0.0000    751.3976     18.3225
   848.2500     84.7695      0.0000    755.8673     18.4121
   848.5000     87.9557      0.0000    754.8628     18.4086
   848.7500     90.1193      0.0000    749.2596     18.3437
   849.0000     91.7490      0.0000    741.1608     18.2469
   849.2500     92.8730      0.0000    733.7787     18.1427
   849.5000     92.8734      0.0000    729.9622     18.0547
   849.7500     91.4552      0.0000    730.3237     18.0050
   850.0000     89.3970      0.0000    733.1315     18.0153
   850.2500     88.0903      0.0000    736.1707     18.1102
   850.5000     88.4042      0.0000    738.6824     18.3105
   850.7500     89.9700      0.0000    741.5677     18.6208
   851.0000     91.4841      0.0000    745.8775     19.0209
   851.2500     91.7635      0.0000    751.3591     19.4652
   851.5000     90.6258      0.0000    756.6144     19.9000
   851.7500     88.7554      0.0000    760.3956     20.2909
   852.0000     86.7993      0.0000    762.4437     20.6371
   852.2500     84.8004      0.0000    763.2474     20.9551
   852.5000     82.5487      0.0000    763.4106     21.2481
   852.7500     80.1525      0.0000    763.3234     21.4890
   853.0000     78.0294      0.0000    763.1779     21.6296
   853.2500     76.6023      0.0000    763.0804     21.6292
   853.5000     76.3364      0.0000    763.0878     21.4830
   853.7500     77.7439      0.0000    763.1844     21.2254
   854.0000     80.7391      0.0000    763.2819     20.9025
   854.2500     84.0630      0.0000    763.2842     20.5408
   854.5000     85.9341      0.0000    763.1599     20.1478
   854.7500     85.4140      0.0000    762.9485     19.7395
   855.0000     82.9612      0.0000    762.7116     19.3554
   855.2500     79.7852      0.0000    762.4944     19.0383
   855.5000     76.9131      0.0000    762.3218     18.8052
   855.7500     74.7932      0.0000    762.1954     18.6442
   856.0000     73.5291      0.0000    762.0907     18.5351
   856.2500     73.2582      0.0000    761.9748     18.4669
   856.5000     74.2123      0.0000    761.8340     18.4367
   856.7500     76.5573      0.0000    761.6833     18.4434
   857.0000     80.2632      0.0000    761.5513     18.4906
   857.2500     84.9543      0.0000    761.4586     18.5884
   857.5000     89.7499      0.0000    761.4037     18.7412
   857.7500     93.3671      0.0000    761.3309     18.9357
   858.0000     94.6296      0.0000    761.0731     19.1503
   858.2500     93.1412      0.0000    760.3020     19.3762
   858.5000     89.5950      0.0000    758.6583     19.6249
   858.7500     85.3100      0.0000    756.2025     19.9165
   859.0000     81.4119      0.0000    753.8433     20.2661
   859.2500     78.5758      0.0000    752.9642     20.6693
   859.5000     77.3589      0.0000    754.2252     21.0957
   859.7500     78.1459      0.0000    756.8704     21.5049
   860.0000     80.4237      0.0000    759.4601     21.8714
   860.2500     82.5432      0.0000    761.0856     22.1827
   860.5000     82.8066      0.0000    761.7294     22.4148
   860.7500     80.9743      0.0000    761.7917     22.5295
   861.0000     78.5622      0.0000    761.6018     22.5056
   861.2500     77.5426      0.0000    761.2939     22.3621
   861.5000     78.5994      0.0000    760.8978     22.1398
   861.7500     80.4988      0.0000    760.4421     21.8644
   862.0000     81.1485      0.0000    760.0079     21.5341
   862.2500     79.3663      0.0000    759.7340     21.1382
   862.5000     75.7615      0.0000    759.8239     20.6815
   862.7500     72.1196      0.0000    760.5718     20.1967
   863.0000     70.0154      0.0000    762.2763     19.7293
   863.2500     69.8181      0.0000    764.8396     19.3097
   863.5000     70.7904      0.0000    767.2872     18.9373
   863.7500     72.0774      0.0000    767.9655     18.5842
   864.0000     73.4962      0.0000    765.6538     18.2060
   864.2500     75.2486      0.0000    760.6022     17.7498
   864.5000     77.1845      0.0000    754.4291     17.1707
   864.7500     78.8782      0.0000    748.3220     16.4382
   865.0000     80.2326      0.0000    739.7242     15.4960
   865.2500     81.3272      0.0000    718.9305     14.1750
   865.5000     81.6544      0.0000    669.6125     12.1620
   865.7500     80.1820      0.0000    577.4966      9.1697
   866.0000     76.4990      0.0000    444.5350      5.2816
   866.2500     71.6135      0.0000    295.3673      1.1292
   866.5000     67.3662      0.0000    164.8381     -2.4145
   866.7500     65.1136      0.0000     75.6771     -4.8011
   867.0000     64.8481      0.0000     28.1495     -6.0621
   867.2500     65.2590      0.0000      8.3894     -6.5832
   867.5000     64.7042      0.0000      1.9845     -6.7514
   867.7500     62.6568      0.0000      0.3668     -6.7937
   868.0000     60.4264      0.0000      0.0488     -6.8020
   868.2500     60.1620      0.0000   -999.2500   -999.2500
   868.5000     62.9153      0.0000   -999.2500   -999.2500
   868.7500     67.6866      0.0000   -999.2500   -999.2500
   869.0000     72.2682      0.0000   -999.2500   -999.2500
   869.2500     74.8980      0.0000   -999.2500   -999.2500
   869.5000     75.2821      0.0000   -999.2500   -999.2500
   869.7500     74.4349      0.0000   -999.2500   -999.2500
   870.0000     73.7264      0.0000   -999.2500   -999.2500
   870.2500     73.8859      0.0000   -999.2500   -999.2500
   870.5000     74.6959      0.0000   -999.2500   -999.2500
   870.7500     75.6769      0.0000   -999.2500   -999.2500
   871.0000     77.0996      0.0000   -999.2500   -999.2500
   871.2500     80.0889      0.0000   -999.2500   -999.2500
   871.5000     85.4765      0.0000   -999.2500   -999.2500
   871.7500     92.5911      0.0000   -999.2500   -999.2500
   872.0000     99.3776      0.0000   -999.2500   -999.2500
   872.2500    103.8380      0.0000   -999.2500   -999.2500
   872.5000    105.4422      0.0000   -999.2500   -999.2500
   872.7500    105.0548      0.0000   -999.2500   -999.2500
   873.0000    103.5525      0.0000   -999.2500   -999.2500
   873.2500    101.1337      0.0000   -999.2500   -999.2500
   873.5000     98.3405      0.0000   -999.2500   -999.2500
   873.7500     96.9514   -999.2500   -999.2500   -999.2500
   874.0000     98.8607   -999.2500   -999.2500   -999.2500
   874.2500    104.0929   -999.2500   -999.2500   -999.2500
   874.5000    110.3212   -999.2500   -999.2500   -999.2500
   874.7500    114.4245   -999.2500   -999.2500   -999.2500
   875.0000    114.6276   -999.2500   -999.2500   -999.2500
   875.2500    111.3577   -999.2500   -999.2500   -999.2500
   875.5000    105.8190   -999.2500   -999.2500   -999.2500
   875.7500     97.6022   -999.2500   -999.2500   -999.2500
