~Version Information
VERS.                      2.0: CWLS Log ASCII Standard - VERSION 2.0
WRAP.                       NO: One line per depth step
~Well Information Block
STRT.FT                -4.2500: 
STOP.FT               745.0000: 
STEP.FT                 0.2500: 
NULL.                -999.2500: 
COMP.          Pioneer Natural Resources: COMPANY
WELL.                Zed 11-23: WELL
FLD.           Purgatoire River: FIELD
LOC.           641' FNL & 952' FWL: LOCATION
CNTY.               Las Animas: COUNTY
SRVC.                         : SERVICE COMPANY
DATE.          Fri Mar 03 16:43:06 2006: LOG DATE
UWI.           05 071 08702 00: UNIQUE WELL ID
STAT.                       CO: STATE
~Curve Information Block
DEPT.FT            0 000 00 00: Depth
GR.GAPI                       : Gamma Ray
CCL.                          : Casing Collar Locator
TT3.usec                      : CBL 3' Travel Time
AMP3.mV                       : CBL 3' Amplitude
~Parameter Information Block
~A  Depth        GR         CCL         TT3         AMP3    
# ...
   330.7500     69.3794      0.0000    798.5678     10.3732
   331.0000     65.3960      0.0000    792.8447     10.3232
   331.2500     62.2202      0.0000    781.7440     10.2939
   331.5000     61.1894      0.0000    764.7538     10.2590
   331.7500     62.6847      0.0000    744.3311     10.1825
   332.0000     65.9611      0.0000    725.3430     10.0470
   332.2500     69.8755      0.0000    712.8005      9.8688
   332.5000     73.7641      0.0000    710.0034      9.6696
   332.7500     77.4925      0.0000    717.8263      9.4457
   333.0000     80.6344      0.0000    733.8036      9.1967
   333.2500     82.0372      0.0000    751.2374      8.9698
   333.5000     80.6212      0.0000    762.0145      8.8293
   333.7500     76.4359     -1.0910    763.9722      8.7871
   334.0000     70.7194     -2.0000    763.5613      8.7968
   334.2500     65.2433      0.0000    765.9006      8.8119
   334.5000     61.6696      0.0000    763.4457      8.8356
   334.7500     61.0586      0.0000    741.1021      8.9281
   335.0000     63.5272      0.0000    693.8019      9.1660
   335.2500     68.2197      0.0000    635.1917      9.5662
   335.5000     73.6593      0.0000    588.6442     10.0439
   335.7500     78.3459      0.0000    571.4963     10.4783
   336.0000     81.2562      0.0000    586.1913     10.8134
   336.2500     82.0417      0.0000    622.4510     11.0675
   336.5000     81.0056      0.0000    665.2853     11.2625
   336.7500     78.9531      0.0000    701.8347     11.3837
   337.0000     76.8126      0.0000    724.9828     11.4040
   337.2500     75.1602      0.0000    734.4503     11.3277
   337.5000     74.0300      0.0000    734.9572     11.2140
   337.7500     73.1021      0.0000    732.2017     11.1578
   338.0000     72.0388      0.0000    729.7214     11.2332
   338.2500     70.7690      0.0000    728.5917     11.4405
   338.5000     69.5602      0.0000    728.5941     11.6975
   338.7500     68.7488      0.0000    728.9111     11.8816
   339.0000     68.3469      0.0000    728.3584     11.9057
   339.2500     67.9619      0.0000    725.9439     11.7788
   339.5000     67.1727      0.0000    721.6232     11.5967
   339.7500     65.9765      0.0000    716.2982     11.4704
   340.0000     64.6921      0.0000    711.2933     11.4648
   340.2500     63.3626      0.0000    707.9631     11.5873
   340.5000     61.5835      0.0000    707.1448     11.7989
   340.7500     59.1802      0.0000    708.5349     12.0324
   341.0000     56.6616      0.0000    711.1085     12.2289
   341.2500     54.5776      0.0000    714.2399     12.3642
   341.5000     52.7232      0.0000    717.8262     12.4374
   341.7500     50.4484      0.0000    721.5113     12.4493
   342.0000     47.5787      0.0000    724.5604     12.4125
   342.2500     44.6692      0.0000    726.5060     12.3696
   342.5000     42.4602      0.0000    727.4427     12.3712
   342.7500     41.2369      0.0000    727.6938     12.4253
   343.0000     40.6636      0.0000    727.4070     12.4781
   343.2500     40.1929      0.0000    726.3885     12.4570
   343.5000     39.6417      0.0000    724.1906     12.3341
   343.7500     39.3593      0.0000    720.4781     12.1518
   344.0000     39.8254      0.0000    715.5123     11.9887
   344.2500     41.0893      0.0000    710.2830     11.9010
   344.5000     42.5981      0.0000    706.1017     11.8874
   344.7500     43.5843      0.0000    703.8934     11.9063
   345.0000     43.6465      0.0000    703.4895     11.9209
   345.2500     43.0094      0.0000    703.4897     11.9315
   345.5000     42.4108      0.0000    702.4392     11.9652
   345.7500     42.9464      0.0000    700.4962     12.0311
   346.0000     45.8016      0.0000    699.2903     12.0933
   346.2500     51.6284      0.0000    699.6982     12.1039
   346.5000     59.8945      0.0000    700.4287     12.0643
   346.7500     68.7043      0.0000    699.4650     12.0260
   347.0000     75.3571      0.0000    696.5531     12.0188
   347.2500     77.7468      0.0000    693.5290     12.0063
   347.5000     75.8969      0.0000    692.1985     11.9371
   347.7500     72.1007      0.0000    692.4221     11.8286
   348.0000     69.2809      0.0000    692.5169     11.7656
   348.2500     69.1151      0.0000    691.2728     11.8127
   348.5000     71.3889      0.0000    689.2791     11.9509
   348.7500     74.6260      0.0000    688.3316     12.1085
   349.0000     77.2894      0.0000    689.8865     12.2243
   349.2500     78.6947      0.0000    694.1341     12.2730
   349.5000     79.0059      0.0000    700.2207     12.2584
   349.7500     78.5876      0.0000    706.9622     12.2065
   350.0000     77.5399      0.0000    713.2105     12.1466
   350.2500     75.7315      0.0000    717.8389     12.0787
   350.5000     73.0692      0.0000    719.9948     11.9715
   350.7500     69.7321      0.0000    719.7418     11.8091
   351.0000     66.1923      0.0000    718.3783     11.6320
   351.2500     62.9861      0.0000    717.7437     11.5144
   351.5000     60.3997      0.0000    718.8635     11.4985
   351.7500     58.3769      0.0000    721.2675     11.5578
   352.0000     56.7488      0.0000    723.7224     11.6282
   352.2500     55.4459      0.0000    725.4069     11.6633
   352.5000     54.4091      0.0000    726.2847     11.6549
   352.7500     53.5247      0.0000    726.6920     11.6130
   353.0000     52.8391      0.0000    726.9094     11.5500
   353.2500     52.5217      0.0000    727.0490     11.4833
   353.5000     52.2732      0.0000    727.1143     11.4327
   353.7500     51.1528      0.0000    727.0665     11.4126
   354.0000     48.5190      0.0000    726.8724     11.4322
   354.2500     44.9353      0.0000    726.5451     11.4916
   354.5000     41.7419      0.0000    726.1608     11.5609
   354.7500     39.8830      0.0000    725.8256     11.5725
   355.0000     39.4354      0.0000    725.6268     11.4609
   355.2500     40.1019      0.0000    725.6043     11.2226
   355.5000     41.7347      0.0000    725.7378     10.9378
   355.7500     44.2300      0.0000    725.9537     10.7282
   356.0000     47.1175      0.0000    726.1665     10.6759
   356.2500     49.5503      0.0000    726.3231     10.7640
   356.5000     50.7853      0.0000    726.4116     10.8939
   356.7500     50.6504      0.0000    726.4453     10.9668
   357.0000     49.5464      0.0000    726.4468     10.9518
   357.2500     48.0604      0.0000    726.3900     10.8779
   357.5000     46.6776      0.0000    726.0977     10.7807
   357.7500     45.8185      0.0000    725.1914     10.6696
   358.0000     45.7756      0.0000    723.2786     10.5409
   358.2500     46.2946      0.0000    720.4478     10.4048
   358.5000     46.3633      0.0000    717.6689     10.2868
   358.7500     44.8847      0.0000    716.3730     10.2046
   359.0000     41.7927      0.0000    717.2612     10.1520
   359.2500     38.3506      0.0000    719.6374     10.1122
   359.5000     36.2797      0.0000    722.1160     10.0811
   359.7500     36.6588      0.0000    723.7876     10.0729
   360.0000     39.4472      0.0000    724.5792     10.1048
   360.2500     43.5678      0.0000    724.8416     10.1826
   360.5000     47.3169      0.0000    724.9088     10.2965
   360.7500     49.1727      0.0000    724.9570     10.4281
   361.0000     48.6900      0.0000    725.0364     10.5645
   361.2500     46.7317      0.0000    725.1292     10.7095
   361.5000     44.8433      0.0000    725.2055     10.8754
   361.7500     44.3124      0.0000    725.2621     11.0583
   362.0000     45.4870      0.0000    725.3359     11.2244
   362.2500     47.6514      0.0000    725.4828     11.3273
   362.5000     49.6133      0.0000    725.7451     11.3445
   362.7500     50.6664      0.0000    726.1336     11.2940
   363.0000     50.9821      0.0000    726.6440     11.2141
   363.2500     51.0659      0.0000    727.3085     11.1330
   363.5000     51.1162      0.0000    728.2708     11.0513
   363.7500     51.0533      0.0000    729.7439     10.9473
   364.0000     50.8692      0.0000    731.6846     10.7966
