~Version Information
VERS.                      2.0: CWLS Log ASCII Standard - VERSION 2.0
WRAP.                       NO: One line per depth step
~Well Information Block
STRT.FT                -8.7500: 
STOP.FT              1727.2500: 
STEP.FT                 0.2500: 
NULL.                -999.2500: 
COMP.          XTO Energy Inc.: COMPANY
WELL.          Apache Canyon 34-08: WELL
FLD.              Vermejo Coal: FIELD
LOC.           1668' FNL & 275' FEL: LOCATION
STAT.                       CO: State
CNTY.               Las Animas: COUNTY
CTRY. USA : Country
SECT. 34 : Section
TOWN. 33S : Township
RANG. 67W : Range
SRVC.          Patterson Wireline: SERVICE COMPANY
DATE.          Mon Jan 09 09:34:21 2006: LOG DATE
API.           05 071 08541 00: UNIQUE WELL ID
~Curve Information Block
DEPT.FT            0 000 00 00: Depth
CCL.                          : Casing Collar Locator
TT3.usec                      : CBL 3' Travel Time
AMP3.mV                       : CBL 3' Amplitude
GR.GAPI                       : Gamma Ray
~Parameter Information Block
~A  Depth       CCL         TT3         AMP3         GR     
# ...
  1364.7500      0.0000    749.8802      4.2433     77.1718
  1365.0000      0.0000    756.6234      4.2355     79.5746
  1365.2500      0.0000    761.3300      4.2209     79.6801
  1365.5000      0.0000    762.0298      4.1978     77.8294
  1365.7500      0.0000    758.3511      4.1757     75.4535
  1366.0000      0.0000    752.2498      4.1735     73.9999
  1366.2500      0.0000    746.9675      4.2024     74.2581
  1366.5000      0.0000    745.1124      4.2503     76.2504
  1366.7500      0.0000    747.0641      4.2931     79.1986
  1367.0000      0.0000    750.7253      4.3181     81.6273
  1367.2500      0.0000    753.5479      4.3278     81.9950
  1367.5000      0.0000    755.5261      4.3257     79.7109
  1367.7500     -2.0000    759.5625      4.3111     75.7593
  1368.0000      0.0000    768.1633      4.2872     72.1659
  1368.2500      0.0000    780.0657      4.2660     70.5105
  1368.5000      0.0000    790.5178      4.2625     70.7906
  1368.7500      0.0000    794.9030      4.2771     71.7635
  1369.0000      0.0000    792.2772      4.2820     72.2421
  1369.2500      0.0000    785.7113      4.2373     71.9294
  1369.5000      0.0000    779.2799      4.1348     71.3401
  1369.7500      0.0000    774.8835      4.0119     71.3336
  1370.0000      0.0000    771.8508      3.9144     72.6003
  1370.2500      0.0000    768.7809      3.8574     75.1656
  1370.5000      0.0000    764.9881      3.8276     78.1606
  1370.7500      0.0000    760.5660      3.8072     80.1923
  1371.0000      0.0000    755.9795      3.7863     80.3257
  1371.2500      0.0000    751.8566      3.7616     79.0280
  1371.5000      0.0000    748.7913      3.7343     78.0218
  1371.7500      0.0000    747.1215      3.7076     78.7548
  1372.0000      0.0000    746.9998      3.6862     80.9125
  1372.2500      0.0000    748.5921      3.6735     82.6447
  1372.5000      0.0000    751.9031      3.6679     82.2184
  1372.7500      0.0000    756.1267      3.6637     79.2753
  1373.0000      0.0000    759.3407      3.6568     74.7440
  1373.2500      0.0000    759.5049      3.6500     69.9737
  1373.5000      0.0000    756.1525      3.6507     65.9584
  1373.7500      0.0000    750.7056      3.6633     63.1397
  1374.0000      0.0000    744.8280      3.6848     61.6856
  1374.2500      0.0000    739.0673      3.7085     61.5400
  1374.5000      0.0000    733.3838      3.7323     62.0767
  1374.7500      0.0000    728.0439      3.7607     62.2621
  1375.0000      0.0000    723.4342      3.7965     61.4999
  1375.2500      0.0000    719.8134      3.8333     59.9878
  1375.5000      0.0000    717.5961      3.8585     58.2005
  1375.7500      0.0000    717.0873      3.8650     56.5112
  1376.0000      0.0000    717.6571      3.8590     55.3149
  1376.2500      0.0000    717.8788      3.8541     54.8943
  1376.5000      0.0000    717.0057      3.8609     54.9698
  1376.7500      0.0000    716.1472      3.8812     54.8260
  1377.0000      0.0000    717.8276      3.9110     54.0708
  1377.2500      0.0000    724.3377      3.9448     53.0325
  1377.5000      0.0000    735.8273      3.9782     52.3955
  1377.7500      0.0000    749.2601      4.0088     52.6075
  1378.0000      0.0000    759.7736      4.0381     53.5687
  1378.2500      0.0000    764.1783      4.0697     54.7736
  1378.5000      0.0000    763.0995      4.1060     55.8062
  1378.7500      0.0000    759.3624      4.1478     56.5381
  1379.0000      0.0000    755.2746      4.1945     56.6777
  1379.2500      0.0000    752.1818      4.2449     55.5631
  1379.5000      0.0000    751.2728      4.2982     52.9053
  1379.7500      0.0000    753.0997      4.3555     49.5111
  1380.0000      0.0000    756.5007      4.4214     46.8283
  1380.2500      0.0000    759.2338      4.4982     45.8616
  1380.5000      0.0000    759.9095      4.5795     46.8196
  1380.7500      0.0000    758.6429      4.6514     49.7140
  1381.0000      0.0000    756.1767      4.7008     54.8572
  1381.2500      0.0000    753.5582      4.7220     62.4122
  1381.5000      0.0000    752.4500      4.7158     71.4840
  1381.7500      0.0000    754.3430      4.6889     80.0564
  1382.0000      0.0000    759.0518      4.6552     86.1404
  1382.2500      0.0000    764.7687      4.6302     88.9808
  1382.5000      0.0000    769.4846      4.6202     89.3247
  1382.7500      0.0000    771.4714      4.6183     88.9512
  1383.0000      0.0000    768.9802      4.6104     89.7655
  1383.2500      0.0000    761.4429      4.5848     92.5610
  1383.5000      0.0000    751.4631      4.5386     96.2305
  1383.7500      0.0000    743.8464      4.4780     98.5692
  1384.0000      0.0000    741.3380      4.4145     98.3389
  1384.2500      0.0000    742.0968      4.3595     96.5316
  1384.5000      0.0000    742.2194      4.3196     95.3488
  1384.7500      0.0000    739.7892      4.2940     95.9240
  1385.0000      0.0000    735.5211      4.2770     97.0913
  1385.2500      0.0000    730.8378      4.2646     96.2605
  1385.5000      0.0000    727.2745      4.2585     91.5273
  1385.7500      0.0000    727.0806      4.2636     83.2945
  1386.0000      0.0000    732.1117      4.2811     74.1455
  1386.2500      0.0000    741.4795      4.3050     67.1151
  1386.5000      0.0000    751.2836      4.3235     63.8513
  1386.7500      0.0000    757.4837      4.3255     64.2409
  1387.0000      0.0000    759.1447      4.3088     67.4808
  1387.2500      0.0000    758.7523      4.2813     72.9290
  1387.5000      0.0000    759.2530      4.2541     79.6333
  1387.7500      0.0000    760.9415      4.2352     85.5485
  1388.0000      0.0000    761.5282      4.2271     87.9728
  1388.2500      0.0000    759.1019      4.2289     85.2657
  1388.5000      0.0000    754.5295      4.2377     78.2008
  1388.7500      0.0000    750.9260      4.2507     69.3985
  1389.0000      0.0000    751.1734      4.2677     61.3462
  1389.2500      0.0000    755.9321      4.2912     55.1069
  1389.5000      0.0000    763.5085      4.3233     50.6649
  1389.7500      0.0000    771.1746      4.3603     47.8116
  1390.0000      0.0000    776.5811      4.3922     46.4875
  1390.2500      0.0000    778.4360      4.4091     46.8077
  1390.5000      0.0000    776.8817      4.4099     49.0267
  1390.7500      0.0000    773.7343      4.4047     53.2237
  1391.0000      0.0000    771.5587      4.4066     58.9047
  1391.2500      0.0000    771.4979      4.4216     65.0454
  1391.5000      0.0000    771.8127      4.4474     70.4831
  1391.7500      0.0000    768.1651      4.4777     74.3478
  1392.0000      0.0000    754.8716      4.5072     76.5406
  1392.2500      0.0000    727.1840      4.5337     78.0119
  1392.5000      0.0000    685.0584      4.5583     80.2000
  1392.7500      0.0000    635.6529      4.5841     83.8650
  1393.0000      0.0000    590.5128      4.6147     88.5285
  1393.2500      0.0000    558.6442      4.6517     92.9278
  1393.5000      0.0000    541.8413      4.6928     95.6587
  1393.7500      0.0000    536.1732      4.7336     95.6740
  1394.0000      0.0000    537.5446      4.7691     93.0399
  1394.2500      0.0000    546.0259      4.7966     89.4346
  1394.5000      0.0000    564.6144      4.8169     87.2983
  1394.7500      0.0000    593.0504      4.8323     88.0821
  1395.0000      0.0000    623.0335      4.8434     91.4371
  1395.2500      0.0000    641.1299      4.8485     96.0612
  1395.5000      0.0000    638.6979      4.8467    100.9074
  1395.7500      0.0000    620.4889      4.8411    105.4534
  1396.0000      0.0000    602.6035      4.8344    109.1751
  1396.2500      0.0000    598.7039      4.8238    111.4267
  1396.5000      0.0000    607.1157      4.8018    112.1273
  1396.7500      0.0000    614.3511      4.7626    112.1363
  1397.0000      0.0000    612.3143      4.7065    112.3852
  1397.2500      0.0000    608.2524      4.6396    112.7418
  1397.5000      0.0000    615.4513      4.5685    112.2477
  1397.7500      0.0000    637.5666      4.4941    110.4729
  1398.0000      0.0000    665.7542      4.4114    108.1020
