~Version Information
VERS.                      2.0: CWLS Log ASCII Standard - VERSION 2.0
WRAP.                       NO: One line per depth step
~Well Information Block
STRT.FT               655.0000: 
STOP.FT              2623.7500: 
STEP.FT                 0.2500: 
NULL.                -999.2500: 
COMP.          Pioneer Natural Resources: COMPANY
WELL.             Aviator 12-4: WELL
FLD.           Purgatoire River: FIELD
LOC.           1969' FNL & 732' FWL--: LOCATION
CNTY.               Las Animas: COUNTY
SRVC.                Patterson: SERVICE COMPANY
DATE.          Sun Apr 09 14:25:03 2006: LOG DATE
UWI.           05 071 08714 00: UNIQUE WELL ID
STAT.                 Colorado: STATE
~Curve Information Block
DEPT.FT            0 000 00 00: Depth
SN.Ohm-m                      : IEL Short Normal
SP.mV                         : IEL Spontaneous Potential
DIR.Ohm-m                     : IEL Induction Resistivity
GR.GAPI                       : Gamma Ray
~Parameter Information Block
~A  Depth        SN          SP         DIR          GR     
# ...
   789.0000   2000.0000   2000.0000     21.4385     82.8435
   789.2500   2000.0000   2000.0000     21.8619     85.6231
   789.5000   2000.0000   2000.0000     22.1315     89.5119
   789.7500   2000.0000   2000.0000     22.2183     91.0778
   790.0000   2000.0000   2000.0000     22.1235     91.5352
   790.2500   2000.0000   2000.0000     21.8757     90.9731
   790.5000   2000.0000   2000.0000     21.5141     89.5907
   790.7500   2000.0000   2000.0000     21.0704     88.3638
   791.0000   2000.0000   2000.0000     18.3660     85.8504
   791.2500   2000.0000   2000.0000     17.9053     83.9522
   791.5000   2000.0000   2000.0000     17.3827     81.9989
   791.7500   2000.0000   2000.0000     16.7902     82.0771
   792.0000   2000.0000   2000.0000     16.1254     84.8958
   792.2500   2000.0000   2000.0000     15.4000     88.4640
   792.5000   2000.0000   2000.0000     14.6449     95.6945
   792.7500   2000.0000   2000.0000     13.9044    101.2125
   793.0000   2000.0000   2000.0000     13.2216    109.2871
   793.2500   2000.0000   2000.0000     12.6243    113.7878
   793.5000   2000.0000   2000.0000     12.1215    118.4718
   793.7500   2000.0000   2000.0000     11.7091    120.2906
   794.0000   2000.0000   2000.0000     11.3299    121.8324
   794.2500   2000.0000   2000.0000     11.0710    122.5753
   794.5000   2000.0000   2000.0000     10.8716    123.6370
   794.7500   2000.0000   2000.0000     10.7220    124.1609
   795.0000   2000.0000   2000.0000     10.6149    124.2179
   795.2500   2000.0000   2000.0000     10.5495    123.7555
   795.5000   2000.0000   2000.0000     10.5321    122.8849
   795.7500   2000.0000   2000.0000     10.5743    122.5825
   796.0000   2000.0000   2000.0000     10.6880    122.7422
   796.2500   2000.0000   2000.0000     10.8817    123.0547
   796.5000   2000.0000   2000.0000     11.1579    123.0827
   796.7500   2000.0000   2000.0000     11.5112    122.1627
   797.0000   2000.0000   2000.0000     11.9272    118.2206
   797.2500   2000.0000   2000.0000     12.3822    113.6154
   797.5000   2000.0000   2000.0000     12.8963    104.6226
   797.7500   2000.0000   2000.0000     13.3411     98.4119
   798.0000   2000.0000   2000.0000     13.7418     91.0376
   798.2500   2000.0000   2000.0000     14.0922     88.4311
   798.5000   2000.0000   2000.0000     14.4003     88.7788
   798.7500   2000.0000   2000.0000     14.6757     91.6779
   799.0000   2000.0000   2000.0000     14.9113     98.7395
   799.2500   2000.0000   2000.0000     15.0735    104.1465
   799.5000   2000.0000   2000.0000     15.1124    111.4291
   799.7500   2000.0000   2000.0000     14.9901    114.9705
   800.0000   2000.0000   2000.0000     14.7077    117.9119
   800.2500   2000.0000   2000.0000     14.3072    118.5475
   800.5000   2000.0000   2000.0000     13.8512    118.2983
   800.7500   2000.0000   2000.0000     13.3980    117.7508
   801.0000   2000.0000   2000.0000     12.9879    117.0353
   801.2500   2000.0000   2000.0000     12.6384    117.0081
   801.5000   2000.0000   2000.0000     12.3439    117.6685
   801.7500   2000.0000   2000.0000     12.0800    117.9453
   802.0000   2000.0000   2000.0000     11.8141    116.6648
   802.2500   2000.0000   2000.0000     11.5217    114.4560
   802.5000   2000.0000   2000.0000     11.1982    110.3565
   802.7500   2000.0000   2000.0000     10.8606    108.1868
   803.0000   2000.0000   2000.0000     10.5356    106.7049
   803.2500   2000.0000   2000.0000     10.2443    106.6146
   803.5000   2000.0000   2000.0000      9.9927    106.7327
   803.7500   2000.0000   2000.0000      9.7729    106.6164
   804.0000   2000.0000   2000.0000      9.5716    106.4146
   804.2500   2000.0000   2000.0000      9.3802    106.6704
   804.5000   2000.0000   2000.0000      9.1993    108.0106
   804.7500   2000.0000   2000.0000      9.0361    109.3542
   805.0000   2000.0000   2000.0000      8.8993    111.2995
   805.2500   2000.0000   2000.0000      8.7940    112.1718
   805.5000   2000.0000   2000.0000      8.7194    112.6075
   805.7500   2000.0000   2000.0000      8.6691    112.3525
   806.0000   2000.0000   2000.0000      8.6345    111.3999
   806.2500   2000.0000   2000.0000      8.6090    110.7640
   806.5000   2000.0000   2000.0000      8.5912    110.9174
   806.7500   2000.0000   2000.0000      8.5853    112.2609
   807.0000   2000.0000   2000.0000      8.5990    115.7902
   807.2500   2000.0000   2000.0000      8.6398    118.3161
   807.5000   2000.0000   2000.0000      8.7131    120.9994
   807.7500   2000.0000   2000.0000      8.8226    121.7027
   808.0000   2000.0000   2000.0000      8.9721    121.1149
   808.2500   2000.0000   2000.0000      9.1672    119.7582
   808.5000   2000.0000   2000.0000      9.4147    116.6398
   808.7500   2000.0000   2000.0000      9.7215    114.1089
   809.0000   2000.0000   2000.0000     10.0924    110.1510
   809.2500   2000.0000   2000.0000     10.5302    107.7101
   809.5000   2000.0000   2000.0000     11.0348    104.5362
   809.7500   2000.0000   2000.0000     11.6030    102.4829
   810.0000   2000.0000   2000.0000     12.2262     98.8080
   810.2500   2000.0000   2000.0000     12.8890     95.8974
   810.5000   2000.0000   2000.0000     13.5707     91.5806
   810.7500   2000.0000   2000.0000     14.2479    111.6335
   811.0000   2000.0000   2000.0000     14.8989    109.0665
   811.2500   2000.0000   2000.0000     15.5058    108.3785
   811.5000   2000.0000   2000.0000     16.0581    108.4602
   811.7500   2000.0000   2000.0000     16.5597    130.7766
   812.0000   2000.0000   2000.0000     17.0358    131.8271
   812.2500   2000.0000   2000.0000     17.5306    132.3112
   812.5000   2000.0000   2000.0000     18.0937    132.9167
   812.7500   2000.0000   2000.0000     18.7590    133.4457
   813.0000   2000.0000   2000.0000     19.5282    133.7514
   813.2500   2000.0000   2000.0000     20.3670    132.6428
   813.5000   2000.0000   2000.0000     21.2229    127.8536
   813.7500     23.9464   2000.0000     22.0625    122.9711
   814.0000     24.0321   2000.0000     22.9076    115.3128
   814.2500     25.0576   2000.0000     23.8387    111.1881
   814.5000     27.7111   2000.0000     24.9577    106.7764
   814.7500     31.7741   2000.0000     26.3349    104.1325
   815.0000     36.2011   2000.0000     27.9710     98.8091
   815.2500     39.8503   2000.0000     29.7924     94.0446
   815.5000     42.2432   2000.0000     31.6833     86.3454
   815.7500     43.6464   -159.8830     33.5364     82.2149
   816.0000     44.6090   -159.6326     35.2839     79.4834
   816.2500     45.5187   -159.4666     36.8791     80.1759
   816.5000     46.4301   -159.3799     38.2504     83.4987
   816.7500     47.1001   -159.3787     39.2681     85.8138
   817.0000     47.1413   -159.4708     39.7523     87.2953
   817.2500     46.2462   -159.6576     39.5210     86.3573
   817.5000     44.3842   -159.9287     38.4675     82.6319
   817.7500     41.8596   -160.2627     36.6401     79.7747
   818.0000     39.1926   -160.6302     34.2677     77.4220
   818.2500     36.8594   -160.9996     31.6889     78.2950
   818.5000     35.0449   -161.3434     29.2269     84.0673
   818.7500     33.6033   -161.6417     27.0947     90.4420
   819.0000     32.2458   -161.8834     25.3733    101.2756
   819.2500     30.7572   -162.0647     24.0428    107.3686
   819.5000     29.0771   -162.1851     23.0311    112.6814
   819.7500     27.2431   -162.2440     22.2567    113.9424
   820.0000     25.3155   -162.2374     21.6586    114.4440
   820.2500     23.3936   -162.1573     21.2055    114.5641
   820.5000     21.6781   -161.9934     20.8888    113.6175
   820.7500     20.4130   -161.7372     20.7075    111.3454
   821.0000     19.7485   -161.3871     20.6545    105.6880
   821.2500     19.6973   -160.9512     20.7103    102.0380
   821.5000     20.1733   -160.4492     20.8418    100.3261
   821.7500     21.0517   -159.9100     21.0034    102.7158
   822.0000     22.1923   -159.3671     21.1383    110.2700
   822.2500     23.3783   -158.8537     21.1837    116.0139
