~Version Information
VERS.                      2.0: CWLS Log ASCII Standard - VERSION 2.0
WRAP.                       NO: One line per depth step
~Well Information Block
STRT.FT               580.0000: 
STOP.FT              1179.0000: 
STEP.FT                 0.1000: 
NULL.                -999.2500: 
COMP.          Pioneer Natural Resources: COMPANY
WELL.          Tin Barn 14-20 TR: WELL
FLD.           Purgatorie River: FIELD
LOC.           925 FSL & 1151 FWL: LOCATION
PROV.                 Colorado: PROVINCE
CNTY.               Las Animas: COUNTRY
SRVC.                Patterson: SERVICE COMPANY
DATE.          Thu Jan 12 12:02:37 2006: LOG DATE
UWI.                          : UNIQUE WELL ID
~Curve Information Block
DEPT.FT            0 000 00 00: Depth
DCAL.in                       : CDL Caliper
RHOB.g/cc                     : CDL Bulk Density
RHOC.g/cc                     : CDL Density Correction
DPOR.pu                       : CDL Density Porosity
GR.GAPI                       : Gamma Ray
~Parameter Information Block
~A  Depth       DCAL        RHOB        RHOC        DPOR         GR     
# ...
  1005.6000      7.9127      2.5277      0.1060      7.4113     63.3071
  1005.7000      7.9127      2.5243      0.0819      7.6163     62.2088
  1005.8000      7.8958      2.5000      0.0533      9.0923     61.9051
  1005.9000      7.8958      2.4799      0.0403     10.3104     62.4445
  1006.0000      7.8883      2.4790      0.0475     10.3624     64.7462
  1006.1000      7.8883      2.4898      0.0602      9.7082     69.4762
  1006.2000      7.8883      2.5012      0.1286      9.0199     75.3932
  1006.3000      7.8344      2.5108      0.0885      8.4382     81.4569
  1006.4000      7.8344      2.5237      0.0959      7.6566     87.8289
  1006.5000      7.8174      2.5356      0.1164      6.9349     93.9216
  1006.6000      7.8174      2.5417      0.0308      6.5627     98.8696
  1006.7000      7.8174      2.5552      0.0530      5.7469    102.0808
  1006.8000      7.8167      2.5772      0.1052      4.4094    104.5577
  1006.9000      7.8167      2.5829      0.1657      4.0679    107.5965
  1007.0000      7.7981      2.5521      0.1587      5.9337    110.4232
  1007.1000      7.7981      2.4865      0.0931      9.9105    113.8267
  1007.2000      7.7981      2.3966      0.0382     15.3586    119.4128
  1007.3000      7.7989      2.2916     -0.0095     21.7237    123.9383
  1007.4000      7.7989      2.1813     -0.0538     28.4045    124.8771
  1007.5000      7.9097      2.0814     -0.0913     34.4620    124.9749
  1007.6000      7.9097      2.0093     -0.0915     38.8312    126.0964
  1007.7000      7.9097      1.9682     -0.0542     41.3193    127.2256
  1007.8000      8.0190      1.9465     -0.0258     42.6385    127.4774
  1007.9000      8.0190      1.9448     -0.0140     42.7402    126.2437
  1008.0000      8.0397      1.9762      0.0336     40.8383    123.9235
  1008.1000      8.0397      2.0438      0.0595     36.7391    120.5292
  1008.2000      8.0397      2.1422      0.1840     30.7737    115.4968
  1008.3000      8.0462      2.2634      0.2155     23.4331    112.3719
  1008.4000      8.0462      2.3842      0.2906     16.1108    115.3460
  1008.5000      7.9331      2.4649      0.2761     11.2195    122.1568
  1008.6000      7.9331      2.4824      0.2377     10.1598    128.0951
  1008.7000      7.9331      2.4565      0.1095     11.7299    131.3836
  1008.8000      7.8223      2.4328      0.0620     13.1664    131.6896
  1008.9000      7.8223      2.4311      0.1134     13.2668    130.1815
  1009.0000      7.8215      2.4385      0.0883     12.8194    130.2259
  1009.1000      7.8215      2.4507      0.0856     12.0817    134.5368
  1009.2000      7.8215      2.4747      0.1419     10.6252    142.8444
  1009.3000      7.8600      2.5079      0.1492      8.6138    150.1481
  1009.4000      7.8600      2.5392      0.2178      6.7173    151.5770
  1009.5000      7.9601      2.5610      0.2001      5.3935    148.7673
  1009.6000      7.9601      2.5728      0.2313      4.6768    147.2723
  1009.7000      7.9601      2.5745      0.2487      4.5786    149.4606
  1009.8000      7.9582      2.5698      0.2206      4.8589    152.9595
  1009.9000      7.9582      2.5695      0.1635      4.8786    153.3624
  1010.0000      7.9659      2.5801      0.1424      4.2350    149.2995
  1010.1000      7.9659      2.5967      0.1641      3.2273    146.7572
  1010.2000      7.9659      2.6070      0.1869      2.6054    149.4733
  1010.3000      7.9111      2.6057      0.1014      2.6878    152.0270
  1010.4000      7.9111      2.6015      0.1253      2.9386    150.9391
  1010.5000      7.8373      2.6032      0.1181      2.8350    148.4075
  1010.6000      7.8373      2.6150      0.0964      2.1205    147.1071
  1010.7000      7.8373      2.6274      0.1764      1.3685    147.9918
  1010.8000      7.8562      2.6228      0.1281      1.6496    150.1640
  1010.9000      7.8562      2.6057      0.0628      2.6875    151.0079
  1011.0000      7.9111      2.5934      0.0336      3.4312    148.5158
  1011.1000      7.9111      2.5875      0.0747      3.7890    144.9421
  1011.2000      7.9111      2.5838      0.0257      4.0119    144.5110
  1011.3000      7.9360      2.5844      0.0236      3.9769    145.8714
  1011.4000      7.9360      2.5811      0.0468      4.1736    144.8484
  1011.5000      7.9393      2.5657      0.0124      5.1073    144.7785
  1011.6000      7.9393      2.5454     -0.0106      6.3368    149.0768
  1011.7000      7.9393      2.5283      0.0078      7.3733    153.4535
  1011.8000      7.9183      2.5136     -0.0058      8.2688    155.3987
  1011.9000      7.9183      2.4956     -0.0077      9.3595    156.6334
  1012.0000      7.9331      2.4696     -0.0266     10.9325    157.6565
  1012.1000      7.9331      2.4447     -0.0516     12.4430    158.6694
  1012.2000      7.9331      2.4357     -0.0717     12.9904    160.3128
  1012.3000      7.9504      2.4402      0.0257     12.7152    160.3323
  1012.4000      7.9504      2.4477     -0.0134     12.2622    157.8367
  1012.5000      7.9828      2.4582      0.0098     11.6237    156.0357
  1012.6000      7.9828      2.4766      0.0678     10.5096    156.3101
  1012.7000      7.9828      2.5176      0.0304      8.0230    156.7442
  1012.8000      7.9534      2.5979      0.1487      3.1558    156.1299
  1012.9000      7.9534      2.6980      0.2005     -2.9118    157.0094
  1013.0000      7.9151      2.7770      0.2828     -7.6963    159.4382
  1013.1000      7.9151      2.8201      0.2568    -10.3083    159.0649
  1013.2000      7.9151      2.8405      0.2534    -11.5426    155.9013
  1013.3000      7.8319      2.8360      0.2827    -11.2699    154.4094
  1013.4000      7.8319      2.7973      0.1769     -8.9268    154.7560
  1013.5000      7.8478      2.7411      0.0730     -5.5192    154.3267
  1013.6000      7.8478      2.6817      0.0727     -1.9220    154.6449
  1013.7000      7.8478      2.6250     -0.0555      1.5157    157.6037
  1013.8000      7.8600      2.5835      0.0347      4.0296    158.1726
  1013.9000      7.8600      2.5599     -0.0035      5.4616    153.8481
  1014.0000      7.9068      2.5440      0.0968      6.4245    151.1421
  1014.1000      7.9068      2.5217      0.0850      7.7756    153.9302
  1014.2000      7.9068      2.4928      0.0731      9.5292    160.0908
  1014.3000      7.9506      2.4721      0.0315     10.7812    165.2711
  1014.4000      7.9506      2.4753      0.0032     10.5863    165.5496
  1014.5000      7.9055      2.5011      0.0660      9.0222    163.3013
  1014.6000      7.9055      2.5317      0.0465      7.1678    163.5403
  1014.7000      7.9055      2.5611      0.0342      5.3904    166.3065
  1014.8000      7.8667      2.5905      0.1165      3.6060    167.7777
  1014.9000      7.8667      2.6044      0.1331      2.7664    166.2866
  1015.0000      7.9262      2.5982      0.0486      3.1421    164.1854
  1015.1000      7.9262      2.5936      0.0740      3.4158    162.5706
  1015.2000      7.9262      2.5975      0.1154      3.1798    161.4766
  1015.3000      7.9397      2.5947      0.0541      3.3533    159.9700
  1015.4000      7.9397      2.5795      0.0263      4.2724    155.4766
  1015.5000      7.9220      2.5599      0.0093      5.4622    148.7607
  1015.6000      7.9220      2.5437     -0.0337      6.4421    143.8160
  1015.7000      7.9220      2.5410     -0.0299      6.6052    143.6151
  1015.8000      7.9097      2.5546      0.0074      5.7798    146.9103
  1015.9000      7.9097      2.5715     -0.0055      4.7552    149.4900
  1016.0000      7.8933      2.5774      0.0313      4.3980    150.3918
  1016.1000      7.8933      2.5738      0.0219      4.6163    149.9362
  1016.2000      7.8933      2.5815     -0.0196      4.1539    147.1982
  1016.3000      7.8740      2.6066      0.0783      2.6322    143.2535
  1016.4000      7.8740      2.6309      0.0674      1.1572    139.0722
  1016.5000      7.8961      2.6505      0.0700     -0.0313    135.1709
  1016.6000      7.8961      2.6701      0.0971     -1.2162    134.3524
  1016.7000      7.8961      2.6801      0.0674     -1.8223    136.7804
