~Version Information
VERS.                      2.0: CWLS Log ASCII Standard - VERSION 2.0
WRAP.                       NO: One line per depth step
~Well Information Block
STRT.FT                -1.5000: 
STOP.FT              2898.5000: 
STEP.FT                 0.2500: 
NULL.                -999.2500: 
COMP.          Pioneer Natural Resources: COMPANY
WELL.          Hanginstone 21-27: WELL
FLD.           Purgatoire River: FIELD
LOC.           1186' FNL & 1606' FWL--: LOCATION
PROV.                 Colorado: PROVINCE
CNTY.               Las Animas: COUNTRY
SRVC.                Patterson: SERVICE COMPANY
DATE.          Mon Jan 23 11:03:53 2006: LOG DATE
UWI.           05 071 08632 00: UNIQUE WELL ID
~Curve Information Block
DEPT.FT            0 000 00 00: Depth
CCL.                          : Casing Collar Locator
TT3.usec                      : CBL 3' Travel Time
AMP3.mV                       : CBL 3' Amplitude
GR.GAPI                       : Gamma Ray
~Parameter Information Block
~A  Depth       CCL         TT3         AMP3         GR     
# ...
   769.0000      0.0000    260.5349     68.4174     92.6344
   769.2500      0.0000    260.5200     68.6765     93.7684
   769.5000      0.0000    260.4939     68.9145     93.1752
   769.7500      0.0000    260.4647     69.1156     90.7445
   770.0000      0.0000    260.4484     69.2477     87.2276
   770.2500      0.0000    260.4557     69.2898     83.9106
   770.5000      0.0000    260.4814     69.2557     82.3791
   770.7500      0.0000    260.5081     69.1825     83.8028
   771.0000      0.0000    260.5211     69.1010     87.5680
   771.2500      0.0000    260.5184     69.0223     91.0449
   771.5000      0.0000    260.5092     68.9397     91.8444
   771.7500      0.0000    260.5011     68.8331     90.3340
   772.0000      0.0000    260.4934     68.6723     89.1054
   772.2500      0.0000    260.4796     68.4299     89.8614
   772.5000      0.0000    260.4567     68.1022     91.4815
   772.7500      0.0000    260.4312     67.7206     91.4417
   773.0000      0.0000    260.4176     67.3327     88.7243
   773.2500      0.0000    260.4283     66.9748     84.8778
   773.5000      0.0000    260.4621     66.6644     82.3697
   773.7500      0.0000    260.5050     66.4171     82.5443
   774.0000      0.0000    260.5409     66.2566     85.1401
   774.2500      0.0000    260.5619     66.2017     88.9300
   774.5000      0.0000    260.5679     66.2426     92.4393
   774.7500      0.0000    260.5641     66.3339     94.5241
   775.0000      0.0000    260.5597     66.4124     94.6457
   775.2500      0.0000    260.5655     66.4257     92.6847
   775.5000      0.0000    260.5844     66.3524     88.8669
   775.7500      0.0000    260.6077     66.2023     84.0175
   776.0000      0.0000    260.6223     65.9977     79.4241
   776.2500      0.0000    260.6235     65.7496     76.0715
   776.5000      0.0000    260.6200     65.4502     74.0488
   776.7500      0.0000    260.6254     65.0963     72.6092
   777.0000      0.0000    260.6459     64.7255     70.7576
   777.2500      0.0000    260.6757     64.4165     68.0680
   777.5000      0.0000    260.7043     64.2343     65.1204
   777.7500      0.0000    260.7274     64.1743     62.9567
   778.0000      0.0000    260.7488     64.1676     62.0916
   778.2500      0.0000    260.7739     64.1331     62.4524
   778.5000      0.0000    260.8025     64.0287     64.2665
   778.7500      0.0000    260.8315     63.8747     68.4144
   779.0000      0.0000    260.8602     63.7368     75.4845
   779.2500      0.0000    260.8918     63.6706     84.7002
   779.5000      0.0000    260.9298     63.6746     93.9390
   779.7500      0.0000    260.9741     63.7022    100.6526
   780.0000      0.0000    261.0192     63.7140    103.0001
   780.2500      0.0000    261.0560     63.7070    100.8691
   780.5000      0.0000    261.0786     63.6966     96.1521
   780.7500      0.0000    261.0913     63.6848     91.5401
   781.0000      0.0000    261.1022     63.6550     88.4955
   781.2500      0.0000    261.1118     63.5951     86.4520
   781.5000      0.0000    261.1136     63.5186     84.0622
   781.7500      0.0000    261.1074     63.4558     81.0248
   782.0000      0.0000    261.1047     63.4273     78.6349
   782.2500      0.0000    261.1197     63.4310     78.5372
   782.5000      0.0000    261.1544     63.4513     80.9826
   782.7500      0.0000    261.1960     63.4745     84.6520
   783.0000      0.0000    261.2272     63.4947     88.2874
   783.2500      0.0000    261.2387     63.5113     92.0115
   783.5000      0.0000    261.2360     63.5266     96.6356
   783.7500      0.0000    261.2328     63.5411    102.1105
   784.0000      0.0000    261.2393     63.5500    107.2862
   784.2500      0.0000    261.2542     63.5419    110.9414
   784.5000      0.0000    261.2675     63.5070    112.3971
   784.7500      0.0000    261.2694     63.4478    111.3261
   785.0000      0.0000    261.2594     63.3815    107.7722
   785.2500      0.0000    261.2483     63.3309    102.6925
   785.5000      0.0000    261.2505     63.3099     97.9238
   785.7500      0.0000    261.2701     63.3098     95.0197
   786.0000      0.0000    261.2960     63.2960     94.1160
   786.2500      0.0000    261.3102     63.2287     94.2980
   786.5000      0.0000    261.3034     63.1004     95.0726
   786.7500      0.0000    261.2822     62.9535     96.9760
   787.0000      0.0000    261.2616     62.8475    100.4362
   787.2500      0.0000    261.2503     62.8006    104.4389
   787.5000      0.0000    261.2440     62.7718    106.8886
   787.7500      0.0000    261.2326     62.7133    106.5574
   788.0000      0.0000    261.2114     62.6312    104.6480
   788.2500      0.0000    261.1855     62.5746    104.1278
   788.5000      0.0000    261.1653     62.5621    107.1904
   788.7500      0.0000    261.1579     62.5401    113.2605
   789.0000      0.0000    261.1579     62.4275    119.4257
   789.2500      0.0000    261.1480     62.2001    122.5905
   789.5000      0.0000    261.1139     61.9272    121.3530
   789.7500      0.0000    261.0581     61.7276    116.4072
   790.0000      0.0000    260.9962     61.6865    109.4008
   790.2500      0.0000    260.9430     61.8034    101.4861
   790.5000      0.0000    260.9033     62.0111     93.2128
   790.7500      0.0000    260.8733     62.2384     85.5210
   791.0000      0.0000    260.8471     62.4480     79.8990
   791.2500      0.0000    260.8226     62.6237     77.2278
   791.5000      0.0000    260.8033     62.7497     76.8386
   791.7500      0.0000    260.7928     62.8203     77.0048
   792.0000      0.0000    260.7892     62.8631     76.3813
   792.2500      0.0000    260.7877     62.9334     74.9491
   792.5000      0.0000    260.7849     63.0745     73.5628
   792.7500      0.0000    260.7798     63.2864     72.7343
   793.0000      0.0000    260.7701     63.5321     72.1153
   793.2500      0.0000    260.7524     63.7724     71.0786
   793.5000      0.0000    260.7262     63.9883     69.4940
   793.7500      0.0000    260.6960     64.1773     67.9116
   794.0000      0.0000    260.6688     64.3431     67.1449
   794.2500      0.0000    260.6512     64.4914     67.6399
   794.5000      0.0000    260.6471     64.6249     69.1061
   794.7500      0.0000    260.6548     64.7378     70.8007
   795.0000      0.0000    260.6681     64.8183     72.2058
   795.2500      0.0000    260.6779     64.8546     73.3169
   795.5000      0.0000    260.6783     64.8362     74.1584
   795.7500      0.0000    260.6728     64.7610     74.4622
   796.0000      0.0000    260.6753     64.6576     74.3439
   796.2500      0.0000    260.6980     64.5939     74.9230
   796.5000      0.0000    260.7377     64.6343     77.4722
   796.7500      0.0000    260.7737     64.7795     81.8713
   797.0000      0.0000    260.7831     64.9704     86.4152
   797.2500      0.0000    260.7575     65.1547     89.3685
   797.5000      0.0000    260.7072     65.3195     90.4330
   797.7500      0.0000    260.6501     65.4576     90.6275
   798.0000      0.0000    260.6024     65.5417     91.1219
   798.2500      0.0000    260.5744     65.5503     92.2619
   798.5000      0.0000    260.5698     65.5023     93.2183
   798.7500      0.0000    260.5827     65.4561     92.3386
   799.0000      0.0000    260.5998     65.4772     88.3115
   799.2500      0.0000    260.6086     65.5922     81.6151
   799.5000      0.0000    260.6041     65.7617     74.7860
   799.7500      0.0000    260.5890     65.9097     70.7507
   800.0000      0.0000    260.5693     65.9935     70.5710
   800.2500      0.0000    260.5532     66.0403     72.9263
   800.5000      0.0000    260.5474     66.1126     75.9200
   800.7500      0.0000    260.5529     66.2409     79.1687
   801.0000      0.0000    260.5635     66.3846     83.8194
   801.2500      0.0000    260.5721     66.4371     90.6036
   801.5000      0.0000    260.5877     66.2340     98.1501
   801.7500      0.0000    260.6645     65.5422    103.3440
   802.0000      0.0000    260.9522     64.0761    103.5056
   802.2500      0.0000    261.7356     61.6186     98.3008
