~Version Information
VERS.                      2.0: CWLS Log ASCII Standard - VERSION 2.0
WRAP.                       NO: One line per depth step
~Well Information Block
STRT.FT               -14.0000: 
STOP.FT               951.0000: 
STEP.FT                 0.2500: 
NULL.                -999.2500: 
COMP.          Pioneer Natural Resources: COMPANY
WELL.             Giggle 21-22: WELL
FLD.           Purgatoire River: FIELD
LOC.           950' FNL & 2094' FWL: LOCATION
CNTY.               Las Animas: COUNTY
SRVC.                         : SERVICE COMPANY
DATE.          Mon Apr 17 17:51:33 2006: LOG DATE
UWI.           05 071 08726 00: UNIQUE WELL ID
STAT.                       CO: STATE
~Curve Information Block
DEPT.FT            0 000 00 00: Depth
CCL.                          : Casing Collar Locator
TT3.usec                      : CBL 3' Travel Time
AMP3.mV                       : CBL 3' Amplitude
GR.GAPI                       : Gamma Ray
~Parameter Information Block
~A  Depth       CCL         TT3         AMP3         GR     
# ...
   120.0000      0.0000    700.2200      7.1347     65.0265
   120.2500      0.0000    713.1396      7.0789     63.7670
   120.5000      0.0000    724.8127      7.0105     64.5098
   120.7500      0.0000    731.8867      7.0099     66.8607
   121.0000      0.0000    733.5676      7.1143     69.8387
   121.2500      0.0000    728.9266      7.3090     72.3793
   121.5000      0.0000    715.5045      7.5534     73.7641
   121.7500      0.0000    691.8495      7.7995     73.8512
   122.0000      0.0000    662.0504      7.9962     73.3903
   122.2500      0.0000    635.6582      8.1019     73.9480
   122.5000      0.0000    619.7839      8.1085     76.7718
   122.7500      0.0000    612.3278      8.0495     81.4576
   123.0000      0.0000    607.4384      7.9738     86.1585
   123.2500      0.0000    606.3568      7.9038     89.1556
   123.5000      0.0000    616.3030      7.8222     89.8766
   123.7500      0.0000    637.6719      7.7030     88.6726
   124.0000      0.0000    658.1737      7.5521     86.3889
   124.2500      0.0000    662.5576      7.4065     84.1883
   124.5000      0.0000    646.3045      7.2963     83.1628
   124.7500      0.0000    619.5955      7.2197     83.7594
   125.0000      0.0000    599.8858      7.1597     85.6667
   125.2500      0.0000    600.3807      7.1143     88.2525
   125.5000      0.0000    622.5579      7.0998     90.8806
   125.7500      0.0000    656.8157      7.1333     92.8053
   126.0000      0.0000    689.8732      7.2160     93.2411
   126.2500      0.0000    712.7253      7.3218     91.9202
   126.5000      0.0000    723.0330      7.3961     89.3633
   126.7500      0.0000    721.7623      7.3813     86.2580
   127.0000      0.0000    709.6931      7.2619     82.8639
   127.2500      0.0000    688.3865      7.0796     79.3886
   127.5000      0.0000    663.1854      6.9010     76.5982
   127.7500      0.0000    642.1241      6.7770     75.5048
   128.0000      0.0000    630.8791      6.7248     76.4913
   128.2500      0.0000    630.9927      6.7337     78.9740
   128.5000      0.0000    642.4631      6.7843     81.8425
   128.7500      0.0000    663.7112      6.8641     84.0655
   129.0000      0.0000    689.0170      6.9625     85.0792
   129.2500      0.0000    710.5788      7.0557     84.8830
   129.5000      0.0000    724.0880      7.1080     83.9069
   129.7500      0.0000    730.4642      7.0924     82.7695
   130.0000      0.0000    732.9357      7.0086     81.9522
   130.2500      0.0000    734.1191      6.8816     81.4138
   130.5000      0.0000    735.3896      6.7455     80.6164
   130.7500      0.0000    737.3705      6.6240     79.2958
   131.0000      0.0000    740.3004      6.5160     78.1360
   131.2500      0.0000    744.1464      6.4006     78.2464
   131.5000      0.0000    748.7972      6.2637     79.9420
   131.7500      0.0000    754.2708      6.1259     82.3247
   132.0000      0.0000    760.3065      6.0332     84.2251
   132.2500      0.0000    765.8000      6.0120     85.4492
   132.5000      0.0000    769.2864      6.0387     86.7936
   132.7500      0.0000    770.0753      6.0635     88.6495
   133.0000      0.0000    768.4737      6.0547     89.9422
   133.2500      0.0000    765.0624      6.0141     88.9830
   133.5000      0.0000    760.2791      5.9579     85.4960
   133.7500      0.0000    754.5620      5.8942     81.4197
   134.0000      0.0000    748.4572      5.8208     79.2914
   134.2500      0.0000    742.6147      5.7363     79.8349
   134.5000      0.0000    737.6219      5.6501     81.4510
   134.7500      0.0000    733.4894      5.5777     82.0525
   135.0000      0.0000    729.0156      5.5283     80.9894
   135.2500      0.0000    722.2679      5.4980     79.1280
   135.5000      0.0000    713.0057      5.4758     77.5927
   135.7500      0.0000    705.0629      5.4523     76.8022
   136.0000      0.0000    704.5646      5.4219     76.5952
   136.2500      0.0000    714.2673      5.3842     76.9631
   136.5000      0.0000    731.0138      5.3509     78.3916
   136.7500      0.0000    749.5902      5.3489     81.2842
   137.0000      0.0000    766.9045      5.4072     85.0305
   137.2500      0.0000    781.6926      5.5368     87.9571
   137.5000      0.0000    792.8530      5.7227     88.5776
   137.7500      0.0000    799.5635      5.9291     86.8290
   138.0000      0.0000    801.8895      6.1110     83.8380
   138.2500      0.0000    800.6234      6.2304     80.7711
   138.5000      0.0000    797.0255      6.2741     78.3501
   138.7500      0.0000    792.7291      6.2561     77.1117
   139.0000      0.0000    789.1537      6.2081     77.3520
   139.2500      0.0000    786.8141      6.1676     78.6739
   139.5000      0.0000    785.3483      6.1644     79.9527
   139.7500      0.0000    784.0273      6.2075     79.8680
   140.0000      0.0000    782.2203      6.2856     77.6043
   140.2500      0.0000    779.8303      6.3752     73.5472
   140.5000      0.0000    777.3586      6.4404     69.5380
   140.7500      0.0000    775.2368      6.4355     67.9495
   141.0000      0.0000    773.6065      6.3355     70.0241
   141.2500      0.0000    773.2255      6.1685     75.1387
   141.5000      0.0000    775.5174      6.0021     81.4571
   141.7500      0.0000    780.7419      5.8926     86.9061
   142.0000      0.0000    787.1929      5.8519     89.8664
   142.2500      0.0000    793.1815      5.8605     89.6355
   142.5000      0.0000    798.7205      5.8949     86.4769
   142.7500      0.0000    804.5353      5.9396     81.2221
   143.0000      0.0000    810.2692      5.9840     74.8960
   143.2500      0.0000    813.8492      6.0188     68.5464
   143.5000      0.0000    811.6164      6.0346     63.0166
   143.7500      0.0000    799.6584      6.0254     58.6235
   144.0000      0.0000    777.0582      6.0002     55.1864
   144.2500      0.0000    747.6260      5.9870     52.5919
   144.5000      0.0000    716.0245      6.0098     51.2219
   144.7500      0.0000    681.9998      6.0624     51.4828
   145.0000      0.0000    641.7017      6.1156     52.9851
   145.2500      0.0000    595.9726      6.1503     54.6942
   145.5000      0.0000    553.9009      6.1713     56.0121
   145.7500      0.0000    526.6809      6.1891     57.2758
   146.0000      0.0000    520.3254      6.2029     59.0284
   146.2500      0.0000    534.0682      6.2055     61.1804
   146.5000      0.0000    561.8939      6.1986     63.1226
   146.7500      0.0000    594.6400      6.1967     64.3948
   147.0000      0.0000    623.0528      6.2158     64.9952
   147.2500      0.0000    640.3953      6.2566     65.1493
   147.5000      0.0000    644.2025      6.2967     65.0520
   147.7500      0.0000    639.1146      6.3018     64.8852
   148.0000      0.0000    637.1505      6.2494     64.8970
   148.2500      0.0000    649.4512      6.1413     65.2938
   148.5000      0.0000    675.7297      5.9982     66.1733
   148.7500      0.0000    704.9110      5.8422     67.6492
   149.0000      0.0000    726.7130      5.6734     69.8415
   149.2500      0.0000    739.6182      5.4630     72.6711
   149.5000      0.0000    747.6503      5.1815     75.7914
   149.7500      0.0000    753.8240      4.8503     78.6618
   150.0000      0.0000    758.9222      4.5647     80.6379
   150.2500      0.0000    764.4442      4.4429     81.2234
   150.5000      0.0000    773.7891      4.5212     80.4329
   150.7500      0.0000    789.8919      4.7054     78.8399
   151.0000      0.0000    812.3192      4.8510     77.2909
   151.2500      0.0000    837.0993      4.8860     76.5062
   151.5000      0.0000    859.2875      4.8338     76.6162
   151.7500      0.0000    875.5367      4.7484     76.9118
   152.0000      5.0000    884.4026      4.6692     76.4267
   152.2500      3.2291    884.4675      4.6270     74.9956
   152.5000      0.0000    873.0774      4.6636     73.4755
   152.7500      0.0000    848.8787      4.8304     72.7297
   153.0000      0.0000    816.4397      5.1556     72.6840
   153.2500      0.0000    785.8414      5.5897     72.6603
