~Version Information
VERS.                      2.0: CWLS Log ASCII Standard - VERSION 2.0
WRAP.                       NO: One line per depth step
~Well Information Block
STRT.FT                -7.0000: 
STOP.FT              1239.2500: 
STEP.FT                 0.2500: 
NULL.                -999.2500: 
COMP.          Pioneer Natural Resources: COMPANY
WELL.              Julie 11-30: WELL
FLD.           Purgatorie River: FIELD
LOC.           672' FNL & 1052' FWL--: LOCATION
CNTY.               Las Animas: COUNTY
SRVC.          Patterson Wireline: SERVICE COMPANY
DATE.          Tue Apr 18 11:12:35 2006: LOG DATE
UWI.           05 071 08724 00: UNIQUE WELL ID
STAT.                       CO: STATE
~Curve Information Block
DEPT.FT            0 000 00 00: Depth
CCL.                          : Casing Collar Locator
TT3.usec                      : CBL 3' Travel Time
AMP3.mV                       : CBL 3' Amplitude
GR.GAPI                       : Gamma Ray
~Parameter Information Block
~A  Depth       CCL         TT3         AMP3         GR     
# ...
   964.5000      0.0000    299.9743     27.1948     69.5867
   964.7500      0.0000    302.5573     25.4774     66.4946
   965.0000      0.0000    307.3103     23.4660     63.8465
   965.2500      0.0000    314.3784     21.3447     63.0244
   965.5000      0.0000    323.3925     19.2144     64.3719
   965.7500      0.0000    335.0995     17.1047     66.9493
   966.0000      0.0000    354.0585     15.0372     69.1544
   966.2500      0.0000    389.4402     13.0668     69.8011
   966.5000      0.0000    450.3846     11.2704     68.8044
   966.7500      0.0000    536.5604      9.7121     67.1031
   967.0000      0.0000    632.2012      8.4208     65.9357
   967.2500      0.0000    712.6652      7.3911     65.9031
   967.5000      0.0000    760.1493      6.5973     66.8209
   967.7500      0.0000    773.7949      6.0136     68.5368
   968.0000      0.0000    765.6957      5.6331     71.4414
   968.2500      0.0000    749.5527      5.4705     75.9820
   968.5000      0.0000    732.7767      5.5455     82.1167
   968.7500      0.0000    715.7944      5.8624     89.3209
   969.0000      0.0000    696.0504      6.4053     96.5587
   969.2500      0.0000    671.5406      7.1480    102.1429
   969.5000      0.0000    640.1038      8.0631    104.3791
   969.7500      0.0000    597.4648      9.1197    102.9018
   970.0000      0.0000    540.8680     10.2676     99.1425
   970.2500      0.0000    476.0515     11.4310     95.2142
   970.5000      0.0000    416.6266     12.5285     92.3302
   970.7500      0.0000    374.1387     13.5095     90.2450
   971.0000      0.0000    350.5362     14.3616     88.1161
   971.2500      0.0000    340.2904     15.0753     85.8266
   971.5000      0.0000    336.7806     15.6080     84.4709
   971.7500      0.0000    335.8329     15.8971     85.6218
   972.0000      0.0000    335.6391     15.9121     90.0767
   972.2500      0.0000    335.6086     15.6928     97.0170
   972.5000      0.0000    335.5861     15.3380    104.2119
   972.7500      0.0000    335.5436     14.9544    109.3333
   973.0000      0.0000    335.4998     14.6034    111.4972
   973.2500      0.0000    335.4716     14.2886    111.5784
   973.5000      0.0000    335.4601     13.9916    110.8950
   973.7500      0.0000    335.4507     13.7189    109.8129
   974.0000      0.0000    335.4240     13.5100    107.8052
   974.2500      0.0000    335.3696     13.3971    104.4712
   974.5000      0.0000    335.2944     13.3624    100.1572
   974.7500      0.0000    335.2229     13.3406     95.8734
   975.0000      0.0000    335.1861     13.2692     92.6974
   975.2500      0.0000    335.2052     13.1368     90.9869
   975.5000      0.0000    335.2848     12.9873     90.2061
   975.7500      0.0000    335.4240     12.8781     89.6296
   976.0000      0.0000    335.6614     12.8351     89.0312
   976.2500      0.0000    336.1438     12.8370     88.6838
   976.5000      0.0000    337.4557     12.8418     89.0182
   976.7500      0.0000    341.4956     12.8237     90.1511
   977.0000      0.0000    352.8566     12.7858     91.5089
   977.2500      0.0000    379.0884     12.7386     92.3406
   977.5000      0.0000    426.7005     12.6799     92.6720
   977.7500      0.0000    492.9560     12.6033     93.0931
   978.0000      0.0000    560.6388     12.5185     93.6825
   978.2500      0.0000    604.0639     12.4512     93.9152
   978.5000      0.0000    604.1867     12.4251     93.5171
   978.7500      0.0000    561.0021     12.4475     92.6249
   979.0000      0.0000    493.5364     12.5107     91.1516
   979.2500      0.0000    427.4554     12.6008     88.7747
   979.5000      0.0000    379.9876     12.7039     85.7803
   979.7500      0.0000    353.9157     12.8059     83.3549
   980.0000      0.0000    342.7603     12.8932     82.8827
   980.2500      0.0000    338.9507     12.9599     85.1021
   980.5000      0.0000    337.8420     13.0126     89.5225
   980.7500      0.0000    337.4982     13.0592     94.2926
   981.0000      0.0000    337.3312     13.0905     97.2645
   981.2500      0.0000    337.2218     13.0782     97.7470
   981.5000      0.0000    337.1841     12.9938     96.8854
   981.7500      0.0000    337.3231     12.8245     96.0476
   982.0000      0.0000    337.9005     12.5740     95.3533
   982.2500      0.0000    339.5255     12.2501     94.1053
   982.5000      0.0000    343.5338     11.8553     92.1834
   982.7500      0.0000    352.3854     11.3890     90.5109
   983.0000      0.0000    369.9023     10.8562     90.0785
   983.2500      0.0000    400.3630     10.2773     90.6578
   983.5000      0.0000    444.8709      9.6866     90.8568
   983.7500      0.0000    496.1468      9.1174     89.6143
   984.0000      0.0000    538.4865      8.5820     87.4433
   984.2500      0.0000    557.9416      8.0706     85.9500
   984.5000      0.0000    554.8590      7.5701     86.2195
   984.7500      0.0000    544.2772      7.0809     87.8644
   985.0000      0.0000    542.4129      6.6150     89.5851
   985.2500      0.0000    553.6053      6.1851     90.3649
   985.5000      0.0000    570.1985      5.7990     90.0268
   985.7500      0.0000    582.1884      5.4630     88.9218
   986.0000      0.0000    585.1217      5.1856     87.3677
   986.2500      0.0000    581.1416      4.9732     85.4038
   986.5000      0.0000    576.4675      4.8209     83.0510
   986.7500      0.0000    578.4838      4.7127     80.8203
   987.0000      0.0000    592.1475      4.6342     79.7591
   987.2500      0.0000    615.4806      4.5824     80.6486
   987.5000      0.0000    637.6792      4.5609     83.0151
   987.7500      0.0000    644.1396      4.5661     85.0941
   988.0000      0.0000    626.6651      4.5832     85.0997
   988.2500      0.0000    590.0385      4.5957     82.6026
   988.5000      0.0000    548.5230      4.5953     78.5926
   988.7500      0.0000    516.2878      4.5831     74.3773
   989.0000      0.0000    501.1364      4.5625     70.8081
   989.2500      0.0000    504.8858      4.5346     68.4009
   989.5000      0.0000    525.1778      4.4984     67.5463
   989.7500      0.0000    554.4484      4.4577     68.4440
   990.0000      0.0000    580.0725      4.4287     71.2221
   990.2500      0.0000    590.9794      4.4393     76.0894
   990.5000      0.0000    585.9232      4.5153     82.9059
   990.7500      0.0000    573.4653      4.6634     90.4715
   991.0000      0.0000    564.1074      4.8663     96.5431
   991.2500      0.0000    564.5729      5.0893     99.0589
   991.5000      0.0000    578.2927      5.2904     97.8724
   991.7500      0.0000    606.7392      5.4318     95.2471
   992.0000      0.0000    647.7377      5.4925     94.0133
   992.2500      0.0000    693.9354      5.4770     94.9549
   992.5000      0.0000    735.3984      5.4104     96.2829
   992.7500      0.0000    764.6423      5.3284     95.5179
   993.0000      0.0000    779.5530      5.2702     91.4150
   993.2500      0.0000    782.5588      5.2723     84.3093
   993.5000      0.0000    777.7546      5.3576     75.5351
   993.7500      0.0000    768.3533      5.5225     66.8996
   994.0000      0.0000    756.1588      5.7394     60.0751
   994.2500      0.0000    742.9691      5.9793     55.7797
   994.5000      0.0000    731.5121      6.2369     53.6798
   994.7500      0.0000    724.4564      6.5344     53.3094
   995.0000      0.0000    722.6313      6.8996     54.8319
   995.2500      0.0000    723.9106      7.3326     58.7588
   995.5000      0.0000    722.8623      7.7861     65.1502
   995.7500      0.0000    712.2420      8.1771     73.1402
   996.0000      0.0000    687.5381      8.4175     81.1561
   996.2500      0.0000    651.2503      8.4462     87.6105
   996.5000      0.0000    610.8713      8.2647     91.4830
   996.7500      0.0000    571.9857      7.9648     92.4702
   997.0000      0.0000    536.7562      7.6903     90.8589
   997.2500      0.0000    510.7702      7.5312     87.2607
   997.5000      0.0000    505.9274      7.4474     82.3250
   997.7500      0.0000    530.7701      7.3059     76.7265
