~Version Information
VERS.                      2.0: CWLS Log ASCII Standard - VERSION 2.0
WRAP.                       NO: One line per depth step
~Well Information Block
STRT.FT               380.0000: 
STOP.FT              1887.5000: 
STEP.FT                 0.1000: 
NULL.                -999.2500: 
COMP.          Pioneer Natural Resources: COMPANY
WELL.          Cortina 23-25 Tr: WELL
FLD.           Purgatoire River: FIELD
LOC.           2521' FSL & 2345' FWL: LOCATION
STAT.                 Colorado: State
CNTY.               Las Animas: COUNTY
CTRY. USA : Country
SECT. 25 : Section
TOWN. 32S : Township
RANG. 67W : Range
SRVC.                Patterson: SERVICE COMPANY
DATE.          Mon Sep 26 06:09:01 2005: LOG DATE
API.           05 071 08534 00: UNIQUE WELL ID
~Curve Information Block
DEPT.FT            0 000 00 00: Depth
DCAL.in                       : CDL Caliper
RHOB.g/cc                     : CDL Bulk Density
RHOC.g/cc                     : CDL Density Correction
DPOR.pu                       : CDL Density Porosity
GR.GAPI                       : Gamma Ray
NPOR.pu                       : Neutron Porosity
~Parameter Information Block
~A  Depth       DCAL        RHOB        RHOC        DPOR         GR         NPOR    
# ...
  1877.6000      8.0768      2.4937      0.0594      9.4708   -999.2500   -999.2500
  1877.7000      8.0837      2.5425      0.1750      6.5129   -999.2500   -999.2500
  1877.8000      8.0899      2.5868      0.2526      3.8298   -999.2500   -999.2500
  1877.9000      8.0951      2.5974      0.2870      3.1859   -999.2500   -999.2500
  1878.0000      8.0994      2.5682      0.2500      4.9582   -999.2500   -999.2500
  1878.1000      8.1025      2.5230      0.1159      7.6952   -999.2500   -999.2500
  1878.2000      8.1047      2.4963      0.0947      9.3164   -999.2500   -999.2500
  1878.3000      8.1061      2.4928      0.1476      9.5257   -999.2500   -999.2500
  1878.4000      8.1068      2.5021      0.0749      8.9647   -999.2500   -999.2500
  1878.5000      8.1067      2.5300      0.1658      7.2752   -999.2500   -999.2500
  1878.6000      8.1059      2.5690      0.2147      4.9067   -999.2500   -999.2500
  1878.7000      8.1041      2.5969      0.1953      3.2202   -999.2500   -999.2500
  1878.8000      8.1010      2.6093      0.2094      2.4694   -999.2500   -999.2500
  1878.9000      8.0966      2.6081      0.2042      2.5371   -999.2500   -999.2500
  1879.0000      8.0906      2.5952      0.1703      3.3182   -999.2500   -999.2500
  1879.1000      8.0829      2.5815      0.1586      4.1497   -999.2500   -999.2500
  1879.2000      8.0738      2.5749      0.1520      4.5521   -999.2500   -999.2500
  1879.3000      8.0634      2.5757      0.1372      4.5027   -999.2500   -999.2500
  1879.4000      8.0521      2.5758      0.1795      4.4976   -999.2500   -999.2500
  1879.5000      8.0402      2.5703      0.0923      4.8283   -999.2500   -999.2500
  1879.6000      8.0280      2.5748      0.0801      4.5570   -999.2500   -999.2500
  1879.7000      8.0157      2.5985      0.0678      3.1229   -999.2500   -999.2500
  1879.8000      8.0036      2.6274      0.0976      1.3677   -999.2500   -999.2500
  1879.9000      7.9917      2.6451      0.1108      0.2942   -999.2500   -999.2500
  1880.0000      7.9802      2.6478      0.0910      0.1362   -999.2500   -999.2500
  1880.1000      7.9692      2.6372      0.1112      0.7735   -999.2500   -999.2500
  1880.2000      7.9587      2.6148      0.0669      2.1333   -999.2500   -999.2500
  1880.3000      7.9489      2.5929      0.0438      3.4592   -999.2500   -999.2500
  1880.4000      7.9401      2.5842      0.0330      3.9902   -999.2500   -999.2500
  1880.5000      7.9325      2.5774      0.0734      4.4018   -999.2500   -999.2500
  1880.6000      7.9263      2.5607     -0.0061      5.4119   -999.2500   -999.2500
  1880.7000      7.9218      2.5415      0.0543      6.5780   -999.2500   -999.2500
  1880.8000      7.9190      2.5259     -0.0012      7.5193   -999.2500   -999.2500
  1880.9000      7.9179      2.5208      0.0233      7.8317   -999.2500   -999.2500
  1881.0000      7.9185      2.5286      0.0066      7.3580   -999.2500   -999.2500
  1881.1000      7.9206      2.5411      0.0512      6.6011   -999.2500   -999.2500
  1881.2000      7.9239      2.5512      0.0474      5.9901   -999.2500   -999.2500
  1881.3000      7.9280      2.5586      0.0489      5.5420   -999.2500   -999.2500
  1881.4000      7.9328      2.5601      0.0615      5.4498   -999.2500   -999.2500
  1881.5000      7.9379      2.5502      0.0949      6.0473   -999.2500   -999.2500
  1881.6000      7.9432      2.5383      0.0381      6.7710   -999.2500   -999.2500
  1881.7000      7.9483      2.5424      0.0279      6.5241   -999.2500   -999.2500
  1881.8000      7.9533      2.5572      0.0944      5.6269   -999.2500   -999.2500
  1881.9000      7.9578      2.5622      0.0663      5.3196   -999.2500   -999.2500
  1882.0000      7.9619      2.5626      0.0752      5.2971   -999.2500   -999.2500
  1882.1000      7.9654      2.5721      0.0870      4.7198   -999.2500   -999.2500
  1882.2000      7.9683      2.5829      0.1041      4.0660   -999.2500   -999.2500
  1882.3000      7.9706      2.5836      0.0860      4.0263   -999.2500   -999.2500
  1882.4000      7.9723      2.5775      0.0689      4.3935   -999.2500   -999.2500
  1882.5000      7.9735      2.5755      0.0820      4.5143   -999.2500   -999.2500
  1882.6000      7.9744      2.5797      0.0924      4.2600   -999.2500   -999.2500
  1882.7000      7.9750      2.5791      0.0965      4.2944   -999.2500   -999.2500
  1882.8000      7.9756      2.5680      0.0853      4.9677   -999.2500   -999.2500
  1882.9000      7.9765      2.5565      0.0677      5.6674   -999.2500   -999.2500
  1883.0000      7.9779      2.5565      0.0396      5.6660   -999.2500   -999.2500
  1883.1000      7.9801      2.5673      0.1055      5.0094   -999.2500   -999.2500
  1883.2000      7.9834      2.5792      0.0813      4.2916   -999.2500   -999.2500
  1883.3000      7.9879      2.5843      0.1072      3.9839   -999.2500   -999.2500
  1883.4000      7.9937      2.5877      0.0320      3.7737   -999.2500   -999.2500
  1883.5000      8.0008      2.6044      0.0621      2.7650   -999.2500   -999.2500
  1883.6000      8.0088      2.6263      0.1227      1.4373   -999.2500   -999.2500
  1883.7000      8.0171      2.6261      0.1324      1.4459   -999.2500   -999.2500
  1883.8000      8.0246      2.6262      0.0422      1.4447   -999.2500   -999.2500
  1883.9000      8.0300      2.7004      0.0339     -3.0568   -999.2500   -999.2500
  1884.0000      8.0314      2.7384      0.1067     -5.3558   -999.2500   -999.2500
  1884.1000      8.0269      2.2946      0.5349     21.5382   -999.2500   -999.2500
  1884.2000      8.0140      1.3021      0.0000     81.6908   -999.2500   -999.2500
  1884.3000      7.9904      0.4410      0.0000    133.8784   -999.2500   -999.2500
  1884.4000      7.9537      0.0837   -999.2500    155.5355   -999.2500   -999.2500
  1884.5000      7.9014      0.0086   -999.2500    160.0837   -999.2500   -999.2500
  1884.6000      7.8311      0.0005   -999.2500    160.5777   -999.2500   -999.2500
  1884.7000      7.7408      0.0000   -999.2500    160.6061   -999.2500   -999.2500
  1884.8000      7.6285      0.0000   -999.2500    160.6061   -999.2500   -999.2500
  1884.9000      7.4925   -999.2500   -999.2500   -999.2500   -999.2500   -999.2500
  1885.0000      7.3312   -999.2500   -999.2500   -999.2500   -999.2500   -999.2500
  1885.1000      7.1432   -999.2500   -999.2500   -999.2500   -999.2500   -999.2500
  1885.2000      6.9275   -999.2500   -999.2500   -999.2500   -999.2500   -999.2500
  1885.3000      6.6829   -999.2500   -999.2500   -999.2500   -999.2500   -999.2500
  1885.4000      6.4089   -999.2500   -999.2500   -999.2500   -999.2500   -999.2500
  1885.5000      6.1048   -999.2500   -999.2500   -999.2500   -999.2500   -999.2500
  1885.6000      5.7711   -999.2500   -999.2500   -999.2500   -999.2500   -999.2500
  1885.7000      7.8500   -999.2500   -999.2500   -999.2500   -999.2500   -999.2500
  1885.8000      7.8500   -999.2500   -999.2500   -999.2500   -999.2500   -999.2500
  1885.9000      7.8500   -999.2500   -999.2500   -999.2500   -999.2500   -999.2500
  1886.0000      7.8500   -999.2500   -999.2500   -999.2500   -999.2500   -999.2500
  1886.1000      7.8500   -999.2500   -999.2500   -999.2500   -999.2500   -999.2500
  1886.2000   -999.2500   -999.2500   -999.2500   -999.2500   -999.2500   -999.2500
  1886.3000   -999.2500   -999.2500   -999.2500   -999.2500   -999.2500   -999.2500
  1886.4000   -999.2500   -999.2500   -999.2500   -999.2500   -999.2500   -999.2500
  1886.5000   -999.2500   -999.2500   -999.2500   -999.2500   -999.2500   -999.2500
  1886.6000   -999.2500   -999.2500   -999.2500   -999.2500   -999.2500   -999.2500
  1886.7000   -999.2500   -999.2500   -999.2500   -999.2500   -999.2500   -999.2500
  1886.8000   -999.2500   -999.2500   -999.2500   -999.2500   -999.2500   -999.2500
  1886.9000   -999.2500   -999.2500   -999.2500   -999.2500   -999.2500   -999.2500
  1887.0000   -999.2500   -999.2500   -999.2500   -999.2500   -999.2500   -999.2500
  1887.1000   -999.2500   -999.2500   -999.2500   -999.2500   -999.2500   -999.2500
