~Version Information
VERS.                      2.0: CWLS Log ASCII Standard - VERSION 2.0
WRAP.                       NO: One line per depth step
~Well Information Block
STRT.FT               615.0000: 
STOP.FT              2807.0000: 
STEP.FT                 0.1000: 
NULL.                -999.2500: 
COMP.          Pioneer Natural Resources: COMPANY
WELL.              Loews 41-32: WELL
FLD.           Purgatoire River: FIELD
LOC.           751' FNL & 128' FEL: LOCATION
CNTY.               Las Animas: COUNTY
SRVC.                Patterson: SERVICE COMPANY
DATE.          Mon Feb 13 07:19:27 2006: LOG DATE
UWI.           05 071 08693 00: UNIQUE WELL ID
STAT.                 Colorado: STATE
~Curve Information Block
DEPT.FT            0 000 00 00: Depth
DCAL.in                       : CDL Caliper
RHOB.g/cc                     : CDL Bulk Density
RHOC.g/cc                     : CDL Density Correction
DPOR.pu                       : CDL Density Porosity
GR.GAPI                       : Gamma Ray
NPOR.pu                       : Neutron Porosity
~Parameter Information Block
~A  Depth       DCAL        RHOB        RHOC        DPOR         GR         NPOR    
# ...
  2064.6000      8.2017      2.5086      0.1239      8.5671    160.4916     28.8902
  2064.7000      8.2017      2.4741     -0.0042     10.6618    161.3088     28.9436
  2064.8000      8.1689      2.4633     -0.0467     11.3142    169.6430     28.4799
  2064.9000      8.1689      2.4887     -0.0270      9.7773    179.6959     28.3887
  2065.0000      8.1551      2.5315      0.0168      7.1792    184.5186     28.6125
  2065.1000      8.1551      2.5649      0.0457      5.1601    180.2890     28.5608
  2065.2000      8.1551      2.5789      0.0690      4.3083    171.6344     28.3294
  2065.3000      8.1507      2.5770      0.0881      4.4228    167.2998     28.2349
  2065.4000      8.1507      2.5712      0.0243      4.7735    166.5846     28.2217
  2065.5000      8.1835      2.5710      0.0566      4.7899    168.4487     27.7844
  2065.6000      8.1835      2.5665      0.0229      5.0631    173.9652     26.9612
  2065.7000      8.1835      2.5561      0.0128      5.6900    176.2359     26.7801
  2065.8000      8.1398      2.5506      0.0220      6.0216    173.4618     27.4452
  2065.9000      8.1398      2.5481      0.0178      6.1783    170.1833     28.2453
  2066.0000      8.1202      2.5427      0.0052      6.5014    166.0898     28.8512
  2066.1000      8.1202      2.5365      0.0156      6.8776    160.2670     29.0857
  2066.2000      8.1202      2.5311      0.0023      7.2051    155.5564     28.6923
  2066.3000      8.0936      2.5295     -0.0119      7.3009    156.8687     28.0162
  2066.4000      8.0936      2.5355     -0.0137      6.9390    164.1854     27.6470
  2066.5000      8.0943      2.5490      0.0173      6.1234    168.2798     27.6046
  2066.6000      8.0943      2.5645      0.0338      5.1795    162.7991     27.6090
  2066.7000      8.0943      2.5704      0.0405      4.8259    155.8039     27.2094
  2066.8000      8.1049      2.5667      0.0324      5.0457    155.8599     26.4283
  2066.9000      8.1049      2.5692      0.0275      4.8996    160.3853     26.0804
  2067.0000      8.1017      2.5736      0.0939      4.6309    163.4769     26.5202
  2067.1000      8.1017      2.5662      0.0554      5.0775    166.7296     27.1629
  2067.2000      8.1017      2.5535      0.0388      5.8475    170.0526     27.4992
  2067.3000      8.0959      2.5408      0.0547      6.6180    164.3800     27.6348
  2067.4000      8.0959      2.5229      0.0205      7.7022    152.2851     27.8008
  2067.5000      8.0999      2.5035     -0.0093      8.8814    145.0325     27.8392
  2067.6000      8.0999      2.4930      0.0038      9.5139    145.3771     27.4918
  2067.7000      8.0999      2.4968     -0.0233      9.2875    148.1631     27.0919
  2067.8000      8.0927      2.5088      0.0397      8.5603    151.4375     27.0952
  2067.9000      8.0927      2.5186      0.0132      7.9621    156.9933     27.6581
  2068.0000      8.0864      2.5288      0.0506      7.3470    159.3101     28.6756
  2068.1000      8.0864      2.5510      0.0870      5.9973    153.4324     29.8157
  2068.2000      8.0864      2.5962      0.0847      3.2592    146.1992     30.6581
  2068.3000      8.0893      2.6635      0.1222     -0.8208    144.9278     30.6700
  2068.4000      8.0893      2.7334      0.1676     -5.0555    149.7666     29.5855
  2068.5000      8.0902      2.7792      0.2306     -7.8316    158.2953     28.0986
  2068.6000      8.0902      2.7979      0.1536     -8.9610    162.2661     27.2772
  2068.7000      8.0902      2.8187      0.1370    -10.2247    153.8425     27.3386
  2068.8000      8.0895      2.8490      0.1522    -12.0605    140.1886     27.7391
  2068.9000      8.0895      2.8559      0.1272    -12.4768    131.7045     27.9430
  2069.0000      8.0896      2.8222      0.0687    -10.4363    128.6494     27.7864
  2069.1000      8.0896      2.7643     -0.0136     -6.9270    127.8145     27.4859
  2069.2000      8.0896      2.7080     -0.0585     -3.5137    129.9957     27.4266
  2069.3000      8.0931      2.6733     -0.0897     -1.4097    132.8875     27.6204
  2069.4000      8.0931      2.6557     -0.0651     -0.3429    131.8042     27.5212
  2069.5000      8.1114      2.6330     -0.0345      1.0312    127.3226     26.9246
  2069.6000      8.1114      2.6026     -0.0886      2.8734    121.1594     26.4705
  2069.7000      8.1114      2.5777     -0.0864      4.3839    114.9354     26.6767
  2069.8000      8.1489      2.5602     -0.0444      5.4437    112.0510     27.3435
  2069.9000      8.1489      2.5521     -0.0433      5.9332    112.3430     27.9184
  2070.0000      8.1533      2.5607     -0.0184      5.4102    110.9750     28.1724
  2070.1000      8.1533      2.5797      0.0049      4.2576    107.0124     28.3179
  2070.2000      8.1533      2.5966      0.0218      3.2375    104.7496     28.5344
  2070.3000      8.1600      2.6098      0.0244      2.4356    106.2496     28.6419
  2070.4000      8.1600      2.6242      0.0545      1.5630    110.2939     28.1716
  2070.5000      8.1886      2.6367      0.0400      0.8039    116.0406     27.0726
  2070.6000      8.1886      2.6375      0.0590      0.7594    123.8298     25.9489
  2070.7000      8.1886      2.6218      0.0403      1.7093    130.6803     25.2347
  2070.8000      8.1773      2.5983     -0.0182      3.1344    133.8660     24.8076
  2070.9000      8.1773      2.5745      0.0335      4.5784    135.1941     24.8493
  2071.0000      8.1743      2.5490      0.0054      6.1195    132.4116     25.6791
  2071.1000      8.1743      2.5277     -0.0191      7.4143    124.5601     26.8376
  2071.2000      8.1743      2.5172     -0.0238      8.0514    117.7032     27.7418
  2071.3000      8.1697      2.5148     -0.0239      8.1916    115.9223     28.3070
  2071.4000      8.1697      2.5174     -0.0054      8.0387    117.1738     28.3805
  2071.5000      8.1795      2.5191      0.0012      7.9305    121.5821     28.0815
  2071.6000      8.1795      2.5161      0.0020      8.1139    130.6282     27.9294
  2071.7000      8.1795      2.5121      0.0063      8.3603    142.0441     27.8646
  2071.8000      8.1517      2.5060      0.0006      8.7300    148.3694     27.4385
  2071.9000      8.1517      2.4935     -0.0359      9.4823    142.4825     26.6451
  2072.0000      8.1248      2.4854     -0.0340      9.9775    131.6065     26.0148
  2072.1000      8.1248      2.4964     -0.0205      9.3066    128.0397     26.0456
  2072.2000      8.1248      2.5244     -0.0149      7.6125    133.1054     26.5703
  2072.3000      8.1086      2.5502      0.0401      6.0470    139.5201     26.9755
  2072.4000      8.1086      2.5578      0.0487      5.5892    143.1389     27.0634
  2072.5000      8.0942      2.5527      0.0112      5.8968    149.4855     27.0832
  2072.6000      8.0942      2.5555      0.0204      5.7301    156.5685     27.1789
  2072.7000      8.0942      2.5762      0.0379      4.4733    153.1705     27.2139
  2072.8000      8.0853      2.6074      0.0361      2.5830    142.5670     26.9173
  2072.9000      8.0853      2.6348      0.0827      0.9237    135.4061     26.0581
  2073.0000      8.0838      2.6491      0.0580      0.0526    131.8714     24.9276
  2073.1000      8.0838      2.6470      0.0820      0.1842    128.7699     24.1809
  2073.2000      8.0838      2.6272      0.0359      1.3796    125.1642     24.0362
  2073.3000      8.0876      2.5983      0.0452      3.1348    120.3220     24.4538
  2073.4000      8.0876      2.5765     -0.0289      4.4569    115.9045     25.2801
  2073.5000      8.0855      2.5730     -0.0005      4.6667    114.7409     26.0938
  2073.6000      8.0855      2.5851      0.0051      3.9340    115.8238     26.6710
  2073.7000      8.0855      2.5984      0.0354      3.1292    113.7677     26.8040
  2073.8000      8.0946      2.5949      0.0444      3.3408    109.7481     26.4102
  2073.9000      8.0946      2.5758     -0.0015      4.4965    110.9289     26.0012
  2074.0000      8.1001      2.5683     -0.0311      4.9529    115.0359     25.9911
  2074.1000      8.1001      2.5893     -0.0028      3.6776    115.5428     26.2888
