~Version Information
VERS.                      2.0: CWLS Log ASCII Standard - VERSION 2.0
WRAP.                       NO: One line per depth step
~Well Information Block
STRT.FT               547.0000: 
STOP.FT              1685.5000: 
STEP.FT                 0.1000: 
NULL.                -999.2500: 
COMP.          Pioneer Natural Resources: COMPANY
WELL.           Pedri 42-33 Tr: WELL
FLD.           Purgatorie River: FIELD
LOC.           1933' FNL & 662' FEL: LOCATION
PROV.                 Colorado: PROVINCE
CNTY.               Las Animas: COUNTRY
SRVC.                Patterson: SERVICE COMPANY
DATE.          Mon Dec 19 13:36:44 2005: LOG DATE
UWI.                          : UNIQUE WELL ID
~Curve Information Block
DEPT.FT            0 000 00 00: Depth
DCAL.in                       : CDL Caliper
RHOB.g/cc                     : CDL Bulk Density
RHOC.g/cc                     : CDL Density Correction
DPOR.pu                       : CDL Density Porosity
GR.GAPI                       : Gamma Ray
~Parameter Information Block
~A  Depth       DCAL        RHOB        RHOC        DPOR         GR     
# ...
   771.0000      8.0315      2.4906      0.0471      9.6589    130.3505
   771.1000      8.0315      2.5206      0.1121      7.8397    128.5516
   771.2000      8.0315      2.5787      0.1418      4.3235    123.3002
   771.3000      8.0487      2.6487      0.1694      0.0799    120.0793
   771.4000      8.0487      2.7070      0.2180     -3.4539    120.6951
   771.5000      8.0290      2.7465      0.1929     -5.8515    122.7611
   771.6000      8.0290      2.7767      0.2177     -7.6798    123.3245
   771.7000      8.0290      2.7988      0.2474     -9.0158    120.0973
   771.8000      8.0233      2.8105      0.2068     -9.7288    115.1687
   771.9000      8.0233      2.8164      0.1780    -10.0863    112.5626
   772.0000      8.0001      2.8126      0.1853     -9.8565    112.0904
   772.1000      8.0001      2.7868      0.1286     -8.2926    111.3310
   772.2000      8.0001      2.7446      0.0633     -5.7332    111.8954
   772.3000      7.9780      2.7094      0.0450     -3.6018    115.3306
   772.4000      7.9780      2.6928      0.0323     -2.5936    118.1521
   772.5000      8.0096      2.6859      0.1059     -2.1764    117.9300
   772.6000      8.0096      2.6829      0.0303     -1.9923    114.5127
   772.7000      8.0096      2.6842      0.0906     -2.0732    109.1933
   772.8000      8.0271      2.6859      0.0453     -2.1774    105.6571
   772.9000      8.0271      2.6862      0.1068     -2.1926    106.5939
   773.0000      8.0383      2.6850      0.0634     -2.1223    111.3647
   773.1000      8.0383      2.6831      0.1192     -2.0044    116.7452
   773.2000      8.0383      2.6773      0.0916     -1.6518    120.1558
   773.3000      8.0494      2.6595      0.1118     -0.5745    120.8857
   773.4000      8.0494      2.6333      0.0484      1.0128    119.4754
   773.5000      8.0389      2.6191      0.0322      1.8728    118.7481
   773.6000      8.0389      2.6209      0.0850      1.7663    120.0654
   773.7000      8.0389      2.6203      0.0722      1.8022    122.5481
   773.8000      8.0550      2.6088      0.0909      2.4992    125.3869
   773.9000      8.0550      2.5916      0.0417      3.5385    126.7808
   774.0000      8.0557      2.5794     -0.0011      4.2812    126.7217
   774.1000      8.0557      2.5816      0.0140      4.1442    126.9954
   774.2000      8.0557      2.5919      0.0714      3.5238    126.9991
   774.3000      8.0732      2.5927      0.0628      3.4740    125.4446
   774.4000      8.0732      2.5819      0.0106      4.1245    124.0925
   774.5000      8.0877      2.5722      0.0240      4.7180    123.5465
   774.6000      8.0877      2.5687      0.0166      4.9299    122.3498
   774.7000      8.0877      2.5712     -0.0112      4.7786    121.0210
   774.8000      8.0673      2.5750      0.0200      4.5452    120.1628
   774.9000      8.0673      2.5727      0.0265      4.6834    118.2596
   775.0000      8.0924      2.5716     -0.0330      4.7543    115.7686
   775.1000      8.0924      2.5844      0.0263      3.9744    115.4201
   775.2000      8.0924      2.6080      0.0506      2.5472    116.4240
   775.3000      8.0916      2.6300      0.0571      1.2125    115.2480
   775.4000      8.0916      2.6400      0.0776      0.6039    111.8640
   775.5000      8.0813      2.6335      0.0556      0.9987    109.1579
   775.6000      8.0813      2.6132      0.0517      2.2301    107.7828
   775.7000      8.0813      2.5908      0.0024      3.5853    107.2060
   775.8000      8.0483      2.5810     -0.0124      4.1831    107.7663
   775.9000      8.0483      2.5881     -0.0027      3.7492    108.7474
   776.0000      8.0486      2.6069      0.0234      2.6101    108.2315
   776.1000      8.0486      2.6271      0.0474      1.3904    106.1749
   776.2000      8.0486      2.6374      0.0601      0.7642    103.7366
   776.3000      8.0404      2.6338      0.0369      0.9800    100.7420
   776.4000      8.0404      2.6253      0.0091      1.4956     98.6956
   776.5000      8.0702      2.6249      0.0343      1.5216     99.2846
   776.6000      8.0702      2.6384     -0.0111      0.7015    101.0424
   776.7000      8.0702      2.6595      0.0382     -0.5770    102.4745
   776.8000      8.0789      2.6644      0.0632     -0.8713    103.6972
   776.9000      8.0789      2.6395      0.0503      0.6388    105.5074
   777.0000      8.0547      2.6048     -0.0348      2.7403    107.5493
   777.1000      8.0547      2.5872     -0.0287      3.8046    107.7739
   777.2000      8.0547      2.5843      0.0147      3.9790    104.2721
   777.3000      8.0554      2.5769      0.0349      4.4310     98.5872
   777.4000      8.0554      2.5659     -0.0198      5.0960     95.2608
   777.5000      8.0799      2.5655     -0.0015      5.1214     96.4274
   777.6000      8.0799      2.5737      0.0462      4.6240     99.3320
   777.7000      8.0799      2.5759      0.0763      4.4881    101.8165
   777.8000      8.0403      2.5636      0.0389      5.2346    103.8516
   777.9000      8.0403      2.5426      0.0363      6.5102    104.9996
   778.0000      8.0407      2.5241      0.0635      7.6319    105.1084
   778.1000      8.0407      2.5214     -0.0006      7.7945    104.1431
   778.2000      8.0407      2.5389      0.0511      6.7346    101.4729
   778.3000      8.0047      2.5544      0.0771      5.7913     98.0282
   778.4000      8.0047      2.5475      0.0727      6.2092     97.0193
   778.5000      7.9503      2.5305      0.0289      7.2453     99.6070
   778.6000      7.9503      2.5189      0.0768      7.9425    101.9104
   778.7000      7.9503      2.5031      0.0460      8.9049    101.2299
   778.8000      7.9501      2.4745      0.0475     10.6388    101.1335
   778.9000      7.9501      2.4317      0.0576     13.2295    102.8225
   779.0000      7.9982      2.3638      0.0496     17.3454    103.1986
   779.1000      7.9982      2.2652     -0.0089     23.3227    103.6637
   779.2000      7.9982      2.1445     -0.0055     30.6366    105.3594
   779.3000      8.0718      2.0073     -0.0170     38.9524    105.6293
   779.4000      8.0718      1.8584     -0.0479     47.9749    103.7016
   779.5000      8.0680      1.7201     -0.1262     56.3599    100.7133
   779.6000      8.0680      1.6225     -0.1418     62.2724     96.7626
   779.7000      8.0680      1.5634      0.0183     65.8525     92.6404
   779.8000      8.0779      1.5154      0.0266     68.7627     89.4728
   779.9000      8.0779      1.4750      0.0890     71.2139     86.9535
   780.0000      8.1097      1.4559      0.1631     72.3708     84.8513
   780.1000      8.1097      1.4611      0.1882     72.0547     83.1764
   780.2000      8.1097      1.4819      0.1603     70.7919     82.1461
   780.3000      8.2160      1.5098      0.1429     69.1029     81.8205
   780.4000      8.2160      1.5476      0.1047     66.8129     81.1782
   780.5000      8.3407      1.6090      0.0812     63.0938     79.6944
   780.6000      8.3407      1.6958      0.1538     57.8276     77.9280
   780.7000      8.3407      1.7893      0.1985     52.1634     77.8210
   780.8000      8.3158      1.8741      0.1792     47.0261     81.7929
   780.9000      8.3158      1.9374      0.2553     43.1873     89.0762
   781.0000      8.3626      1.9553      0.2230     42.1034     96.1019
   781.1000      8.3626      1.9215      0.1702     44.1532     99.3179
   781.2000      8.3626      1.8581      0.1126     47.9931     99.1245
   781.3000      8.3056      1.7896      0.0594     52.1433     99.7884
   781.4000      8.3056      1.7290      0.0001     55.8156    100.6233
   781.5000      8.1657      1.6832     -0.0251     58.5911     97.8857
   781.6000      8.1657      1.6608      0.0122     59.9532     93.7056
   781.7000      8.1657      1.6763      0.0304     59.0094     91.9590
   781.8000      8.1795      1.7425      0.1002     54.9973     92.0376
   781.9000      8.1795      1.8567      0.1578     48.0810     93.1681
   782.0000      8.1820      1.9991      0.2667     39.4459     96.9090
   782.1000      8.1820      2.1400      0.3339     30.9121    101.7991
