~Version Information
 VERS.                                  2.0 : CWLS LAS VERSION
 WRAP.                                   NO : WRAPING MODE
 SWARE .                 MController 2.5.0N : SOFTWARE VERSION
~Well Information
 WELL.                        ROLLS 14-14Tr : WELL
 COMP.   Pioneer Natural Resources, USA INC : COMPANY
 FLD.                      PURGATOIRE RIVER : FIELD
 LOC.                SW/SW SEC 14 T32S R66W : LOCATION
 DATE.                           08/02/2005 : DATE(S) LOGGED
 SRVC.       BLANCO GEOLOGICAL SERVICES LLC : SERVICE COMPANY
 STAT.                             COLORADO : STATE
 CNTY.                           LAS ANIMAS : COUNTY
 CTRY.                                  USA : COUNTRY
 API.                       05-071-08454-00 : API NUMBER
 STRT.FT                             744.00 : START DEPTH
 STOP.FT                            1800.00 : STOP DEPTH
 STEP.FT                               1.00 : DEPTH INCREMENT
 NULL.                                -9999 : NULL VALUE
~Curve information
 DEPTH.FT                                   :
 ROP.MIN/FT                                 :
 GAS.UNITS                                  :
~ASCII Log data
# ...
      1144.0         0.33        795.2 
      1145.0         0.28        794.5 
      1146.0         0.23        784.5 
      1147.0         0.23        760.4 
      1148.0         0.23        735.6 
      1149.0         0.20        685.6 
      1150.0         0.27        658.5 
      1151.0         0.27        613.1 
      1152.0         0.30        589.9 
      1153.0         0.23        569.9 
      1154.0         0.23        576.7 
      1155.0         0.20        576.4 
      1156.0         0.20        588.6 
      1157.0         0.17        625.7 
      1158.0         0.20        683.0 
      1159.0         0.13        719.8 
      1160.0         0.13        739.4 
      1161.0         0.12        753.9 
      1162.0         0.13        760.7 
      1163.0         0.20        757.2 
      1164.0         0.23        736.2 
      1165.0         0.20        710.1 
      1166.0         2.50       1791.3 
      1167.0         0.55       1505.5 
      1168.0         0.20        987.9 
      1169.0         0.13        865.4 
      1170.0         0.13        852.9 
      1171.0         0.17        855.8 
      1172.0         0.27        900.9 
      1173.0         0.20        898.3 
      1174.0         0.17        859.3 
      1175.0         0.20        787.1 
      1176.0         0.17        732.0 
      1177.0         0.23        695.3 
      1178.0         0.20        648.2 
      1179.0         0.13        618.6 
      1180.0         0.23        615.0 
      1181.0         0.23        599.2 
      1182.0         0.18        587.3 
      1183.0         0.17        576.4 
      1184.0         0.20        574.4 
      1185.0         0.13        591.5 
      1186.0         0.13        615.7 
      1187.0         0.20        669.8 
      1188.0         0.17        720.1 
      1189.0         0.13        733.3 
      1190.0         0.10        730.4 
      1191.0         0.13        715.9 
      1192.0         0.13        676.9 
      1193.0         0.17        661.8 
      1194.0         0.23        667.2 
      1195.0         0.13        743.0 
      1196.0         1.72       2862.5 
      1197.0         0.27       3212.2 
      1198.0         0.53       3204.1 
      1199.0         0.23       2312.7 
      1200.0         0.07       1950.8 
      1201.0         0.10       1728.1 
      1202.0         0.17       1656.3 
      1203.0         0.60       1305.7 
      1204.0         0.27        805.8 
      1205.0         0.30        829.7 
      1206.0         0.23        827.1 
      1207.0         0.25        787.8 
      1208.0         0.23        755.9 
      1209.0         0.30        723.3 
      1210.0         0.20        684.0 
      1211.0         0.27        681.7 
      1212.0         0.20        683.7 
      1213.0         0.17        683.0 
      1214.0         0.20        678.5 
      1215.0         0.17        662.4 
      1216.0         0.20        648.9 
      1217.0         0.20        628.3 
      1218.0         0.20        594.4 
      1219.0         0.20        580.6 
      1220.0         0.20        579.9 
      1221.0         0.20        594.1 
      1222.0         0.20        616.0 
      1223.0         0.15        623.7 
      1224.0         0.13        640.5 
      1225.0         0.17        671.1 
      1226.0         3.98       1100.4 
      1227.0         0.50        807.1 
      1228.0         0.20        748.5 
      1229.0         0.30        736.2 
      1230.0         0.43        751.4 
      1231.0         0.27        753.0 
      1232.0         0.43        729.8 
      1233.0         0.42        672.1 
      1234.0         0.17        680.5 
      1235.0         0.20        683.7 
      1236.0         0.10        683.4 
      1237.0         0.20        685.6 
      1238.0         0.20        695.9 
      1239.0         0.17        705.3 
      1240.0         0.17        711.1 
      1241.0         0.17        714.6 
      1242.0         0.17        725.3 
      1243.0         0.17        737.2 
      1244.0         0.20        744.9 
      1245.0         0.17        745.9 
      1246.0         0.17        735.6 
      1247.0         0.20        724.0 
      1248.0         0.20        715.6 
      1249.0         0.17        705.3 
      1250.0         0.20        688.2 
      1251.0         0.17        649.8 
      1252.0         0.22        633.7 
      1253.0         0.17        635.7 
      1254.0         0.17        683.7 
      1255.0         0.17        735.9 
      1256.0         1.00       1391.1 
      1257.0         0.23       1401.0 
      1258.0         0.13       1371.1 
      1259.0         0.23       1244.1 
      1260.0         0.37       1049.1 
      1261.0         0.30        846.1 
      1262.0         0.23        800.3 
      1263.0         0.18        841.9 
      1264.0         0.20        884.5 
      1265.0         0.17        886.1 
      1266.0         0.23        849.6 
      1267.0         0.33        807.1 
      1268.0         0.27        782.3 
      1269.0         0.17        760.1 
      1270.0         0.17        756.8 
      1271.0         0.17        716.6 
      1272.0         0.27        688.8 
      1273.0         0.23        664.0 
      1274.0         0.20        682.1 
      1275.0         0.20        693.7 
      1276.0         0.20        694.6 
      1277.0         0.23        695.9 
      1278.0         0.25        724.3 
      1279.0         0.20        751.0 
      1280.0         0.20        763.9 
      1281.0         0.17        761.7 
      1282.0         0.23        738.8 
      1283.0         0.20        712.0 
      1284.0         0.23        694.0 
      1285.0         0.23        671.4 
      1286.0         2.15       1247.3 
      1287.0         0.27       1160.6 
      1288.0         0.37       1020.1 
      1289.0         0.20        834.8 
      1290.0         0.20        802.3 
      1291.0         0.20        851.9 
      1292.0         0.27        885.7 
      1293.0         0.20        878.3 
      1294.0         0.23        822.6 
      1295.0         0.23        800.3 
      1296.0         0.27        784.5 
      1297.0         0.23        725.6 
      1298.0         0.17        690.1 
      1299.0         0.25        673.7 
      1300.0         0.20        658.5 
      1301.0         0.23        648.6 
      1302.0         0.20        634.1 
      1303.0         0.23        635.3 
      1304.0         0.20        638.9 
      1305.0         0.23        640.2 
      1306.0         0.23        639.2 
      1307.0         0.20        640.2 
      1308.0         0.33        639.5 
      1309.0         0.23        638.2 
      1310.0         0.23        661.1 
      1311.0         0.20        686.6 
      1312.0         0.20        702.4 
      1313.0         0.27        704.9 
      1314.0         0.22        686.3 
      1315.0         0.20        650.8 
      1316.0         1.80       1121.0 
      1317.0         0.67       1121.3 
      1318.0         0.40        830.0 
      1319.0         0.38        676.9 
      1320.0         0.30        615.4 
      1321.0         0.30        683.0 
      1322.0         0.33        730.4 
      1323.0         0.33        729.4 
      1324.0         0.37        652.4 
      1325.0         0.27        579.6 
      1326.0         0.20        557.7 
      1327.0         0.17        550.3 
      1328.0         0.20        547.7 
      1329.0         0.17        548.3 
      1330.0         0.23        584.1 
      1331.0         0.23        605.7 
      1332.0         0.22        616.6 
      1333.0         0.17        631.5 
      1334.0         0.20        659.8 
      1335.0         0.13        710.8 
      1336.0         0.13        740.7 
      1337.0         0.13        770.0 
      1338.0         0.13        774.9 
      1339.0         0.10        778.4 
      1340.0         0.20        782.3 
      1341.0         0.20        777.1 
      1342.0         0.23        725.6 
      1343.0         0.17        635.7 
