~Version Information
 VERS.                                  2.0 : CWLS LAS VERSION
 WRAP.                                   NO : WRAPING MODE
 SWARE .                 MController 2.5.0N : SOFTWARE VERSION
~Well Information
 WELL.                          AMX 13-13TR : WELL
 COMP.       Pioneer Natural Resources, USA : COMPANY
 FLD.                       Purgatory River : FIELD
 LOC.                NW/SW Sec 13 T32S R67W : LOCATION
 DATE.                             12/21/05 : DATE(S) LOGGED
 SRVC.      Blanco Geological Services, LLC : SERVICE COMPANY
 STAT.                             Colorado : STATE
 CNTY.                           Las Animas : COUNTY
 CTRY.                                  USA : COUNTRY
 API.                       05-071-08631-00 : API NUMBER
 STRT.FT                             395.00 : START DEPTH
 STOP.FT                            2187.00 : STOP DEPTH
 STEP.FT                               1.00 : DEPTH INCREMENT
 NULL.                                -9999 : NULL VALUE
~Curve information
 DEPTH.FT                                   :
 ROP.MIN/FT                                 :
 GAS.UNITS                                  :
~ASCII Log data
# ...
      1595.0         0.30        100.4 
      1596.0         0.30         96.0 
      1597.0         0.27         91.6 
      1598.0         0.23         88.4 
      1599.0         0.20         85.6 
      1600.0         0.20         83.6 
      1601.0         0.23         81.6 
      1602.0         0.23         85.1 
      1603.0         0.28         98.2 
      1604.0         0.23        105.2 
      1605.0         0.13        107.2 
      1606.0         0.13        108.0 
      1607.0         0.23        108.0 
      1608.0         0.30        106.3 
      1609.0         0.27        102.3 
      1610.0         0.30         98.7 
      1611.0         0.27         95.8 
      1612.0         0.17         93.4 
      1613.0         0.27         92.0 
      1614.0         0.27         86.3 
      1615.0         0.27         75.6 
      1616.0         3.22        205.2 
      1617.0         0.30        165.8 
      1618.0         0.28        144.9 
      1619.0         0.27        126.2 
      1620.0         0.23        112.2 
      1621.0         0.23        103.1 
      1622.0         0.27         98.3 
      1623.0         0.27         95.7 
      1624.0         0.27         93.3 
      1625.0         0.27         91.5 
      1626.0         0.23         90.0 
      1627.0         0.27         88.5 
      1628.0         0.23         86.5 
      1629.0         0.27         84.2 
      1630.0         0.30         81.7 
      1631.0         0.25         79.4 
      1632.0         0.30         78.3 
      1633.0         0.27         78.0 
      1634.0         0.27         77.6 
      1635.0         0.27         77.2 
      1636.0         0.27         76.8 
      1637.0         0.30         75.9 
      1638.0         0.27         74.5 
      1639.0         0.27         74.2 
      1640.0         0.27         74.6 
      1641.0         0.27         74.7 
      1642.0         0.27         74.6 
      1643.0         0.28         73.5 
      1644.0         0.27         66.7 
      1645.0         0.30         58.1 
      1646.0         2.30        124.1 
      1647.0         0.30        124.3 
      1648.0         0.28        121.5 
      1649.0         0.27        113.2 
      1650.0         0.27        104.5 
      1651.0         0.27         97.2 
      1652.0         0.27         93.0 
      1653.0         0.27         92.5 
      1654.0         0.27         92.8 
      1655.0         0.27         92.5 
      1656.0         0.23         91.9 
      1657.0         0.30         90.3 
      1658.0         0.37         87.0 
      1659.0         0.38         82.6 
      1660.0         0.20         78.4 
      1661.0         0.23         77.0 
      1662.0         0.17         76.0 
      1663.0         0.20         75.4 
      1664.0         0.23         73.6 
      1665.0         0.17         71.6 
      1666.0         0.23         70.9 
      1667.0         0.13         70.3 
      1668.0         0.13         70.6 
      1669.0         0.20         71.3 
      1670.0         0.20         71.3 
      1671.0         0.13         71.2 
      1672.0         0.23         71.0 
      1673.0         0.50         70.7 
      1674.0         0.58         70.0 
      1675.0         0.50         64.9 
      1676.0         3.12        190.2 
      1677.0         0.47        188.2 
      1678.0         0.33        165.4 
      1679.0         0.47        146.2 
      1680.0         0.33        119.3 
      1681.0         0.20        106.2 
      1682.0         0.23        101.6 
      1683.0         0.27         99.5 
      1684.0         0.30         98.1 
      1685.0         0.28         95.2 
      1686.0         0.17         92.7 
      1687.0         0.17         91.5 
      1688.0         0.17         90.4 
      1689.0         0.17         89.3 
      1690.0         0.27         88.1 
      1691.0         0.23         85.7 
      1692.0         0.23         83.9 
      1693.0         0.30         81.8 
      1694.0         0.27         79.5 
      1695.0         0.30         77.2 
      1696.0         0.30         74.0 
      1697.0         0.27         70.7 
      1698.0         0.27         68.6 
      1699.0         0.28         67.5 
      1700.0         0.27         66.7 
      1701.0         0.27         67.6 
      1702.0         0.23         68.0 
      1703.0         0.27         67.5 
      1704.0         0.30         63.1 
      1705.0         0.23         54.3 
      1706.0         1.95        127.5 
      1707.0         0.33        132.7 
      1708.0         0.30        132.4 
      1709.0         0.30        125.6 
      1710.0         0.30        116.3 
      1711.0         0.30        105.5 
      1712.0         0.23         95.9 
      1713.0         0.23         90.6 
      1714.0         0.23         87.2 
      1715.0         0.23         86.5 
      1716.0         0.27         86.1 
      1717.0         0.27         69.1 
      1718.0         0.22         41.0 
      1719.0         0.17         24.4 
      1720.0         0.13         15.6 
      1721.0         0.17         14.3 
      1722.0         0.23         31.0 
      1723.0         0.17         42.4 
      1724.0         0.13         48.2 
      1725.0         0.13         54.4 
      1726.0         0.13         59.0 
      1727.0         0.20         63.2 
      1728.0         0.13         64.8 
      1729.0         0.40         66.2 
      1730.0         0.53         66.0 
      1731.0         0.65         66.5 
      1732.0         0.23         64.9 
      1733.0         0.20         58.7 
      1734.0         0.20         52.6 
      1735.0         0.17         47.9 
      1736.0         3.28        107.2 
      1737.0         0.30        111.9 
      1738.0         0.27        112.0 
      1739.0         0.27        109.9 
      1740.0         0.23        104.2 
      1741.0         0.27        100.2 
      1742.0         0.27         98.0 
      1743.0         0.30         97.3 
      1744.0         0.30         96.0 
      1745.0         0.27         94.1 
      1746.0         0.28         92.1 
      1747.0         0.27         88.7 
      1748.0         0.27         85.1 
      1749.0         0.23         81.7 
      1750.0         0.30         79.2 
      1751.0         0.33         76.8 
      1752.0         0.30         74.3 
      1753.0         0.37         72.7 
      1754.0         0.20         69.5 
      1755.0         0.23         67.8 
      1756.0         0.23         66.5 
      1757.0         0.27         65.4 
      1758.0         0.25         65.1 
      1759.0         0.27         66.8 
      1760.0         0.13         66.8 
      1761.0         0.13         66.5 
      1762.0         0.10         65.2 
      1763.0         0.17         63.2 
      1764.0         0.17         58.6 
      1765.0         0.23         53.7 
      1766.0         0.20         49.2 
      1767.0         2.35        125.8 
      1768.0         0.27        125.3 
      1769.0         0.30        119.6 
      1770.0         0.27        109.2 
      1771.0         0.30        100.6 
      1772.0         0.27         91.2 
      1773.0         0.27         84.7 
      1774.0         0.27         84.4 
      1775.0         0.23         86.8 
      1776.0         0.27         89.5 
      1777.0         0.27         90.8 
      1778.0         0.25         90.8 
      1779.0         0.13         89.2 
      1780.0         0.13         87.1 
      1781.0         0.33         84.6 
      1782.0         0.60         78.2 
      1783.0         0.57         72.0 
      1784.0         0.60         67.5 
      1785.0         0.40         65.7 
      1786.0         0.30         63.7 
      1787.0         0.28         62.5 
      1788.0         0.23         62.0 
      1789.0         0.17         62.3 
      1790.0         0.20         63.4 
      1791.0         0.23         63.6 
      1792.0         0.20         62.4 
      1793.0         0.20         58.6 
      1794.0         0.23         53.5 
