~Version Information
VERS.                      2.0: CWLS Log ASCII Standard - VERSION 2.0
WRAP.                       NO: One line per depth step
~Well Information Block
STRT.FT               795.0000: 
STOP.FT              2276.0000: 
STEP.FT                 0.1000: 
NULL.                -999.2500: 
COMP.          Pioneer Natural Resources: COMPANY
WELL.            Wildcard 31-5: WELL
FLD.           Purgatoire River: FIELD
LOC.           624' FNL & 1852' FEL--: LOCATION
CNTY.               Las Animas: COUNTY
SRVC.                Patterson: SERVICE COMPANY
DATE.          Tue Mar 07 07:04:10 2006: LOG DATE
UWI.           05 071 08707 00: UNIQUE WELL ID
STAT.                 Colorado: STATE
~Curve Information Block
DEPT.FT            0 000 00 00: Depth
DCAL.in                       : CDL Caliper
DPOR.pu                       : CDL Density Porosity
NPOR.pu                       : Neutron Porosity
RHOB.g/cc                     : CDL Bulk Density
RHOC.g/cc                     : CDL Density Correction
GR.GAPI                       : Gamma Ray
~Parameter Information Block
~A  Depth       DCAL        DPOR        NPOR        RHOB        RHOC         GR     
# ...
  1582.2000      8.3216     11.9325     29.9194      2.4531      0.3928    180.2399
  1582.3000      8.4595      8.2907     29.4967      2.5132      0.4309    186.6833
  1582.4000      8.4595      6.7364     29.1680      2.5388      0.3879    180.8040
  1582.5000      8.6320      6.3855     28.5706      2.5446      0.3159    170.9385
  1582.6000      8.6320      6.7176     28.1555      2.5392      0.2684    159.4727
  1582.7000      8.6320      6.8197     28.1663      2.5375      0.1475    146.8150
  1582.8000      8.5626      5.4495     27.9540      2.5601      0.1222    134.2544
  1582.9000      8.5626      3.1193     27.2539      2.5985      0.1081    130.2698
  1583.0000      8.2727      2.0226     26.6766      2.6166      0.1321    135.1069
  1583.1000      8.2727      3.1410     26.4345      2.5982      0.0606    132.2050
  1583.2000      8.2727      5.1057     26.1966      2.5658      0.0664    125.7569
  1583.3000      8.0698      6.4412     25.9521      2.5437      0.0694    134.5482
  1583.4000      8.0698      6.5768     25.6763      2.5415      0.0154    148.6573
  1583.5000      8.0088      5.3891     25.5745      2.5611      0.0712    154.2298
  1583.6000      8.0088      3.6821     25.7757      2.5892      0.0843    156.3702
  1583.7000      8.0088      2.6604     25.6093      2.6061      0.0911    151.4636
  1583.8000      7.9904      2.8339     25.0871      2.6032      0.1157    135.5614
  1583.9000      7.9904      3.7275     24.8639      2.5885      0.0852    123.9508
  1584.0000      7.9779      4.7997     25.0779      2.5708      0.0831    128.9191
  1584.1000      7.9779      6.4728     25.5687      2.5432      0.0861    140.8722
  1584.2000      7.9779      8.6262     26.0442      2.5077      0.0123    148.6862
  1584.3000      7.9696      9.8237     26.1646      2.4879      0.0254    152.3643
  1584.4000      7.9696      9.3513     25.7563      2.4957      0.0339    153.7689
  1584.5000      7.9653      8.0265     25.0914      2.5176      0.0439    154.1191
  1584.6000      7.9653      6.8465     24.5711      2.5370      0.0715    157.4940
  1584.7000      7.9653      6.0030     24.3677      2.5510      0.0928    162.2987
  1584.8000      7.9631      5.4541     24.4292      2.5600      0.1046    157.5186
  1584.9000      7.9631      5.2708     24.4772      2.5630      0.0978    140.7622
  1585.0000      7.9599      5.3885     24.4867      2.5611      0.1045    128.3348
  1585.1000      7.9599      5.6596     24.4152      2.5566      0.1213    135.0329
  1585.2000      7.9599      5.4348     23.8059      2.5603      0.0822    157.1276
  1585.3000      7.9540      4.3686     22.9934      2.5779      0.1079    179.8574
  1585.4000      7.9540      3.3419     22.9434      2.5949      0.1180    186.1186
  1585.5000      7.9483      2.7461     23.4971      2.6047      0.0567    169.0314
  1585.6000      7.9483      2.2072     23.7507      2.6136      0.1000    147.8110
  1585.7000      7.9483      1.8084     23.5275      2.6202      0.0716    140.9264
  1585.8000      7.9459      1.3759     23.2838      2.6273      0.0430    143.1074
  1585.9000      7.9459      0.9185     23.1345      2.6348      0.0892    142.8383
  1586.0000      7.9504      1.3619     22.9504      2.6275      0.0791    135.5442
  1586.1000      7.9504      2.7952     22.7337      2.6039      0.0273    119.3349
  1586.2000      7.9504      3.6232     22.3299      2.5902      0.0223    101.7833
  1586.3000      7.9586      2.7093     21.6754      2.6053      0.0472     97.1797
  1586.4000      7.9586      1.2575     21.2787      2.6293      0.0711    105.9999
  1586.5000      7.9622      1.0399     21.3529      2.6328      0.0700    108.9896
  1586.6000      7.9622      1.7016     21.3713      2.6219      0.0154     94.4264
  1586.7000      7.9622      1.8597     21.2517      2.6193      0.0663     74.0332
  1586.8000      7.9621      1.7186     21.1142      2.6216      0.1042     61.9866
  1586.9000      7.9621      2.1978     20.7899      2.6137      0.0809     62.6631
  1587.0000      7.9624      2.6040     20.6324      2.6070     -0.0048     70.9697
  1587.1000      7.9624      1.7788     20.6751      2.6206      0.0234     77.2360
  1587.2000      7.9624      0.7478     20.3772      2.6377      0.1034     83.3655
  1587.3000      7.9630      0.9445     20.0280      2.6344      0.0166     87.4936
  1587.4000      7.9630      1.6348     20.2424      2.6230      0.0029     83.2166
  1587.5000      7.9617      1.7251     20.7454      2.6215      0.0314     78.5092
  1587.6000      7.9617      1.5261     20.9027      2.6248      0.0425     79.5291
  1587.7000      7.9617      1.6846     20.8032      2.6222      0.0575     85.3511
  1587.8000      7.9605      1.9120     20.9728      2.6185      0.0379     93.6591
  1587.9000      7.9605      1.8903     21.3198      2.6188      0.0217    100.2327
  1588.0000      7.9614      2.0426     21.4251      2.6163      0.0010    103.5505
  1588.1000      7.9614      2.5963     21.2812      2.6072      0.0101    103.3215
  1588.2000      7.9614      3.2696     21.0434      2.5961      0.0192    100.1082
  1588.3000      7.9629      3.7211     21.0119      2.5886      0.0370     98.0083
  1588.4000      7.9629      3.7176     21.2527      2.5887      0.0029     99.5417
  1588.5000      7.9658      3.2588     21.3640      2.5962      0.0441    101.4940
  1588.6000      7.9658      2.9465     21.3225      2.6014      0.0287    100.0022
  1588.7000      7.9658      3.4758     21.2624      2.5926      0.0492     96.6625
  1588.8000      7.9694      4.6610     21.2907      2.5731      0.0198     95.3752
  1588.9000      7.9694      5.4778     21.5799      2.5596      0.0109     94.4758
  1589.0000      7.9722      5.4777     21.8280      2.5596      0.0438     93.4800
  1589.1000      7.9722      5.3046     21.5526      2.5625      0.0430     93.5199
  1589.2000      7.9722      5.2554     20.9984      2.5633      0.0421     89.4562
  1589.3000      7.9753      4.7382     20.7485      2.5718      0.0094     79.5064
  1589.4000      7.9753      3.5691     20.9243      2.5911      0.0322     73.9450
  1589.5000      7.9792      2.8471     21.4061      2.6030      0.0746     76.8976
  1589.6000      7.9792      3.2627     21.8889      2.5962     -0.0049     80.4163
  1589.7000      7.9792      3.8596     22.2610      2.5863      0.0368     85.3875
  1589.8000      7.9827      3.8530     23.0120      2.5864      0.0241     96.9853
  1589.9000      7.9827      3.8507     24.1468      2.5865      0.0316    111.2249
  1590.0000      7.9861      4.6595     24.7814      2.5731      0.0655    121.6361
  1590.1000      7.9861      6.4288     24.8120      2.5439      0.0697    125.4315
  1590.2000      7.9861      8.5977     24.8550      2.5081      0.0050    124.1094
  1590.3000      7.9962      9.8683     24.7896      2.4872     -0.0079    120.0489
  1590.4000      7.9962      9.3717     24.6065      2.4954      0.0491    111.4930
  1590.5000      8.0145      7.8910     24.9356      2.5198      0.0884    102.5787
  1590.6000      8.0145      7.0911     25.7571      2.5330      0.1505    103.2183
  1590.7000      8.0145      7.6490     26.4304      2.5238      0.0850    115.3751
  1590.8000      8.0324      8.5267     26.7221      2.5093      0.0718    131.5382
  1590.9000      8.0324      9.1572     26.9028      2.4989      0.1500    137.1954
  1591.0000      8.0473     10.2695     26.9594      2.4806      0.1104    126.7006
  1591.1000      8.0473     11.8253     26.8712      2.4549      0.1089    115.7017
  1591.2000      8.0473     12.5634     26.9935      2.4427      0.0589    117.7996
  1591.3000      8.0609     11.7716     27.3129      2.4558      0.0796    127.0831
  1591.4000      8.0609     10.4719     27.3374      2.4772      0.1159    136.7421
  1591.5000      8.0684      9.9128     27.3118      2.4864      0.0763    148.5048
  1591.6000      8.0684     10.0571     27.7563      2.4841      0.0600    164.5563
  1591.7000      8.0684     10.3767     28.2030      2.4788      0.0929    174.2496
