~Version Information
VERS.                      2.0: CWLS Log ASCII Standard - VERSION 2.0
WRAP.                       NO: One line per depth step
~Well Information Block
STRT.FT               595.7000: 
STOP.FT              1567.2000: 
STEP.FT                 0.1000: 
NULL.                -999.2500: 
COMP.          Pioneer Natural Resources: COMPANY
WELL.           Butch 33-10 Tr: WELL
FLD.           Purgatoire River: FIELD
LOC.           2309' FSL & 1337' FEL--: LOCATION
PROV.                 Colorado: PROVINCE
CNTY.               Las Animas: COUNTRY
SRVC.                Patterson: SERVICE COMPANY
DATE.          Mon Jan 16 07:34:05 2006: LOG DATE
UWI.           05 071 08649 00: UNIQUE WELL ID
~Curve Information Block
DEPT.FT            0 000 00 00: Depth
DCAL.in                       : CDL Caliper
RHOB.g/cc                     : CDL Bulk Density
RHOC.g/cc                     : CDL Density Correction
DPOR.pu                       : CDL Density Porosity
GR.GAPI                       : Gamma Ray
~Parameter Information Block
~A  Depth       DCAL        RHOB        RHOC        DPOR         GR     
# ...
   730.1000      8.1143      2.4205      0.0559     13.9097     46.8395
   730.2000      8.1143      2.4375      0.0496     12.8784     48.1884
   730.3000      8.1131      2.4624      0.0644     11.3693     48.6245
   730.4000      8.1131      2.4788      0.1380     10.3771     46.7354
   730.5000      8.1111      2.4735      0.0869     10.6974     44.4002
   730.6000      8.1111      2.4623      0.0441     11.3785     43.0370
   730.7000      8.1111      2.4644      0.0747     11.2500     42.9632
   730.8000      8.1084      2.4689      0.0793     10.9745     43.8297
   730.9000      8.1084      2.4660      0.0184     11.1529     44.2147
   731.0000      8.1149      2.4683      0.0523     11.0121     42.8924
   731.1000      8.1149      2.4766      0.1062     10.5093     39.8587
   731.2000      8.1149      2.4802      0.0716     10.2896     36.4133
   731.3000      8.1289      2.4870      0.0714      9.8788     34.0398
   731.4000      8.1289      2.5045      0.0661      8.8152     34.2837
   731.5000      8.1381      2.5221      0.0518      7.7504     35.7516
   731.6000      8.1381      2.5261      0.1304      7.5091     36.0712
   731.7000      8.1381      2.5155      0.0533      8.1534     35.6564
   731.8000      8.1393      2.5000      0.0808      9.0887     36.5118
   731.9000      8.1393      2.4837      0.0638     10.0818     40.0028
   732.0000      8.1389      2.4678      0.0343     11.0428     43.4701
   732.1000      8.1389      2.4575      0.0226     11.6664     42.7588
   732.2000      8.1389      2.4561      0.0181     11.7500     38.8393
   732.3000      8.1356      2.4595      0.0394     11.5461     37.7921
   732.4000      8.1356      2.4598      0.0533     11.5250     42.0693
   732.5000      8.1251      2.4619      0.0144     11.4011     48.2368
   732.6000      8.1251      2.4717      0.0509     10.8054     52.6874
   732.7000      8.1251      2.4767      0.0712     10.5048     54.8612
   732.8000      8.1150      2.4733     -0.0045     10.7109     55.3084
   732.9000      8.1150      2.4757      0.0430     10.5663     53.9857
   733.0000      8.1087      2.4816      0.0743     10.2039     51.8904
   733.1000      8.1087      2.4826      0.0312     10.1461     49.8594
   733.2000      8.1087      2.4841      0.0203     10.0561     47.3177
   733.3000      8.1007      2.4885      0.0353      9.7863     47.0985
   733.4000      8.1007      2.4919      0.0342      9.5813     51.5754
   733.5000      8.0923      2.4959      0.0675      9.3376     55.4311
   733.6000      8.0923      2.4971      0.0737      9.2659     53.9213
   733.7000      8.0923      2.4939      0.0673      9.4620     51.9871
   733.8000      8.0852      2.4997      0.0338      9.1110     54.4481
   733.9000      8.0852      2.5239      0.0556      7.6402     60.0613
   734.0000      8.0788      2.5546      0.0798      5.7838     64.1694
   734.1000      8.0788      2.5728      0.1015      4.6791     63.3102
   734.2000      8.0788      2.5733      0.0876      4.6469     61.3864
   734.3000      8.0762      2.5641      0.0591      5.2049     62.0233
   734.4000      8.0762      2.5521      0.0707      5.9355     62.9038
   734.5000      8.0781      2.5406      0.0662      6.6320     63.2775
   734.6000      8.0781      2.5367      0.0397      6.8645     63.6575
   734.7000      8.0781      2.5431      0.0388      6.4789     63.7555
   734.8000      8.0812      2.5556      0.0155      5.7210     63.3799
   734.9000      8.0812      2.5718      0.0534      4.7396     64.3502
   735.0000      8.0863      2.5842      0.0918      3.9877     69.8047
   735.1000      8.0863      2.5805      0.0639      4.2128     76.6644
   735.2000      8.0863      2.5597      0.0536      5.4728     79.8823
   735.3000      8.0905      2.5408      0.0390      6.6172     83.5585
   735.4000      8.0905      2.5501      0.0272      6.0548     91.9507
   735.5000      8.0903      2.5822      0.1070      4.1062     99.4651
   735.6000      8.0903      2.6065      0.0608      2.6350    101.0067
   735.7000      8.0903      2.6106      0.0665      2.3864    102.3648
   735.8000      8.0893      2.5986      0.0788      3.1163    107.8540
   735.9000      8.0893      2.5797      0.0676      4.2622    111.9389
   736.0000      8.0918      2.5650      0.0732      5.1534    112.6018
   736.1000      8.0918      2.5611      0.0367      5.3885    111.0549
   736.2000      8.0918      2.5737      0.0661      4.6257    108.7756
   736.3000      8.0947      2.5919      0.1005      3.5229    107.3042
   736.4000      8.0947      2.5965      0.0609      3.2433    103.8917
   736.5000      8.0935      2.5925      0.0226      3.4831     96.1751
   736.6000      8.0935      2.5894      0.0907      3.6733     91.4107
   736.7000      8.0935      2.5877      0.0340      3.7781     95.2845
   736.8000      8.0936      2.5987      0.0516      3.1114    102.7809
   736.9000      8.0936      2.6219      0.0784      1.7014    110.8884
   737.0000      8.0956      2.6319      0.1018      1.0981    119.8211
   737.1000      8.0956      2.6138      0.0478      2.1923    126.1479
   737.2000      8.0956      2.5840      0.0221      4.0003    126.9329
   737.3000      8.0945      2.5670      0.0169      5.0282    123.0362
   737.4000      8.0945      2.5739      0.0083      4.6117    120.7261
   737.5000      8.0949      2.5961      0.0110      3.2654    123.2766
   737.6000      8.0949      2.6098      0.0614      2.4388    126.9599
   737.7000      8.0949      2.5970      0.0565      3.2102    125.6474
   737.8000      8.0985      2.5681      0.0277      4.9662    116.7126
   737.9000      8.0985      2.5465     -0.0110      6.2738    109.2785
   738.0000      8.0995      2.5432      0.0076      6.4755    109.9202
   738.1000      8.0995      2.5503     -0.0109      6.0398    110.3886
   738.2000      8.0995      2.5508      0.0309      6.0141    103.0718
   738.3000      8.0952      2.5331      0.0489      7.0834     91.6356
   738.4000      8.0952      2.5079     -0.0023      8.6136     83.6609
   738.5000      8.0918      2.4893      0.0408      9.7405     81.2604
   738.6000      8.0918      2.4778      0.0173     10.4374     81.7337
   738.7000      8.0918      2.4787      0.0336     10.3792     81.6059
   738.8000      8.0936      2.4947      0.0842      9.4098     78.9507
   738.9000      8.0936      2.5089      0.1283      8.5540     75.2231
   739.0000      8.0975      2.5029      0.1143      8.9163     73.1828
   739.1000      8.0975      2.4793      0.0714     10.3441     73.1285
   739.2000      8.0975      2.4615      0.0139     11.4227     71.2679
   739.3000      8.0996      2.4653      0.0399     11.1932     66.2472
   739.4000      8.0996      2.4765      0.0654     10.5152     61.9278
   739.5000      8.1033      2.4773      0.0711     10.4691     59.3801
   739.6000      8.1033      2.4735      0.0334     10.6966     56.8457
   739.7000      8.1033      2.4789      0.0521     10.3675     55.1223
   739.8000      8.1089      2.4887      0.0513      9.7760     54.8183
   739.9000      8.1089      2.4921      0.0808      9.5677     53.8022
   740.0000      8.1120      2.4924      0.0831      9.5515     51.3983
   740.1000      8.1120      2.4964      0.0414      9.3071     49.5206
   740.2000      8.1120      2.4991      0.0811      9.1445     49.6813
   740.3000      8.1091      2.4876      0.0689      9.8434     51.8862
   740.4000      8.1091      2.4661      0.0308     11.1434     54.3847
   740.5000      8.1036      2.4544      0.0303     11.8530     55.5193
   740.6000      8.1036      2.4572      0.0705     11.6862     56.9612
   740.7000      8.1036      2.4648      0.0619     11.2265     59.3438
   740.8000      8.0987      2.4730      0.0573     10.7297     59.2562
   740.9000      8.0987      2.4790      0.0467     10.3642     56.3297
   741.0000      8.0969      2.4758      0.0743     10.5605     55.7812
   741.1000      8.0969      2.4631      0.0390     11.3267     58.2106
   741.2000      8.0969      2.4532      0.0257     11.9275     58.4856
