~Version Information
 VERS.                                  2.0 : CWLS LAS VERSION
 WRAP.                                   NO : WRAPING MODE
 SWARE .                 MController 2.5.0J : SOFTWARE VERSION
~Well Information
 WELL.                     McDonald 33-31 R : WELL
 COMP.  Pioneer Natural Resources USA, Inc. : COMPANY
 FLD.                      Purgatoire River : FIELD
 LOC.                NW/SE Sec 31 T32S R66W : LOCATION
 DATE.                             09/22/05 : DATE(S) LOGGED
 SRVC.       BLANCO Geological Services LLC : SERVICE COMPANY
 STAT.                                   CO : STATE
 CNTY.                           Las Animas : COUNTY
 CTRY.                                  USA : COUNTRY
 API.                       05-071-08533-00 : API NUMBER
 STRT.FT                             377.00 : START DEPTH
 STOP.FT                            2310.00 : STOP DEPTH
 STEP.FT                               1.00 : DEPTH INCREMENT
 NULL.                                -9999 : NULL VALUE
~Curve information
 DEPTH.FT                                   :
 ROP.MIN/FT                                 :
 GAS.UNITS                                  :
~ASCII Log data
# ...
      1377.0         0.27        514.0 
      1378.0         0.27        525.1 
      1379.0         0.30        558.4 
      1380.0         3.28       1513.4 
      1381.0         0.33        706.0 
      1382.0         0.30        657.1 
      1383.0         0.35        643.2 
      1384.0         0.47        627.6 
      1385.0         0.23        596.5 
      1386.0         0.23        589.2 
      1387.0         0.23        580.6 
      1388.0         0.23        578.1 
      1389.0         0.20        581.9 
      1390.0         0.17        589.8 
      1391.0         0.20        592.4 
      1392.0         0.27        590.5 
      1393.0         0.37        585.4 
      1394.0         0.30        570.2 
      1395.0         0.28        570.5 
      1396.0         0.20        570.5 
      1397.0         0.23        580.3 
      1398.0         0.20        584.5 
      1399.0         0.20        588.9 
      1400.0         0.23        590.2 
      1401.0         0.33        594.0 
      1402.0         0.30        592.7 
      1403.0         0.27        614.3 
      1404.0         0.27        620.0 
      1405.0         0.30        559.7 
      1406.0         0.13        534.9 
      1407.0         0.17        541.6 
      1408.0         0.13        551.4 
      1409.0         0.15        571.8 
      1410.0         4.12       2378.3 
      1411.0         0.37        847.9 
      1412.0         0.30        780.3 
      1413.0         0.27        742.5 
      1414.0         0.30        709.8 
      1415.0         0.30        685.4 
      1416.0         0.27        667.3 
      1417.0         0.27        648.9 
      1418.0         0.35        621.0 
      1419.0         0.30        566.0 
      1420.0         0.27        535.6 
      1421.0         0.27        512.1 
      1422.0         0.27        494.3 
      1423.0         0.27        478.8 
      1424.0         0.27        464.8 
      1425.0         0.27        457.8 
      1426.0         0.27        454.3 
      1427.0         0.23        451.8 
      1428.0         0.23        450.5 
      1429.0         0.23        451.2 
      1430.0         0.25        456.5 
      1431.0         0.23        459.4 
      1432.0         0.23        458.5 
      1433.0         0.23        459.4 
      1434.0         0.27        456.2 
      1435.0         0.23        451.5 
      1436.0         0.27        446.7 
      1437.0         0.23        445.4 
      1438.0         0.23        448.6 
      1439.0         0.23        451.2 
      1440.0         3.48        450.8 
      1441.0         0.30         13.5 
      1442.0         0.27         14.5 
      1443.0         0.23         12.5 
      1444.0         0.28         10.3 
      1445.0         0.27          8.4 
      1446.0         0.23          8.2 
      1447.0         0.37          7.8 
      1448.0         0.17          8.1 
      1449.0         0.23          7.4 
      1450.0         0.20          8.0 
      1451.0         0.20          7.8 
      1452.0         0.20          7.6 
      1453.0         0.20          7.2 
      1454.0         0.13          7.4 
      1455.0         0.17          8.0 
      1456.0         0.23          7.6 
      1457.0         0.37         17.2 
      1458.0         0.28         95.6 
      1459.0         0.23        118.8 
      1460.0         0.23        125.6 
      1461.0         0.20        128.7 
      1462.0         0.30        128.6 
      1463.0         0.30        129.5 
      1464.0         0.33        127.5 
      1465.0         0.27        131.4 
      1466.0         0.30        132.5 
      1467.0         0.37        123.8 
      1468.0         0.27         82.6 
      1469.0         0.28         92.7 
      1470.0         2.97        432.3 
      1471.0         0.42        318.5 
      1472.0         0.43        246.0 
      1473.0         0.27        216.6 
      1474.0         0.27        194.8 
      1475.0         0.27        170.2 
      1476.0         0.23        153.0 
      1477.0         0.32        149.3 
      1478.0         0.40        142.4 
      1479.0         0.43        138.5 
      1480.0         0.40        137.3 
      1481.0         0.33        132.3 
      1482.0         0.30        133.1 
      1483.0         0.23        133.8 
      1484.0         0.20        132.7 
      1485.0         0.20        128.6 
      1486.0         0.20        128.1 
      1487.0         0.27        134.5 
      1488.0         0.32        135.5 
      1489.0         0.37        136.2 
      1490.0         0.37        135.8 
      1491.0         0.23        125.1 
      1492.0         0.20        123.2 
      1493.0         0.20        127.2 
      1494.0         0.33        130.0 
      1495.0         0.43        131.8 
      1496.0         0.33        127.6 
      1497.0         0.30        111.7 
      1498.0         0.17         74.3 
      1499.0         0.20         79.9 
      1500.0         3.37        447.1 
      1501.0         0.43        326.3 
      1502.0         0.30        267.8 
      1503.0         0.23        227.4 
      1504.0         0.23        193.5 
      1505.0         0.23        168.1 
      1506.0         0.23        155.9 
      1507.0         0.27        147.8 
      1508.0         0.20        142.2 
      1509.0         0.33        141.3 
      1510.0         0.33        136.5 
      1511.0         0.27        135.7 
      1512.0         0.42        135.3 
      1513.0         0.27        135.9 
      1514.0         0.27        134.0 
      1515.0         0.27        130.9 
      1516.0         0.27        130.0 
      1517.0         0.27        128.4 
      1518.0         0.23        129.9 
      1519.0         0.23        129.8 
      1520.0         0.27        130.5 
      1521.0         0.23        130.1 
      1522.0         0.23        128.1 
      1523.0         0.20        128.0 
      1524.0         0.28        127.3 
      1525.0         0.20        125.6 
      1526.0         0.23        110.0 
      1527.0         0.20         79.3 
      1528.0         0.20         80.4 
      1529.0         0.23         85.7 
      1530.0         2.85        347.3 
      1531.0         0.40        303.1 
      1532.0         0.33        260.8 
      1533.0         0.27        212.0 
      1534.0         0.23        179.8 
      1535.0         0.23        160.6 
      1536.0         0.23        150.2 
      1537.0         0.20        144.2 
      1538.0         0.20        140.2 
      1539.0         0.20        134.2 
      1540.0         0.20        133.4 
      1541.0         0.25        130.8 
      1542.0         0.40        129.3 
      1543.0         0.37        128.0 
      1544.0         0.40        129.2 
      1545.0         0.27        131.8 
      1546.0         0.23        134.1 
      1547.0         0.33        134.3 
      1548.0         0.27        132.9 
      1549.0         0.23        131.8 
      1550.0         0.27        130.1 
      1551.0         0.32        130.3 
      1552.0         0.27        130.1 
      1553.0         0.27        128.8 
      1554.0         0.27        128.5 
      1555.0         0.23        127.8 
      1556.0         0.27        126.2 
      1557.0         0.23         90.3 
      1558.0         0.23         82.8 
      1559.0         0.27         89.0 
      1560.0         3.32        451.5 
      1561.0         0.43        272.0 
      1562.0         0.40        225.4 
      1563.0         0.33        179.0 
      1564.0         0.32        162.9 
      1565.0         0.23        151.6 
      1566.0         0.23        147.3 
      1567.0         0.27        141.7 
      1568.0         0.20        137.3 
      1569.0         0.23        134.0 
      1570.0         0.17        131.3 
      1571.0         0.20        130.1 
      1572.0         0.20        129.0 
      1573.0         0.20        126.4 
      1574.0         0.20        130.3 
      1575.0         0.17        130.3 
      1576.0         0.17        128.9 
