~Version Information
VERS.                      2.0: CWLS Log ASCII Standard - VERSION 2.0
WRAP.                       NO: One line per depth step
~Well Information Block
STRT.FT               530.0000: 
STOP.FT              1298.0000: 
STEP.FT                 0.1000: 
NULL.                -999.2500: 
COMP.          Pioneer Natural Resources: COMPANY
WELL.            Keiko 14-6 Tr: WELL
FLD.           Purgatoire River: FIELD
LOC.           462' FSL & 1202' FWL: LOCATION
PROV.                 Colorado: PROVINCE
CNTY.               Las Animas: COUNTRY
SRVC.                Patterson: SERVICE COMPANY
DATE.          Fri Dec 30 07:26:03 2005: LOG DATE
UWI.           05 071 08629 00: UNIQUE WELL ID
~Curve Information Block
DEPT.FT            0 000 00 00: Depth
DCAL.in                       : CDL Caliper
RHOB.g/cc                     : CDL Bulk Density
RHOC.g/cc                     : CDL Density Correction
DPOR.pu                       : CDL Density Porosity
GR.GAPI                       : Gamma Ray
~Parameter Information Block
~A  Depth       DCAL        RHOB        RHOC        DPOR         GR     
# ...
   787.6000      8.0628      2.5975      0.0361      3.1792     92.7667
   787.7000      8.0628      2.6230      0.0513      1.6340     99.4555
   787.8000      8.0599      2.6307      0.0633      1.1679    106.8364
   787.9000      8.0599      2.6143      0.0523      2.1647    108.1692
   788.0000      8.0592      2.5881      0.0491      3.7501    103.7075
   788.1000      8.0592      2.5716     -0.0168      4.7529     97.7597
   788.2000      8.0592      2.5742      0.0116      4.5955     93.3951
   788.3000      8.0610      2.5894      0.0034      3.6753     93.7016
   788.4000      8.0610      2.6001      0.0230      3.0227     99.4566
   788.5000      8.0604      2.5943      0.0042      3.3760    107.1186
   788.6000      8.0604      2.5772      0.0022      4.4136    112.4178
   788.7000      8.0604      2.5594     -0.0038      5.4924    113.5659
   788.8000      8.0624      2.5404     -0.0028      6.6437    111.5679
   788.9000      8.0624      2.5228     -0.0486      7.7063    109.5823
   789.0000      8.0630      2.5164     -0.0263      8.0958    109.1345
   789.1000      8.0630      2.5176     -0.0189      8.0249    110.2304
   789.2000      8.0630      2.5149     -0.0274      8.1861    115.1882
   789.3000      8.0633      2.5063     -0.0332      8.7082    125.5192
   789.4000      8.0633      2.4984     -0.0433      9.1884    137.9134
   789.5000      8.0631      2.4940     -0.0039      9.4521    146.5519
   789.6000      8.0631      2.4933     -0.0147      9.4969    149.1284
   789.7000      8.0631      2.5008     -0.0109      9.0395    151.3464
   789.8000      8.0628      2.5126      0.0538      8.3288    154.6498
   789.9000      8.0628      2.5215     -0.0053      7.7858    151.8310
   790.0000      8.0560      2.5328      0.0736      7.1013    144.0412
   790.1000      8.0560      2.5469      0.0935      6.2504    138.8632
   790.2000      8.0560      2.5586      0.1249      5.5370    139.8046
   790.3000      8.0664      2.5661      0.1466      5.0842    144.4834
   790.4000      8.0664      2.5689      0.1167      4.9167    148.0419
   790.5000      8.0643      2.5671      0.1033      5.0256    146.7383
   790.6000      8.0643      2.5607      0.0878      5.4129    141.5942
   790.7000      8.0643      2.5526      0.0917      5.9032    136.8535
   790.8000      8.0661      2.5508      0.0699      6.0119    135.7285
   790.9000      8.0661      2.5578      0.0820      5.5897    139.7207
   791.0000      8.0639      2.5696      0.0266      4.8741    141.9368
   791.1000      8.0639      2.5837      0.0925      4.0200    138.8871
   791.2000      8.0639      2.5882      0.1018      3.7428    136.7585
   791.3000      8.0629      2.5818      0.0190      4.1343    136.0227
   791.4000      8.0629      2.5901     -0.0052      3.6291    133.8732
   791.5000      8.0637      2.6247      0.0600      1.5346    130.8020
   791.6000      8.0637      2.6586      0.0599     -0.5200    127.4728
   791.7000      8.0637      2.6619      0.0523     -0.7189    125.8080
   791.8000      8.0597      2.6345      0.0272      0.9414    128.0320
   791.9000      8.0597      2.6019     -0.0071      2.9174    133.1339
   792.0000      8.0614      2.5841      0.0097      3.9936    138.4225
   792.1000      8.0614      2.5784     -0.0316      4.3403    140.5893
   792.2000      8.0614      2.5788     -0.0308      4.3170    137.7427
   792.3000      8.0609      2.5855      0.0010      3.9100    134.1748
   792.4000      8.0609      2.5919      0.0618      3.5188    131.9767
   792.5000      8.0616      2.5926      0.0769      3.4780    128.7701
   792.6000      8.0616      2.5915      0.0787      3.5428    125.4427
   792.7000      8.0616      2.5913      0.0633      3.5563    121.5058
   792.8000      8.0614      2.5894      0.0172      3.6745    118.9804
   792.9000      8.0614      2.5849      0.0107      3.9465    119.8236
   793.0000      8.0626      2.5806     -0.0212      4.2081    119.7088
   793.1000      8.0626      2.5719      0.0148      4.7357    117.4075
   793.2000      8.0626      2.5530     -0.0381      5.8779    113.3680
   793.3000      8.0596      2.5382     -0.0332      6.7760    107.0648
   793.4000      8.0596      2.5415     -0.0031      6.5731     99.7403
   793.5000      8.0466      2.5572     -0.0209      5.6266     93.8791
   793.6000      8.0466      2.5730      0.0195      4.6675     92.1654
   793.7000      8.0466      2.5875     -0.0168      3.7904     94.0036
   793.8000      8.0575      2.6117     -0.0111      2.3223     97.5700
   793.9000      8.0575      2.6400      0.0472      0.6046    102.2414
   794.0000      8.0602      2.6493      0.0493      0.0446    105.5457
   794.1000      8.0602      2.6305      0.0167      1.1804    105.5897
   794.2000      8.0602      2.5946     -0.0176      3.3598    104.2957
   794.3000      8.0645      2.5614     -0.0721      5.3726    104.4629
   794.4000      8.0645      2.5482     -0.0524      6.1704    105.4210
   794.5000      8.0591      2.5585     -0.0332      5.5428    104.2671
   794.6000      8.0591      2.5820      0.0159      4.1190    100.3460
   794.7000      8.0591      2.6055     -0.0183      2.6991     97.5509
   794.8000      8.0569      2.6249      0.0145      1.5213     99.7577
   794.9000      8.0569      2.6322      0.0454      1.0785    104.0069
   795.0000      8.0531      2.6200      0.0115      1.8211    103.5591
   795.1000      8.0531      2.6013     -0.0202      2.9536     97.5809
   795.2000      8.0531      2.5904      0.0037      3.6099     92.9448
   795.3000      8.0540      2.5855      0.0037      3.9115     93.3712
   795.4000      8.0540      2.5766      0.0241      4.4489     96.0927
   795.5000      8.0538      2.5592      0.0213      5.5036     97.8675
   795.6000      8.0538      2.5354      0.0527      6.9442     98.7010
   795.7000      8.0538      2.5019      0.0387      8.9729    101.7986
   795.8000      8.0552      2.4529      0.0429     11.9455    106.4110
   795.9000      8.0552      2.3984     -0.0180     15.2509    111.0961
   796.0000      8.0552      2.3551     -0.0040     17.8729    115.9103
   796.1000      8.0552      2.3190      0.0143     20.0624    116.3239
   796.2000      8.0552      2.2848     -0.0463     22.1305    113.3833
   796.3000      8.0540      2.2694     -0.0594     23.0667    111.9377
   796.4000      8.0540      2.2836      0.0191     22.2070    109.0934
   796.5000      8.0555      2.3243      0.0272     19.7404    103.4084
   796.6000      8.0555      2.3902      0.0912     15.7440    103.0256
   796.7000      8.0555      2.4681      0.1542     11.0258    110.2716
   796.8000      8.0553      2.5270      0.2108      7.4548    114.4851
   796.9000      8.0553      2.5498      0.1094      6.0737    111.6143
   797.0000      8.0517      2.5488      0.0433      6.1320    107.0635
   797.1000      8.0517      2.5366      0.0586      6.8702    103.9614
   797.2000      8.0517      2.5074      0.0868      8.6454    104.4312
   797.3000      8.0518      2.4651      0.0146     11.2087    110.3594
   797.4000      8.0518      2.4348      0.0068     13.0454    118.8587
   797.5000      8.0419      2.4292      0.0105     13.3800    122.1160
   797.6000      8.0419      2.4422      0.0334     12.5939    119.0889
   797.7000      8.0419      2.4702      0.0250     10.9000    116.6273
   797.8000      8.0453      2.5185      0.0116      7.9727    115.1922
   797.9000      8.0453      2.5787      0.1445      4.3194    110.0160
   798.0000      8.0477      2.6246      0.1340      1.5412    101.8073
   798.1000      8.0477      2.6496      0.1370      0.0243     94.7951
   798.2000      8.0477      2.6714      0.1342     -1.2999     91.8276
   798.3000      8.0422      2.6942      0.1674     -2.6800     90.1827
   798.4000      8.0422      2.7029      0.1422     -3.2038     83.5751
   798.5000      8.0451      2.6995      0.0061     -2.9999     73.1101
   798.6000      8.0451      2.7003     -0.0188     -3.0493     66.1708
   798.7000      8.0451      2.7014      0.0169     -3.1157     63.4229
