~Version Information
VERS.                      2.0: CWLS Log ASCII Standard - VERSION 2.0
WRAP.                       NO: One line per depth step
~Well Information Block
STRT.FT               410.0000: 
STOP.FT              1530.5000: 
STEP.FT                 0.1000: 
NULL.                -999.2500: 
COMP.          Pioneer Natural Resources: COMPANY
WELL.          Pioneer 34-27 Tr: WELL
FLD.           Purgatoire River: FIELD
LOC.           243' FSL & 1593' FEL: LOCATION
STAT.                 Colorado: State
CNTY.               Las Animas: COUNTY
CTRY. USA : Country
SECT. 27 : Section
TOWN. 32S : Township
RANG. 67W : Range 
SRVC.                Patterson: SERVICE COMPANY
DATE.          Fri Oct 07 07:11:38 2005: LOG DATE
API.           05 071 08548 00: UNIQUE WELL ID
~Curve Information Block
DEPT.FT            0 000 00 00: Depth
DCAL.in                       : CDL Caliper
RHOB.g/cc                     : CDL Bulk Density
RHOC.g/cc                     : CDL Density Correction
DPOR.pu                       : CDL Density Porosity
GR.GAPI                       : Gamma Ray
NPOR.pu                       : Neutron Porosity
~Parameter Information Block
~A  Depth       DCAL        RHOB        RHOC        DPOR         GR         NPOR    
   410.0000      4.9178      2.1225      0.5760     31.9711     67.9513     13.0347
   410.1000      4.9178      2.1268      0.5884     31.7079     70.0992     12.8703
   410.2000      4.9178      2.1281      0.6013     31.6280     70.9822     13.1166
   410.3000      4.9000      2.1262      0.5969     31.7454     69.1613     13.2771
   410.4000      4.9000      2.1236      0.6129     31.9005     67.2205     13.3943
   410.5000      4.8983      2.1169      0.6021     32.3095     64.6562     13.5910
   410.6000      4.8983      2.1071      0.5965     32.9026     60.3979     13.4967
   410.7000      4.8983      2.1044      0.5870     33.0656     56.5180     12.9706
   410.8000      4.9031      2.1104      0.5995     32.7009     55.7307     12.8011
   410.9000      4.9031      2.1184      0.6077     32.2201     58.6830     13.1255
   411.0000      4.9094      2.1249      0.5981     31.8242     62.6175     13.1654
   411.1000      4.9094      2.1298      0.6055     31.5244     66.2243     13.2464
   411.2000      4.9094      2.1293      0.6227     31.5577     72.2268     14.1298
   411.3000      4.9050      2.1208      0.5893     32.0738     79.7240     15.4107
   411.4000      4.9050      2.1082      0.5956     32.8356     83.5785     16.1866
   411.5000      4.9149      2.0928      0.5947     33.7719     84.0237     15.8847
   411.6000      4.9149      2.0790      0.5897     34.6055     87.7003     14.7423
   411.7000      4.9149      2.0783      0.5491     34.6487     94.9982     13.7979
   411.8000      4.9179      2.0914      0.5942     33.8571     99.2516     13.9870
   411.9000      4.9179      2.1032      0.6161     33.1417     99.1501     14.6489
   412.0000      4.9139      2.1058      0.5828     32.9834     98.0306     14.1790
   412.1000      4.9139      2.1034      0.6216     33.1259     96.2590     12.9832
   412.2000      4.9139      2.0961      0.5986     33.5682     92.6583     12.5479
   412.3000      4.9243      2.0882      0.5762     34.0506     88.0171     13.4108
   412.4000      4.9243      2.0913      0.5962     33.8592     85.7483     14.7151
   412.5000      4.9062      2.1049      0.6144     33.0336     85.4774     14.7022
   412.6000      4.9062      2.1150      0.6044     32.4229     83.1228     13.2595
   412.7000      4.9062      2.1099      0.6165     32.7338     78.3902     12.3171
   412.8000      4.9219      2.0925      0.6061     33.7870     72.6241     12.5647
   412.9000      4.9219      2.0788      0.5707     34.6203     69.5196     13.0997
   413.0000      4.9090      2.0757      0.5960     34.8047     72.4365     13.1249
   413.1000      4.9090      2.0745      0.5948     34.8795     76.4065     12.6921
   413.2000      4.9090      2.0711      0.5762     35.0860     72.7758     12.4572
   413.3000      4.9075      2.0707      0.5778     35.1093     62.4976     12.8686
   413.4000      4.9075      2.0714      0.6151     35.0645     55.2805     13.5329
   413.5000      4.9148      2.0637      0.6071     35.5332     56.2137     13.6103
   413.6000      4.9148      2.0443      0.5986     36.7101     60.6680     13.1490
   413.7000      4.9148      2.0216      0.5707     38.0821     60.6460     12.5659
   413.8000      4.9070      2.0067      0.5636     38.9883     55.6807     11.6864
   413.9000      4.9070      1.9996      0.5855     39.4188     51.6025     10.8555
   414.0000      4.9058      1.9956      0.5664     39.6600     49.5978     10.9947
   414.1000      4.9058      1.9962      0.5654     39.6242     47.0446     11.9985
   414.2000      4.9058      2.0026      0.5819     39.2359     43.9752     12.8435
   414.3000      4.9036      2.0081      0.6106     38.9016     42.7759     13.0883
   414.4000      4.9036      2.0046      0.6056     39.1130     44.8837     13.1919
   414.5000      4.9112      1.9932      0.5652     39.8058     52.1103     13.5380
   414.6000      4.9112      1.9818      0.5577     40.4943     61.0503     13.5914
   414.7000      4.9112      1.9745      0.5644     40.9411     62.0115     12.9418
   414.8000      4.9097      1.9703      0.5756     41.1916     55.3101     12.4337
   414.9000      4.9097      1.9673      0.5763     41.3763     48.8795     12.8228
   415.0000      4.8956      1.9626      0.5647     41.6618     45.4886     13.4052
   415.1000      4.8956      1.9556      0.5570     42.0873     45.1939     13.4409
   415.2000      4.8956      1.9468      0.5886     42.6176     46.2551     13.3125
   415.3000      4.9040      1.9480      0.5456     42.5472     48.9710     13.2545
   415.4000      4.9040      1.9993      0.5553     39.4384     48.5443     13.1195
   415.5000      4.8934      2.1709      0.5884     29.0379     46.2698     12.9784
   415.6000      4.8934      2.5121      0.6487      8.3548     45.3174     12.9117
   415.7000      4.8934      2.9379      0.8676    -17.4504     45.9988     12.6847
   415.8000      4.9004      3.2607      0.9232    -37.0098     48.2635     12.0829
   415.9000      4.9004      3.3924      0.9506    -44.9918     50.5912     11.5236
   416.0000      5.2636      3.3570      0.9430    -42.8460     49.5759     11.5869
   416.1000      5.2636      3.1575      0.8917    -30.7559     45.4751     12.0676
   416.2000      5.2636      2.8006      0.3999     -9.1246     37.7342     12.5427
   416.3000      7.9266      2.4068     -0.3530     14.7372     37.6645     13.1593
   416.4000      7.9266      2.1356     -0.5142     31.1788     40.8270     13.5161
   416.5000      8.2876      2.0169     -0.5052     38.3714     42.7696     13.1469
   416.6000      8.2876      1.9762     -0.4543     40.8389     39.3819     12.9341
   416.7000      8.2876      1.9611     -0.5067     41.7530     35.3131     13.2367
   416.8000      8.2900      1.9580     -0.5140     41.9365     35.5119     13.5932
   416.9000      8.2900      1.9443     -0.4781     42.7701     37.8794     13.8823
   417.0000      8.2905      1.9214     -0.6086     44.1565     40.0703     13.9275
   417.1000      8.2905      1.9344     -0.5477     43.3708     44.4413     13.7978
   417.2000      8.2905      1.9821     -0.4505     40.4769     43.3846     13.7935
   417.3000      8.2933      2.0083     -0.4164     38.8900     43.7174     13.8103
   417.4000      8.2933      1.9909     -0.4739     39.9480     42.8926     13.7164
   417.5000      8.2934      1.9578     -0.5228     41.9504     43.2860     13.6726
   417.6000      8.2934      1.9394     -0.5380     43.0671     43.5730     13.5319
   417.7000      8.2934      1.9421     -0.5827     42.9045     42.9943     12.9135
   417.8000      8.2974      1.9543     -0.5095     42.1648     40.7375     12.3537
   417.9000      8.2974      1.9644     -0.5437     41.5490     37.1732     12.6062
   418.0000      8.2936      1.9710     -0.5006     41.1499     37.0864     13.5995
   418.1000      8.2936      1.9803     -0.5205     40.5867     43.2679     14.7278
   418.2000      8.2936      2.0015     -0.5750     39.3036     44.4145     15.0946
   418.3000      8.2918      2.0254     -0.4295     37.8575     49.6227     14.4516
   418.4000      8.2918      2.0405     -0.4764     36.9407     54.7185     14.0778
   418.5000      8.2930      2.0726     -0.5262     34.9913     59.1696     15.2212
   418.6000      8.2930      2.1238     -0.3965     31.8934     61.7299     17.4725
   418.7000      8.2930      2.1478     -0.4230     30.4334     65.7545     19.6232
   418.8000      8.2931      2.1340     -0.4240     31.2746     73.6458     21.2287
   418.9000      8.2931      2.1018     -0.4293     33.2228     79.9660     22.2689
   419.0000      8.2930      2.0639     -0.5178     35.5215     80.1754     22.3150
   419.1000      8.2930      2.0453     -0.5376     36.6494     80.3645     21.6389
   419.2000      8.2930      2.0594     -0.5043     35.7915     88.5556     21.2784
   419.3000      8.2956      2.0782     -0.3676     34.6532    100.8547     21.6511
   419.4000      8.2956      2.0817     -0.4691     34.4446    106.4827     22.4001
   419.5000      8.2937      2.0892     -0.4591     33.9884    102.6058     22.9441
