~Version Information
VERS.                      2.0: CWLS Log ASCII Standard - VERSION 2.0
WRAP.                       NO: One line per depth step
~Well Information Block
STRT.FT               650.0000: 
STOP.FT              2127.7000: 
STEP.FT                 0.1000: 
NULL.                -999.2500: 
COMP.          Pioneer Natural Resources: COMPANY
WELL.          Kennington 41-26: WELL
FLD.           Purgatoire River: FIELD
LOC.           940' FNL & 1008' FEL--: LOCATION
CNTY.               Las Animas: COUNTY
SRVC.                Patterson: SERVICE COMPANY
DATE.          Wed Mar 29 11:30:50 2006: LOG DATE
UWI.           05 071 08679 00: UNIQUE WELL ID
STAT.                 Colorado: STATE
~Curve Information Block
DEPT.FT            0 000 00 00: Depth
DCAL.in                       : CDL Caliper
RHOB.g/cc                     : CDL Bulk Density
RHOC.g/cc                     : CDL Density Correction
DPOR.pu                       : CDL Density Porosity
NPOR.pu                       : Neutron Porosity
GR.GAPI                       : Gamma Ray
~Parameter Information Block
~A  Depth       DCAL        RHOB        RHOC        DPOR        NPOR         GR     
# ...
  1907.6000      7.8736      2.2225      0.0217     25.9119     24.7948    106.0855
  1907.7000      7.8736      2.2608      0.0433     23.5852     24.8755    104.8202
  1907.8000      7.8883      2.3080      0.1056     20.7267     24.9528    104.2151
  1907.9000      7.8883      2.3475      0.1542     18.3303     24.6891    104.1651
  1908.0000      7.9030      2.3678      0.0911     17.1034     24.1138    106.7408
  1908.1000      7.9030      2.3776      0.0962     16.5116     23.8930    112.4801
  1908.2000      7.9030      2.3884      0.0895     15.8560     24.1832    120.2566
  1908.3000      7.9054      2.4042      0.0778     14.8976     24.3709    129.2092
  1908.4000      7.9054      2.4245      0.0815     13.6673     24.2091    136.6491
  1908.5000      7.8985      2.4452      0.0743     12.4110     23.9960    141.1163
  1908.6000      7.8985      2.4613      0.0645     11.4348     24.0284    144.9035
  1908.7000      7.8985      2.4700      0.0448     10.9098     24.3053    148.0874
  1908.8000      7.8950      2.4686      0.1012     10.9946     24.4666    148.3817
  1908.9000      7.8950      2.4572      0.0772     11.6845     24.4333    147.5871
  1909.0000      7.8948      2.4475      0.0169     12.2711     24.5118    143.9806
  1909.1000      7.8948      2.4490      0.0434     12.1788     24.7150    134.2999
  1909.2000      7.8948      2.4545      0.0580     11.8514     24.8680    126.9201
  1909.3000      7.8918      2.4570      0.0646     11.6954     25.0344    132.1580
  1909.4000      7.8918      2.4586      0.0600     11.6006     25.0497    144.3153
  1909.5000      7.8887      2.4587      0.0692     11.5943     24.2677    150.3154
  1909.6000      7.8887      2.4486      0.0901     12.2053     22.8428    146.4772
  1909.7000      7.8887      2.4244      0.0342     13.6753     22.0255    139.9350
  1909.8000      7.8920      2.4034     -0.0274     14.9463     22.5757    135.9479
  1909.9000      7.8920      2.4055      0.0211     14.8181     24.0455    134.4447
  1910.0000      7.8949      2.4237      0.0240     13.7177     25.3326    136.3294
  1910.1000      7.8949      2.4388      0.0355     12.7974     25.8862    142.5299
  1910.2000      7.8949      2.4413      0.0549     12.6489     25.9387    148.9157
  1910.3000      7.8944      2.4295      0.0736     13.3660     25.9014    149.7669
  1910.4000      7.8944      2.4106      0.0110     14.5077     26.0021    145.2220
  1910.5000      7.8927      2.3878      0.0463     15.8914     26.3326    139.0311
  1910.6000      7.8927      2.3418      0.0387     18.6807     26.6783    134.4198
  1910.7000      7.8927      2.2599      0.0137     23.6396     26.7654    131.7683
  1910.8000      7.8854      2.1626     -0.0273     29.5406     27.1111    127.7507
  1910.9000      7.8854      2.0720     -0.0499     35.0332     28.2385    119.5009
  1911.0000      7.8710      1.9858     -0.0922     40.2550     29.5615    111.2711
  1911.1000      7.8710      1.9015     -0.0842     45.3649     30.3625    110.7284
  1911.2000      7.8710      1.8354     -0.1172     49.3684     30.7768    117.1613
  1911.3000      7.8650      1.8011     -0.1227     51.4480     30.9100    121.3760
  1911.4000      7.8650      1.7785     -0.0314     52.8164     30.7263    117.7335
  1911.5000      7.8846      1.7394     -0.0124     55.1874     30.1544    112.3989
  1911.6000      7.8846      1.7042     -0.0372     57.3230     28.9458    112.0733
  1911.7000      7.8846      1.7192      0.0183     56.4149     27.6072    113.3729
  1911.8000      7.9222      1.7939      0.0681     51.8826     27.0403    113.7080
  1911.9000      7.9222      1.9033      0.1118     45.2556     27.1587    117.9091
  1912.0000      7.9533      2.0131      0.1610     38.5980     27.0520    126.2764
  1912.1000      7.9533      2.1009      0.1727     33.2800     26.5782    129.0181
  1912.2000      7.9533      2.1751      0.1665     28.7848     26.4018    121.4451
  1912.3000      7.9670      2.2516      0.1827     24.1476     26.3764    110.4282
  1912.4000      7.9670      2.3180      0.2325     20.1218     25.9781    104.7409
  1912.5000      7.9605      2.3594      0.1463     17.6127     25.5115    106.3615
  1912.6000      7.9605      2.3826      0.1425     16.2088     25.3278    108.0055
  1912.7000      7.9605      2.3811      0.1445     16.2953     25.5311    104.8681
  1912.8000      7.9391      2.3326      0.1184     19.2362     26.2761    100.9827
  1912.9000      7.9391      2.2404      0.0379     24.8216     27.4186    100.9604
  1913.0000      7.9253      2.1276      0.0006     31.6626     28.4862    100.9441
  1913.1000      7.9253      1.9996     -0.1022     39.4169     29.2965     95.4378
  1913.2000      7.9253      1.8645     -0.1223     47.6039     30.3555     89.1875
  1913.3000      7.9204      1.7520     -0.1746     54.4217     31.7276     85.8920
  1913.4000      7.9204      1.6765     -0.1228     59.0025     32.7981     79.8936
  1913.5000      7.9157      1.6062     -0.0889     63.2593     33.0579     70.8549
  1913.6000      7.9157      1.5165     -0.1482     68.6953     32.6167     65.3583
  1913.7000      7.9157      1.4415     -0.1771     73.2417     32.2208     64.6244
  1913.8000      7.9193      1.4227     -0.0597     74.3804     32.6334     63.7357
  1913.9000      7.9193      1.4430      0.0578     73.1534     33.8797     59.3764
  1914.0000      7.9525      1.4579      0.0597     72.2492     35.1233     54.5229
  1914.1000      7.9525      1.4530      0.0783     72.5469     35.3321     53.6993
  1914.2000      7.9525      1.4386      0.0601     73.4178     34.8500     54.5925
  1914.3000      7.9914      1.4211      0.0695     74.4783     34.7577     51.8255
  1914.4000      7.9914      1.3982      0.0252     75.8692     35.1418     46.5761
  1914.5000      7.9924      1.3692      0.0228     77.6231     35.6257     41.7952
  1914.6000      7.9924      1.3383      0.0028     79.4987     35.8438     37.2868
  1914.7000      7.9924      1.3110     -0.0002     81.1500     35.5800     33.2521
  1914.8000      8.0168      1.2889      0.0238     82.4932     35.0943     31.1933
  1914.9000      8.0168      1.2758     -0.0004     83.2858     34.7570     32.3195
  1915.0000      8.1111      1.2858      0.0140     82.6774     34.7699     33.3740
  1915.1000      8.1111      1.3289      0.0360     80.0642     35.1505     30.9652
  1915.2000      8.1111      1.4077      0.0763     75.2916     35.4747     28.5165
  1915.3000      8.2166      1.5205      0.1550     68.4555     35.0588     31.5523
  1915.4000      8.2166      1.6530      0.1739     60.4240     33.8038     39.0664
  1915.5000      8.3054      1.7777      0.2468     52.8684     32.3735     45.1252
  1915.6000      8.3054      1.8778      0.2637     46.8014     31.4295     49.9440
  1915.7000      8.3054      1.9713      0.2424     41.1333     30.8529     57.5909
  1915.8000      8.3952      2.0768      0.2931     34.7395     30.3199     65.0651
  1915.9000      8.3952      2.1749      0.3132     28.7922     29.8152     67.9490
  1916.0000      8.3496      2.2460      0.2308     24.4837     28.8925     71.4102
  1916.1000      8.3496      2.3079      0.1471     20.7336     27.5627     82.4683
  1916.2000      8.3496      2.3774      0.1586     16.5228     26.7537     98.2405
  1916.3000      8.1234      2.4311      0.1821     13.2690     26.2920    109.8084
  1916.4000      8.1234      2.4461      0.1327     12.3553     25.4755    113.4831
  1916.5000      7.9428      2.4411      0.0743     12.6623     24.8746    111.5275
  1916.6000      7.9428      2.4388      0.0923     12.8022     24.9977    108.2198
  1916.7000      7.9428      2.4331      0.0694     13.1473     25.5652    108.9557
  1916.8000      7.8791      2.4159      0.0666     14.1858     26.3872    116.1134
  1916.9000      7.8791      2.3985      0.0271     15.2415     27.2228    124.5348
  1917.0000      7.8563      2.3914      0.0390     15.6702     27.9642    123.7479
  1917.1000      7.8563      2.3860      0.0585     16.0015     28.8844    112.1053
