~Version Information
VERS.                      2.0: CWLS Log ASCII Standard - VERSION 2.0
WRAP.                       NO: One line per depth step
~Well Information Block
STRT.FT                -8.5000: 
STOP.FT              2030.0000: 
STEP.FT                 0.2500: 
NULL.                -999.2500: 
COMP.          Pioneer Natural Resources: COMPANY
WELL.           Alabaster 11-8: WELL
FLD.           Purgatorie River: FIELD
LOC.           1249' FNL & 215' FWL--: LOCATION
PROV.                       CO: PROVINCE
CNTY.               Las Animas: COUNTRY
SRVC.          Patterson Wireline: SERVICE COMPANY
DATE.          Mon Jan 30 11:59:01 2006: LOG DATE
UWI.           05 071 08642 00: UNIQUE WELL ID
~Curve Information Block
DEPT.FT            0 000 00 00: Depth
CCL.                          : Casing Collar Locator
TT3.usec                      : CBL 3' Travel Time
AMP3.mV                       : CBL 3' Amplitude
GR.GAPI                       : Gamma Ray
~Parameter Information Block
~A  Depth       CCL         TT3         AMP3         GR     
# ...
  1063.5000      0.0000    358.2295     15.3532    106.0249
  1063.7500      0.0000    351.9981     15.5680    119.8257
  1064.0000      0.0000    359.6018     15.4982    136.5635
  1064.2500      0.0000    383.2792     15.1098    154.8160
  1064.5000      0.0000    426.5905     14.4555    171.2401
  1064.7500      0.0000    487.2197     13.6673    182.2286
  1065.0000      0.0000    553.6635     12.8956    186.0490
  1065.2500      0.0000    610.6946     12.2404    183.7914
  1065.5000      0.0000    648.9417     11.7255    178.5750
  1065.7500      0.0000    668.9139     11.3240    173.8507
  1066.0000      0.0000    677.1549     11.0002    171.8065
  1066.2500      0.0000    680.4886     10.7321    172.4492
  1066.5000      0.0000    683.2834     10.5072    173.7680
  1066.7500      0.0000    687.2742     10.3134    173.2271
  1067.0000      0.0000    691.9380     10.1423    169.7888
  1067.2500      0.0000    695.2524      9.9984    164.7144
  1067.5000      0.0000    695.4246      9.8991    160.2121
  1067.7500      0.0000    692.6357      9.8645    157.2343
  1068.0000      0.0000    689.1467      9.9064    154.7747
  1068.2500      0.0000    687.8334     10.0218    151.2327
  1068.5000      0.0000    690.7565     10.1911    145.8971
  1068.7500      0.0000    698.2085     10.3857    138.8751
  1069.0000      0.0000    707.7952     10.5814    130.5401
  1069.2500      0.0000    714.6960     10.7655    121.9224
  1069.5000      0.0000    714.6251     10.9335    114.9272
  1069.7500      0.0000    707.4382     11.0813    111.1248
  1070.0000      0.0000    697.1736     11.2054    110.4684
  1070.2500      0.0000    688.3649     11.3087    111.5697
  1070.5000      0.0000    682.7670     11.4052    112.8838
  1070.7500      0.0000    679.1135     11.5119    113.5323
  1071.0000      0.0000    674.4575     11.6342    113.3741
  1071.2500      0.0000    665.6039     11.7607    112.4881
  1071.5000      0.0000    650.9727     11.8809    110.6623
  1071.7500      0.0000    632.7789     12.0048    107.5889
  1072.0000      0.0000    617.1870     12.1596    103.6158
  1072.2500      0.0000    610.8009     12.3700     99.9726
  1072.5000      0.0000    615.5302     12.6464     97.8992
  1072.7500      0.0000    625.5846     12.9907     97.5012
  1073.0000      0.0000    629.2853     13.4051     97.5705
  1073.2500      0.0000    616.0579     13.8896     96.3301
  1073.5000      0.0000    585.0974     14.4241     92.3307
  1073.7500      0.0000    548.3757     14.9571     85.3362
  1074.0000      0.0000    522.2212     15.4220     76.9466
  1074.2500      0.0000    512.2009     15.7725     69.9882
  1074.5000      0.0000    506.8925     16.0001     66.6247
  1074.7500      0.0000    489.8474     16.1167     66.9260
  1075.0000      0.0000    457.0128     16.1326     69.1774
  1075.2500      0.0000    419.2421     16.0584     71.4132
  1075.5000      0.0000    389.3067     15.9206     72.7461
  1075.7500      0.0000    371.1514     15.7568     73.5228
  1076.0000      0.0000    361.1212     15.5917     74.4205
  1076.2500      0.0000    354.6248     15.4229     75.5301
  1076.5000      0.0000    349.6562     15.2345     76.2791
  1076.7500      0.0000    346.0999     15.0225     75.9820
  1077.0000      0.0000    344.0338     14.8069     74.5720
  1077.2500      0.0000    343.0811     14.6170     73.1577
  1077.5000      0.0000    342.6979     14.4656     73.5388
  1077.7500      0.0000    342.5455     14.3361     76.6088
  1078.0000      0.0000    342.5264     14.1989     81.4904
  1078.2500      0.0000    342.6276     14.0406     86.5477
  1078.5000      0.0000    342.7967     13.8757     90.6600
  1078.7500      0.0000    342.9378     13.7327     93.2212
  1079.0000      0.0000    342.9939     13.6322     93.7340
  1079.2500      0.0000    342.9897     13.5774     92.0793
  1079.5000      0.0000    342.9986     13.5592     88.8300
  1079.7500      0.0000    343.0765     13.5643     84.9062
  1080.0000      0.0000    343.2251     13.5822     80.9643
  1080.2500      0.0000    343.4100     13.6092     77.1844
  1080.5000      0.0000    343.5998     13.6496     73.5157
  1080.7500      0.0000    343.7716     13.7154     70.1116
  1081.0000      0.0000    343.8900     13.8255     67.6723
  1081.2500      0.0000    343.9092     14.0044     67.2588
  1081.5000      0.0000    343.8011     14.2773     69.3135
  1081.7500      0.0000    343.5672     14.6590     72.7993
  1082.0000      0.0000    343.2006     15.1438     75.7426
  1082.2500      0.0000    342.6434     15.7067     76.7872
  1082.5000      0.0000    341.7536     16.3140     76.0703
  1082.7500      0.0000    340.6127     16.9290     74.7611
  1083.0000      0.0000    340.3572     17.4994     73.9911
  1083.2500      0.0000    344.1021     17.9440     74.0206
  1083.5000      0.0000    356.2331     18.1758     74.2565
  1083.7500      0.0000    378.5720     18.1865     74.2212
  1084.0000      0.0000    406.4976     18.1027     74.4260
  1084.2500      0.0000    430.9357     18.0614     75.9650
  1084.5000      0.0000    445.2330     17.9866     79.1335
  1084.7500      0.0000    447.7964     17.6221     82.6638
  1085.0000      0.0000    438.7164     16.8867     84.6552
  1085.2500      0.0000    419.0949     16.0627     84.3398
  1085.5000      0.0000    394.1118     15.5269     82.4655
  1085.7500      0.0000    371.5142     15.4124     79.8971
  1086.0000      2.0000    355.7685     15.6130     76.8080
  1086.2500      2.0000    346.0284     15.9991     73.6828
  1086.5000      0.0000    339.5660     16.5682     71.7660
  1086.7500      0.0000    335.5965     17.4448     71.3356
  1087.0000      0.0000    336.5244     18.7335     70.4771
  1087.2500      0.0000    346.2667     20.3255     67.0406
  1087.5000      0.0000    365.2070     21.9370     61.6911
  1087.7500      0.0000    385.1957     23.4356     57.9652
  1088.0000      0.0000    392.7611     24.9596     58.9730
  1088.2500      0.0000    380.8830     26.5731     64.3922
  1088.5000      0.0000    356.0223     28.0047     70.8304
  1088.7500      0.0000    331.2567     28.9019     74.8179
  1089.0000      0.0000    314.8544     29.1947     75.3673
  1089.2500      0.0000    307.0235     29.0922     74.1577
  1089.5000      0.0000    304.2432     28.8391     73.7067
  1089.7500      0.0000    303.5158     28.5582     75.3401
  1090.0000      0.0000    303.4256     28.2526     78.5271
  1090.2500      0.0000    303.5300     27.8691     81.7615
  1090.5000      0.0000    303.7391     27.3602     83.8720
  1090.7500      0.0000    304.0114     26.7171     84.6314
  1091.0000      0.0000    304.3200     25.9641     84.5220
  1091.2500      0.0000    304.6405     25.1389     84.2696
  1091.5000      0.0000    304.9503     24.2892     84.4755
  1091.7500      0.0000    305.2175     23.4838     85.1380
  1092.0000      0.0000    305.4065     22.7994     85.3307
  1092.2500      0.0000    305.5031     22.2820     83.8820
  1092.5000      0.0000    305.5313     21.9234     80.9224
  1092.7500      0.0000    305.5331     21.6794     78.5825
  1093.0000      0.0000    305.5360     21.5070     79.8572
  1093.2500      0.0000    305.5396     21.3829     86.7499
  1093.5000      0.0000    305.5279     21.3022     98.9322
  1093.7500      0.0000    305.4880     21.2694    113.0905
  1094.0000      0.0000    305.4209     21.2901    123.6425
  1094.2500      0.0000    305.3405     21.3614    125.6519
  1094.5000      0.0000    305.2629     21.4650    118.1706
  1094.7500      0.0000    305.1974     21.5743    104.9085
  1095.0000      0.0000    305.1445     21.6705     91.7009
  1095.2500      0.0000    305.1050     21.7504     83.1097
  1095.5000      0.0000    305.0895     21.8162     80.7290
  1095.7500      0.0000    305.1103     21.8646     83.9804
  1096.0000      0.0000    305.1652     21.8872     91.7289
  1096.2500      0.0000    305.2384     21.8775    102.5751
  1096.5000      0.0000    305.3190     21.8313    114.2458
  1096.7500      0.0000    305.4117     21.7468    124.2765
