~Version Information
VERS.                      2.0: CWLS Log ASCII Standard - VERSION 2.0
WRAP.                       NO: One line per depth step
~Well Information Block
STRT.FT               -10.2500: 
STOP.FT              2871.7500: 
STEP.FT                 0.2500: 
NULL.                -999.2500: 
COMP.          Pioneer Natural Resources: COMPANY
WELL.          Grey Goose 33-30: WELL
FLD.           Purgatorie River: FIELD
LOC.           2136' FSL & 2065' FEL--: LOCATION
STAT.                       CO: State
CNTY.               Las Animas: COUNTY
CTRY. USA : Country
SECT. 30  : Section
TOWN. 32S : Township
RANG. 67W : Range
SRVC.          Patterson Wireline: SERVICE COMPANY
DATE.          Tue Dec 06 12:24:57 2005: LOG DATE
API.            05 071 0854600: UNIQUE WELL ID
~Curve Information Block
DEPT.FT            0 000 00 00: Depth
CCL.                          : Casing Collar Locator
TT3.usec                      : CBL 3' Travel Time
AMP3.mV                       : CBL 3' Amplitude
GR.GAPI                       : Gamma Ray
~Parameter Information Block
~A  Depth       CCL         TT3         AMP3         GR     
# ...
  2636.2500      0.0000    677.7938      4.2229     98.9882
  2636.5000      0.0000    678.8137      4.1947     97.7956
  2636.7500      0.0000    677.7961      4.1545     96.7246
  2637.0000      0.0000    675.3876      4.1179     96.4083
  2637.2500      0.0000    672.8497      4.0949     97.5132
  2637.5000      0.0000    671.0154      4.0889    100.5547
  2637.7500      0.0000    669.9778      4.0969    104.9011
  2638.0000      0.0000    669.4832      4.1097    108.5454
  2638.2500      0.0000    669.3099      4.1140    109.9227
  2638.5000      0.0000    669.3346      4.1012    109.5419
  2638.7500      0.0000    669.4474      4.0743    108.8397
  2639.0000      0.0000    669.4956      4.0453    107.9502
  2639.2500      0.0000    669.0755      4.0255    105.9494
  2639.5000      0.0000    666.9404      4.0193    103.0649
  2639.7500      0.0000    660.0435      4.0247    101.0824
  2640.0000      0.0000    643.4996      4.0379    101.2083
  2640.2500      0.0000    613.6119      4.0532    102.6727
  2640.5000      0.0000    573.8396      4.0618    103.9181
  2640.7500      0.0000    537.9161      4.0521    104.2981
  2641.0000      0.0000    523.3284      4.0161    104.1591
  2641.2500      0.0000    538.1209      3.9581    103.8652
  2641.5000      0.0000    574.0000      3.8965    103.3722
  2641.7500      0.0000    613.4135      3.8575    102.6488
  2642.0000      0.0000    642.7962      3.8644    102.0701
  2642.2500      0.0000    658.9681      3.9282    102.0694
  2642.5000      0.0000    665.8195      4.0415    102.4623
  2642.7500      0.0000    668.2386      4.1804    102.4747
  2643.0000      0.0000    669.1269      4.3159    101.4979
  2643.2500      0.0000    669.5508      4.4257     99.5969
  2643.5000      0.0000    669.7795      4.4963     97.2883
  2643.7500      0.0000    669.8865      4.5177     95.0670
  2644.0000      0.0000    669.8736      4.4825     93.3281
  2644.2500      0.0000    669.5867      4.3944     92.6964
  2644.5000      0.0000    668.6927      4.2762     94.0693
  2644.7500      0.0000    666.8465      4.1642     97.8653
  2645.0000      0.0000    664.1339      4.0842    103.0981
  2645.2500      0.0000    661.4544      4.0301    107.5365
  2645.5000      0.0000    660.1332      3.9725    109.2437
  2645.7500      0.0000    660.7652      3.8923    108.0575
  2646.0000      0.0000    662.5629      3.8042    105.3846
  2646.2500      0.0000    664.1235      3.7449    102.7274
  2646.5000      0.0000    664.7410      3.7388    100.8446
  2646.7500      0.0000    665.0018      3.7710    100.0488
  2647.0000      0.0000    666.4979      3.7973    100.5320
  2647.2500      0.0000    671.0979      3.7863    102.2866
  2647.5000      0.0000    679.8076      3.7490    104.9016
  2647.7500      0.0000    691.4408      3.7209    107.2631
  2648.0000      0.0000    702.2787      3.7224    107.6745
  2648.2500      0.0000    707.9106      3.7416    105.0410
  2648.5000      0.0000    706.1398      3.7443     99.7899
  2648.7500      0.0000    698.0059      3.6942     92.8854
  2649.0000      0.0000    686.1263      3.5763     84.3263
  2649.2500      0.0000    673.1965      3.4165     73.6283
  2649.5000      0.0000    662.2037      3.2800     61.6685
  2649.7500      0.0000    656.1882      3.2390     51.1502
  2650.0000      0.0000    656.3059      3.3243     44.8549
  2650.2500      0.0000    661.0482      3.4954     43.5544
  2650.5000      0.0000    668.3621      3.6665     45.6245
  2650.7500      0.0000    677.4914      3.7804     48.4438
  2651.0000      0.0000    687.7105      3.8549     50.0266
  2651.2500      0.0000    696.7983      3.9473     49.6178
  2651.5000      0.0000    702.4249      4.0805     47.4331
  2651.7500      2.0000    704.1730      4.2153     44.3907
  2652.0000      2.0000    702.8487      4.2832     41.9334
  2652.2500      0.0000    698.7718      4.2410     41.4834
  2652.5000      0.0000    692.2791      4.1040     43.6128
  2652.7500      0.0000    685.2789      3.9269     47.6572
  2653.0000      0.0000    680.6105      3.7427     52.1192
  2653.2500      0.0000    679.4694      3.5335     55.4561
  2653.5000      0.0000    679.8212      3.2836     56.7371
  2653.7500      0.0000    677.4487      3.0354     55.9402
  2654.0000      0.0000    668.5925      2.8593     53.8412
  2654.2500      0.0000    652.4472      2.7793     51.5785
  2654.5000      0.0000    632.5198      2.7566     50.1626
  2654.7500      0.0000    616.2219      2.7373     50.0529
  2655.0000      0.0000    611.2725      2.7035     50.9691
  2655.2500      0.0000    620.0051      2.6837     52.3055
  2655.5000      0.0000    637.3796      2.7282     53.9195
  2655.7500      0.0000    655.7524      2.8729     56.1407
  2656.0000      0.0000    670.6855      3.1163     58.7350
  2656.2500      0.0000    681.5177      3.4184     60.4300
  2656.5000      0.0000    688.3712      3.7150     60.1227
  2656.7500      0.0000    690.7238      3.9397     58.2908
  2657.0000      0.0000    688.6646      4.0458     56.6858
  2657.2500      0.0000    684.2031      4.0159     56.9135
  2657.5000      0.0000    680.6235      3.8609     59.8703
  2657.7500      0.0000    680.4482      3.6135     66.0862
  2658.0000      0.0000    683.7959      3.3206     75.4112
  2658.2500      0.0000    688.4620      3.0359     85.9796
  2658.5000      0.0000    691.6830      2.8089     94.4797
  2658.7500      0.0000    692.2576      2.6720     98.5114
  2659.0000      0.0000    691.2175      2.6289     98.6890
  2659.2500      0.0000    690.5197      2.6538     97.8620
  2659.5000      0.0000    691.2416      2.7080     98.1819
  2659.7500      0.0000    692.8926      2.7662     99.3045
  2660.0000      0.0000    693.9429      2.8280     99.5810
  2660.2500      0.0000    692.9408      2.9055     98.4749
  2660.5000      0.0000    689.7952      3.0034     97.2713
  2660.7500      0.0000    686.3536      3.1112     97.5463
  2661.0000      0.0000    685.2754      3.2103     99.4431
  2661.2500      0.0000    687.8524      3.2846    101.5071
  2661.5000      0.0000    692.8757      3.3252    101.9267
  2661.7500      0.0000    697.5867      3.3313     99.9330
  2662.0000      0.0000    699.5082      3.3089     96.2920
  2662.2500      0.0000    697.5172      3.2674     92.6010
  2662.5000      0.0000    691.7145      3.2158     89.9874
  2662.7500      0.0000    682.3857      3.1600     88.3664
  2663.0000      0.0000    668.2458      3.1053     86.9395
  2663.2500      0.0000    645.2214      3.0593     85.2450
  2663.5000      0.0000    608.4114      3.0315     83.5292
  2663.7500      0.0000    557.5214      3.0275     82.2748
  2664.0000      0.0000    500.5122      3.0427     81.6835
  2664.2500      0.0000    449.8253      3.0662     81.5642
  2664.5000      0.0000    413.9925      3.0887     81.4234
  2664.7500      0.0000    393.3545      3.1065     80.6357
  2665.0000      0.0000    382.9780      3.1263     78.6945
  2665.2500      0.0000    377.7251      3.1760     75.4728
  2665.5000      0.0000    374.6010      3.3069     71.3371
  2665.7500      0.0000    372.3680      3.5608     66.9483
  2666.0000      0.0000    370.5444      3.9161     62.8468
  2666.2500      0.0000    368.8979      4.2754     59.2832
  2666.5000      0.0000    367.3410      4.5253     56.4384
  2666.7500      0.0000    365.9635      4.6161     54.5954
  2667.0000      0.0000    365.0567      4.5769     53.8766
  2667.2500      0.0000    365.3159      4.4651     53.9186
  2667.5000      0.0000    368.4193      4.3153     54.1232
  2667.7500      0.0000    377.9999      4.1373     54.2765
  2668.0000      0.0000    399.9067      3.9431     54.7802
  2668.2500      0.0000    439.5103      3.7647     56.2915
  2668.5000      0.0000    495.9648      3.6452     59.3503
  2668.7500      0.0000    558.8340      3.6136     64.2925
  2669.0000      0.0000    613.0102      3.6609     71.0189
  2669.2500      0.0000    648.6948      3.7385     78.6625
  2669.5000      0.0000    666.2870      3.7864     85.8473
