~Version Information
VERS.                      2.0: CWLS Log ASCII Standard - VERSION 2.0
WRAP.                       NO: One line per depth step
~Well Information Block
STRT.FT                -7.2500: 
STOP.FT              1221.7500: 
STEP.FT                 0.2500: 
NULL.                -999.2500: 
COMP.          Pioneer Natural Resources: COMPANY
WELL.           Tennis 7-12 Tr: WELL
FLD.           Purgatorie River: FIELD
LOC.           1794' FNL & 1563' FEL--: LOCATION
PROV.                       CO: PROVINCE
CNTY.               Las Animas: COUNTRY
SRVC.          Patterson Wireline: SERVICE COMPANY
DATE.          Tue Dec 27 14:16:59 2005: LOG DATE
UWI.           05 071 008635 00: UNIQUE WELL ID
~Curve Information Block
DEPT.FT            0 000 00 00: Depth
CCL.                          : Casing Collar Locator
TT3.usec                      : CBL 3' Travel Time
AMP3.mV                       : CBL 3' Amplitude
GR.GAPI                       : Gamma Ray
~Parameter Information Block
~A  Depth       CCL         TT3         AMP3         GR     
# ...
   461.7500      0.0000    831.2556      6.1506    112.7690
   462.0000      0.0000    799.8375      6.1425    117.2362
   462.2500      0.0000    773.3983      6.1157    122.2609
   462.5000      0.0000    749.8032      6.0611    127.3600
   462.7500      0.0000    727.9107      5.9877    131.1990
   463.0000      0.0000    705.8679      5.9054    132.0967
   463.2500      0.0000    680.9803      5.8236    129.5983
   463.5000      0.0000    653.6745      5.7535    125.4322
   463.7500      0.0000    631.1178      5.7088    122.4687
   464.0000      0.0000    623.9916      5.6998    122.4487
   464.2500      0.0000    637.4231      5.7290    124.7960
   464.5000      0.0000    665.1497      5.7907    127.5264
   464.7500      0.0000    693.7034      5.8753    128.9152
   465.0000      0.0000    712.3699      5.9738    128.2521
   465.2500      0.0000    719.0756      6.0753    125.6454
   465.5000      0.0000    718.2403      6.1640    121.6888
   465.7500      0.0000    715.1516      6.2224    117.4220
   466.0000      0.0000    712.6465      6.2368    114.3506
   466.2500      0.0000    711.2612      6.2001    113.9566
   466.5000      0.0000    710.6722      6.1131    116.6121
   466.7500      0.0000    710.6353      5.9861    120.9229
   467.0000      0.0000    711.2567      5.8368    124.4327
   467.2500      0.0000    712.9056      5.6862    125.0423
   467.5000      0.0000    715.8846      5.5530    121.8767
   467.7500      0.0000    720.1197      5.4502    115.3514
   468.0000      0.0000    725.3240      5.3822    106.6833
   468.2500      0.0000    731.2133      5.3454     97.0203
   468.5000      0.0000    736.8346      5.3338     86.8753
   468.7500      0.0000    739.8447      5.3447     76.6026
   469.0000      0.0000    737.8535      5.3816     67.2486
   469.2500      0.0000    731.0569      5.4507     60.4928
   469.5000      0.0000    722.6064      5.5517     57.5697
   469.7500      0.0000    715.9571      5.6648     58.2892
   470.0000      0.0000    712.4343      5.7487     61.0363
   470.2500      0.0000    711.2934      5.7610     63.7660
   470.5000      0.0000    711.1960      5.6871     65.2826
   470.7500      0.0000    711.2587      5.5541     65.7956
   471.0000      0.0000    711.2117      5.4129     66.1736
   471.2500      0.0000    711.1049      5.3079     66.6961
   471.5000      0.0000    711.0227      5.2585     66.9379
   471.7500      0.0000    710.9938      5.2646     66.8727
   472.0000      0.0000    711.0237      5.3171     67.3701
   472.2500      0.0000    711.1013      5.3988     69.2711
   472.5000      0.0000    711.1796      5.4799     72.5663
   472.7500      0.0000    711.1947      5.5248     76.8495
   473.0000      0.0000    711.1151      5.5107     82.0002
   473.2500      0.0000    710.9518      5.4398     87.7319
   473.5000      0.0000    710.7265      5.3357     92.6352
   473.7500      0.0000    710.4586      5.2288     94.4705
   474.0000      0.0000    710.1794      5.1418     91.8779
   474.2500      0.0000    709.9252      5.0839     85.5234
   474.5000      0.0000    709.7155      5.0511     77.3082
   474.7500      0.0000    709.5537      5.0331     68.9191
   475.0000      0.0000    709.4416      5.0189     61.4575
   475.2500      0.0000    709.3709      5.0018     55.6869
   475.5000      0.0000    709.2790      4.9817     51.8063
   475.7500      0.0000    709.0029      4.9639     49.1518
   476.0000      0.0000    708.2604      4.9554     46.7261
   476.2500      0.0000    706.7708      4.9614     44.1411
   476.5000      0.0000    704.6416      4.9848     41.9152
   476.7500      0.0000    702.7682      5.0287     40.8356
   477.0000      0.0000    702.6226      5.0985     41.1721
   477.2500      0.0000    705.3181      5.1977     42.5523
   477.5000      0.0000    710.8036      5.3187     44.4842
   477.7500      0.0000    717.9113      5.4402     46.7365
   478.0000      0.0000    724.9985      5.5374     49.2322
   478.2500      0.0000    730.6678      5.5976     51.9755
   478.5000      0.0000    734.2753      5.6255     55.4038
   478.7500      0.0000    735.9456      5.6366     60.5860
   479.0000      0.0000    736.0914      5.6481     68.5953
   479.2500      0.0000    734.9331      5.6711     79.3928
   479.5000      0.0000    732.6918      5.7069     91.3779
   479.7500      0.0000    730.4244      5.7464    102.2540
   480.0000      0.0000    730.6046      5.7756    110.6244
   480.2500      0.0000    736.0920      5.7852    116.8004
   480.5000      0.0000    747.3090      5.7789    121.8696
   480.7500      0.0000    760.1902      5.7694    126.1124
   481.0000      0.0000    768.4737      5.7664    128.8173
   481.2500      0.0000    769.8126      5.7693    129.4950
   481.5000      0.0000    768.7921      5.7723    128.5588
   481.7500      0.0000    771.6823      5.7722    126.6655
   482.0000      0.0000    778.5258      5.7687    124.0282
   482.2500      0.0000    783.1287      5.7600    120.7271
   482.5000      0.0000    781.8158      5.7455    117.3234
   482.7500      0.0000    779.9055      5.7327    114.7915
   483.0000      0.0000    787.5397      5.7380    114.0393
   483.2500      0.0000    809.3545      5.7751    115.6318
   483.5000      0.0000    838.5938      5.8398    119.5122
   483.7500      0.0000    861.1852      5.9065    124.5316
   484.0000      0.0000    866.4955      5.9416    128.5799
   484.2500      0.0000    855.1078      5.9251    129.8561
   484.5000      0.0000    836.5737      5.8618    128.2184
   484.7500      0.0000    820.6252      5.7736    125.0583
   485.0000      0.0000    811.2344      5.6813    121.8560
   485.2500      0.0000    807.3640      5.5948    119.1109
   485.5000      0.0000    806.6662      5.5169    116.5945
   485.7500      0.0000    808.0822      5.4528    114.1347
   486.0000      0.0000    812.7423      5.4129    112.0534
   486.2500      0.0000    823.6808      5.4069    111.1650
   486.5000      0.0000    843.8955      5.4365    112.3055
   486.7500      0.0000    872.7522      5.4904    115.3599
   487.0000      0.0000    903.5117      5.5506    118.5786
   487.2500      0.0000    925.1562      5.6032    119.2355
   487.5000      0.0000    927.7448      5.6461    115.5108
   487.7500      0.0000    907.4569      5.6850    108.1773
   488.0000      0.0000    868.8370      5.7246    100.3111
   488.2500      0.0000    823.2288      5.7634     94.8159
   488.5000      0.0000    783.1489      5.7953     92.2457
   488.7500      0.0000    755.8323      5.8165     91.3892
   489.0000      0.0000    741.1915      5.8293     91.5003
   489.2500      0.0000    734.9706      5.8390     93.0567
   489.5000      0.0000    732.8724      5.8449     96.5460
   489.7500      0.0000    732.3342      5.8402    101.3963
   490.0000      0.0000    732.2735      5.8182    106.1852
   490.2500      0.0000    732.3463      5.7796    109.3520
   490.5000      0.0000    732.4365      5.7331    109.9135
   490.7500      0.0000    732.3594      5.6900    108.0694
   491.0000      0.0000    731.7161      5.6592    105.1641
   491.2500      0.0000    730.0365      5.6431    102.7206
   491.5000      0.0000    727.3012      5.6370    101.4225
   491.7500      0.0000    724.3591      5.6325    100.9890
   492.0000      0.0000    722.5165      5.6236    100.7888
   492.2500      0.0000    722.5651      5.6122    100.4263
   492.5000      0.0000    724.7258      5.6067     99.8649
   492.7500      0.0000    729.5863      5.6145     99.2351
   493.0000      0.0000    737.8223      5.6357     98.6063
   493.2500      0.0000    748.1336      5.6605     97.7465
   493.5000      0.0000    756.6703      5.6770     96.1161
   493.7500      0.0000    759.8689      5.6829     93.5522
   494.0000      0.0000    757.3441      5.6892     91.0109
   494.2500      0.0000    751.4430      5.7084     89.9364
   494.5000      0.0000    744.9324      5.7405     90.6552
   494.7500      0.0000    739.6229      5.7743     92.0437
   495.0000      0.0000    736.1938      5.8008     93.0306
