~Version Information
VERS.                      2.0: CWLS Log ASCII Standard - VERSION 2.0
WRAP.                       NO: One line per depth step
~Well Information Block
STRT.FT               340.0000: 
STOP.FT              2342.7500: 
STEP.FT                 0.2500: 
NULL.                -999.2500: 
COMP.          Pioneer Natural Resources: COMPANY
WELL.          Pinkerton 41-12: WELL
FLD.           Purgatoire River: FIELD
LOC.           1222' FNL & 670' FEL--: LOCATION
CNTY.               Las Animas: COUNTY
SRVC.                Patterson: SERVICE COMPANY
DATE.          Wed Mar 15 10:37:39 2006: LOG DATE
UWI.           05 071 08500 00: UNIQUE WELL ID
STAT.                 Colorado: STATE
~Curve Information Block
DEPT.FT            0 000 00 00: Depth
SN.Ohm-m                      : IEL Short Normal
SP.mV                         : IEL Spontaneous Potential
DIR.Ohm-m                     : IEL Induction Resistivity
GR.GAPI                       : Gamma Ray
~Parameter Information Block
~A  Depth        SN          SP         DIR          GR     
# ...
   474.0000   2000.0000   -999.2500     37.0848     72.1111
   474.2500   2000.0000   -999.2500     36.3760     70.4266
   474.5000   2000.0000   -999.2500     35.9667     68.1744
   474.7500   2000.0000   -999.2500     35.9139     66.9117
   475.0000   2000.0000   -999.2500     36.1960     65.2349
   475.2500   2000.0000   -999.2500     36.7260     64.2442
   475.5000   2000.0000   -999.2500     37.3889     63.1567
   475.7500   2000.0000   -999.2500     38.0877     62.7984
   476.0000   2000.0000   -999.2500     38.7655     62.7552
   476.2500   2000.0000   -999.2500     39.3900     63.0196
   476.5000   2000.0000   -999.2500     39.9216     63.9610
   476.7500   2000.0000   -999.2500     40.3012     64.9640
   477.0000   2000.0000   -999.2500     40.4733     66.7759
   477.2500   2000.0000   -999.2500     40.4204     68.1093
   477.5000   2000.0000   -999.2500     40.1730     70.6534
   477.7500   2000.0000   -999.2500     39.7804     72.9739
   478.0000   2000.0000   -999.2500     39.2716     77.2514
   478.2500   2000.0000   -999.2500     38.6397     80.1993
   478.5000   2000.0000   -999.2500     37.8602     83.9892
   478.7500   2000.0000   -999.2500     36.9231     85.8459
   479.0000   2000.0000   -999.2500     35.8560     87.4521
   479.2500   2000.0000   -999.2500     34.7307     87.6664
   479.5000   2000.0000   -999.2500     33.6592     86.8118
   479.7500   2000.0000   -999.2500     32.7737     85.7779
   480.0000   2000.0000   -999.2500     32.1864     84.1431
   480.2500   2000.0000   -999.2500     31.9394     83.0659
   480.5000   2000.0000   -999.2500     31.9645     81.2058
   480.7500   2000.0000   -999.2500     32.0800     79.7402
   481.0000   2000.0000   -999.2500     32.0466     77.4976
   481.2500   2000.0000   -999.2500     31.6717     76.4064
   481.5000   2000.0000   -999.2500     30.8992     76.6684
   481.7500   2000.0000   -999.2500     29.8093     78.8761
   482.0000   2000.0000   -999.2500     28.5456     85.2688
   482.2500   2000.0000   -999.2500     27.2402     90.5802
   482.5000   2000.0000   -999.2500     25.9792     97.8221
   482.7500   2000.0000   -999.2500     24.8044    101.3302
   483.0000   2000.0000   -999.2500     23.7297    104.3706
   483.2500   2000.0000   -999.2500     22.7595    105.1031
   483.5000   2000.0000   -999.2500     21.9004    104.5897
   483.7500   2000.0000   -999.2500     21.1620    103.4285
   484.0000   2000.0000   -999.2500     20.5512    101.3010
   484.2500   2000.0000   -999.2500     20.0671    100.2456
   484.5000   2000.0000   -999.2500     19.6983     99.8310
   484.7500   2000.0000   -999.2500     19.4234    100.2831
   485.0000   2000.0000   -999.2500     19.2162    101.7959
   485.2500   2000.0000   -999.2500     19.0530    103.4715
   485.5000   2000.0000   -999.2500     18.9199    107.5026
   485.7500   2000.0000   -999.2500     18.8138    111.2080
   486.0000   2000.0000   -999.2500     18.7348    117.1830
   486.2500   2000.0000   -999.2500     18.6783    120.3872
   486.5000   2000.0000   -999.2500     18.6328    122.7870
   486.7500   2000.0000   -999.2500     18.5851    122.9043
   487.0000   2000.0000   -999.2500     18.5283    122.2522
   487.2500   2000.0000   -999.2500     18.4675    122.1100
   487.5000   2000.0000   -999.2500     18.4212    122.7768
   487.7500   2000.0000   -999.2500     18.4168    123.4498
   488.0000   2000.0000   -999.2500     18.4811    123.9330
   488.2500   2000.0000   -999.2500     18.6280    123.6354
   488.5000   2000.0000   -999.2500     18.8493    122.2294
   488.7500   2000.0000   -999.2500     19.1141    120.7629
   489.0000   2000.0000   -999.2500     19.3799    118.3374
   489.2500   2000.0000   -999.2500     19.6086    117.2048
   489.5000   2000.0000   -999.2500     19.7781    117.1669
   489.7500   2000.0000   -999.2500     19.8832    118.1840
   490.0000   2000.0000   -999.2500     19.9324    120.2211
   490.2500   2000.0000   -999.2500     19.9451    121.3990
   490.5000   2000.0000   -999.2500     19.9451    122.8536
   490.7500   2000.0000   -999.2500     19.9508    123.7396
   491.0000   2000.0000   -999.2500     19.9666    124.5499
   491.2500   2000.0000   -999.2500     19.9844    124.3428
   491.5000   2000.0000   -999.2500     19.9936    123.0602
   491.7500   2000.0000   -999.2500     19.9896    122.2586
   492.0000   2000.0000   -999.2500     19.9762    122.1396
   492.2500   2000.0000   -999.2500     19.9621    122.5443
   492.5000   2000.0000   -999.2500     19.9590    122.3808
   492.7500   2000.0000   -999.2500     19.9808    121.1005
   493.0000   2000.0000   -999.2500     20.0429    117.6497
   493.2500   2000.0000   -999.2500     20.1592    115.0131
   493.5000   2000.0000   -999.2500     20.3415    111.6748
   493.7500   2000.0000   -999.2500     20.6000    110.1781
   494.0000   2000.0000   -999.2500     20.9429    109.0297
   494.2500   2000.0000   -999.2500     21.3727    108.8385
   494.5000   2000.0000   -999.2500     21.8836    108.9414
   494.7500   2000.0000   -999.2500     22.4638    108.8009
   495.0000   2000.0000   -999.2500     23.1053    107.3866
   495.2500   2000.0000   -999.2500     23.8092    105.4082
   495.5000   2000.0000   -999.2500     24.5825    101.1800
   495.7500   2000.0000   -999.2500     25.4252     97.8491
   496.0000   2000.0000   -999.2500     26.3208     92.5266
   496.2500   2000.0000   -999.2500     27.2361     88.9880
   496.5000   2000.0000   -999.2500     28.1295     84.2179
   496.7500   2000.0000   -999.2500     28.9564     81.8010
   497.0000   2000.0000   -999.2500     29.6706     80.0972
   497.2500   2000.0000   -999.2500     30.2274     80.5872
   497.5000   2000.0000   -999.2500     30.5978     83.6809
   497.7500   2000.0000   -999.2500     30.7844     86.6974
   498.0000   2000.0000   -999.2500     30.8176     90.7778
   498.2500   2000.0000   -999.2500     30.7323     91.9636
   498.5000   2000.0000   -999.2500     30.5515     90.0032
   498.7500   2000.0000   -999.2500     30.2949     86.2554
   499.0000   2000.0000   -999.2500     30.0023     78.7387
   499.2500   2000.0000   -999.2500     29.7372     73.9258
   499.5000   2000.0000   -999.2500     29.5629     68.7953
   499.7500   2000.0000   -999.2500     29.5092     66.9891
   500.0000   2000.0000   -999.2500     29.5585     65.9715
   500.2500   2000.0000   -999.2500     29.6583     65.8607
   500.5000   2000.0000   -999.2500     29.7519     66.2649
   500.7500   2000.0000   -999.2500     29.8110     67.2192
   501.0000   2000.0000   -999.2500     29.8510     70.1322
   501.2500   2000.0000   -999.2500     29.9240     72.7669
   501.5000   2000.0000   -999.2500     30.0978     76.4120
   501.7500   2000.0000   -999.2500     30.4385     77.8940
   502.0000   2000.0000   -999.2500     31.0037     78.0677
   502.2500   2000.0000   -999.2500     31.8355     76.7486
   502.5000   2000.0000   -999.2500     32.9435     72.9044
   502.7500   2000.0000   -999.2500     34.2805     69.6292
   503.0000   2000.0000   -999.2500     35.7352     65.0673
   503.2500   2000.0000   -999.2500     37.1616     62.9710
   503.5000   2000.0000   -999.2500     38.4380     61.6011
   503.7500   2000.0000   -999.2500     39.5132     61.6330
   504.0000   2000.0000   -999.2500     40.4082     62.4959
   504.2500   2000.0000   -999.2500     41.1816     63.3195
   504.5000   2000.0000   -999.2500     41.8885     64.3829
   504.7500   2000.0000   -999.2500     42.5462     64.6085
   505.0000   2000.0000   -999.2500     43.1133     63.9216
   505.2500   2000.0000   -999.2500     43.4940     63.0375
   505.5000   2000.0000   -999.2500     43.5742     62.0123
   505.7500   2000.0000   -999.2500     43.2771     61.9147
   506.0000   2000.0000   -999.2500     42.6082     62.4275
   506.2500   2000.0000   -999.2500     41.6576     62.6798
   506.5000   2000.0000   -999.2500     40.5539     62.1702
   506.7500   2000.0000   -999.2500     39.4001     61.3163
   507.0000   2000.0000   -999.2500     38.2352     60.3694
   507.2500   2000.0000   -999.2500     37.0419     60.7994
