~Version Information
VERS.                      2.0: CWLS Log ASCII Standard - VERSION 2.0
WRAP.                       NO: One line per depth step
~Well Information Block
STRT.FT                 2.0000: 
STOP.FT               698.7500: 
STEP.FT                 0.2500: 
NULL.                -999.2500: 
COMP.          XTO Energy Inc.: COMPANY
WELL.          Golden Eagle 20-14: WELL
FLD.           Purgatrorie River: FIELD
LOC.           587' FSL & 2478' FWL--: LOCATION
STAT.                       CO: State
CNTY.               Las Animas: COUNTY
CTRY. USA : Country
SECT. 20 : Section
TOWN. 33S : Township
RANG. 67W : Range
SRVC.          Patterson Wireline: SERVICE COMPANY
DATE.          Sat Dec 10 16:49:08 2005: LOG DATE
API.           05 071 08614 00: UNIQUE WELL ID
~Curve Information Block
DEPT.FT            0 000 00 00: Depth
MINMK.                        : Magnetic Mark Ticks
TEMP.degF                     : Downhole Temperature
DTMP.degF                     : Delta Temperature
~Parameter Information Block
~A  Depth      MINMK        TEMP        DTMP    
# ...
   127.2500      0.0000     46.4563      0.1477
   127.5000      0.0000     46.4919      0.1487
   127.7500      0.0000     46.5282      0.1498
   128.0000      0.0000     46.5647      0.1506
   128.2500      0.0000     46.6014      0.1471
   128.5000      0.0000     46.6386      0.1479
   128.7500      0.0000     46.6756      0.1533
   129.0000      0.0000     46.7128      0.1540
   129.2500      0.0000     46.7504      0.1545
   129.5000      0.0000     46.7878      0.1500
   129.7500      0.0000     46.8348      0.1504
   130.0000      0.0000     46.8726      0.1553
   130.2500      0.0000     46.9104      0.1554
   130.5000      0.0000     46.9386      0.1556
   130.7500      0.0000     46.9764      0.1513
   131.0000      0.0000     47.0234      0.1514
   131.2500      0.0000     47.0612      0.1515
   131.5000      0.0000     47.0991      0.1566
   131.7500      0.0000     47.1374      0.1615
   132.0000      0.0000     47.1753      0.1572
   132.2500      0.0000     47.2133      0.1574
   132.5000      0.0000     47.2517      0.1577
   132.7500      0.0000     47.2995      0.1579
   133.0000      0.0000     47.3379      0.1630
   133.2500      0.0000     47.3760      0.1584
   133.5000      0.0000     47.4146      0.1583
   133.7500      0.0000     47.4531      0.1536
   134.0000      0.0000     47.5013      0.1582
   134.2500      0.0000     47.5301      0.1581
   134.5000      0.0000     47.5684      0.1579
   134.7500      0.0000     47.6067      0.1575
   135.0000      0.0000     47.6543      0.1524
   135.2500      0.0000     47.6922      0.1569
   135.5000      0.0000     47.7304      0.1567
   135.7500      0.0000     47.7681      0.1567
   136.0000      0.0000     47.8062      0.1519
   136.2500      0.0000     47.8438      0.1565
   136.5000      0.0000     47.8819      0.1564
   136.7500      0.0000     47.9200      0.1564
   137.0000      0.0000     47.9581      0.1562
   137.2500      0.0000     48.0052      0.1561
   137.5000      0.0000     48.0431      0.1559
   137.7500      0.0000     48.0809      0.1554
   138.0000      0.0000     48.1185      0.1548
   138.2500      0.0000     48.1560      0.1497
   138.5000      0.0000     48.1937      0.1493
   138.7500      0.0000     48.2308      0.1488
   139.0000      0.0000     48.2678      0.1531
   139.2500      0.0000     48.3046      0.1530
   139.5000      0.0000     48.3417      0.1528
   139.7500      0.0000     48.3785      0.1529
   140.0000      0.0000     48.4248      0.1531
   140.2500      0.0000     48.4619      0.1535
   140.5000      0.0000     48.4992      0.1537
   140.7500      0.0000     48.5366      0.1543
   141.0000      0.0000     48.5740      0.1500
   141.2500      0.0000     48.6116      0.1550
   141.5000      0.0000     48.6491      0.1551
   141.7500      0.0000     48.6871      0.1554
   142.0000      0.0000     48.7247      0.1554
   142.2500      0.0000     48.7720      0.1555
   142.5000      0.0000     48.8095      0.1556
   142.7500      0.0000     48.8474      0.1554
   143.0000      0.0000     48.8848      0.1552
   143.2500      0.0000     48.9226      0.1503
   143.5000      0.0000     48.9603      0.1549
   143.7500      0.0000     48.9979      0.1546
   144.0000      0.0000     49.0350      0.1544
   144.2500      0.0000     49.0725      0.1540
   144.5000      0.0000     49.1193      0.1537
   144.7500      0.0000     49.1565      0.1533
   145.0000      0.0000     49.1936      0.1530
   145.2500      0.0000     49.2305      0.1571
   145.5000      0.0000     49.2677      0.1519
   145.7500      0.0000     49.3044      0.1513
   146.0000      0.0000     49.3410      0.1508
   146.2500      0.0000     49.3866      0.1499
   146.5000      0.0000     49.4231      0.1491
   146.7500      0.0000     49.4590      0.1484
   147.0000      0.0000     49.4951      0.1475
   147.2500      0.0000     49.5303      0.1422
   147.5000      0.0000     49.5658      0.1413
   147.7500      0.0000     49.6012      0.1406
   148.0000      0.0000     49.6360      0.1398
   148.2500      0.0000     49.6710      0.1437
   148.5000      0.0000     49.7057      0.1429
   148.7500      0.0000     49.7403      0.1423
   149.0000      0.0000     49.7747      0.1419
   149.2500      0.0000     49.8176      0.1415
   149.5000      0.0000     49.8517      0.1410
   149.7500      0.0000     49.8858      0.1405
   150.0000      1.0000     49.9197      0.1444
   150.2500      1.0000     49.9539      0.1396
   150.5000      1.0000     49.9877      0.1392
   150.7500      1.0000     50.0213      0.1385
   151.0000      0.0000     50.0635      0.1380
   151.2500      0.0000     50.0967      0.1374
   151.5000      0.0000     50.1300      0.1367
   151.7500      0.0000     50.1628      0.1403
   152.0000      0.0000     50.1958      0.1314
   152.2500      0.0000     50.2287      0.1311
   152.5000      0.0000     50.2611      0.1306
   152.7500      0.0000     50.3019      0.1302
   153.0000      0.0000     50.3263      0.1338
   153.2500      0.0000     50.3588      0.1333
   153.5000      0.0000     50.3911      0.1332
   153.7500      0.0000     50.4233      0.1286
   154.0000      0.0000     50.4634      0.1322
   154.2500      0.0000     50.4953      0.1318
   154.5000      0.0000     50.5275      0.1314
   154.7500      0.0000     50.5592      0.1310
   155.0000      0.0000     50.5908      0.1305
   155.2500      0.0000     50.6223      0.1302
   155.5000      0.0000     50.6540      0.1296
   155.7500      0.0000     50.6853      0.1293
   156.0000      0.0000     50.7245      0.1291
   156.2500      0.0000     50.7558      0.1288
   156.5000      0.0000     50.7868      0.1282
   156.7500      0.0000     50.8179      0.1280
   157.0000      0.0000     50.8489      0.1276
   157.2500      0.0000     50.8799      0.1272
   157.5000      0.0000     50.9104      0.1270
   157.7500      0.0000     50.9412      0.1265
   158.0000      0.0000     50.9798      0.1261
   158.2500      0.0000     51.0103      0.1256
   158.5000      0.0000     51.0407      0.1251
   158.7500      0.0000     51.0710      0.1245
   159.0000      0.0000     51.1011      0.1200
   159.2500      0.0000     51.1310      0.1194
   159.5000      0.0000     51.1607      0.1224
   159.7500      0.0000     51.1902      0.1216
   160.0000      0.0000     51.2199      0.1211
   160.2500      0.0000     51.2490      0.1204
   160.5000      0.0000     51.2854      0.1199
   160.7500      0.0000     51.3143      0.1192
   161.0000      0.0000     51.3432      0.1186
   161.2500      0.0000     51.3718      0.1181
   161.5000      0.0000     51.4005      0.1138
   161.7500      0.0000     51.4287      0.1167
   162.0000      0.0000     51.4571      0.1161
   162.2500      0.0000     51.4853      0.1156
   162.5000      0.0000     51.5131      0.1149
   162.7500      0.0000     51.5477      0.1144
   163.0000      0.0000     51.5754      0.1137
   163.2500      0.0000     51.6030      0.1130
   163.5000      0.0000     51.6303      0.1157
   163.7500      0.0000     51.6575      0.1115
   164.0000      0.0000     51.6845      0.1108
   164.2500      0.0000     51.7113      0.1102
   164.5000      0.0000     51.7444      0.1097
   164.7500      0.0000     51.7708      0.1090
   165.0000      0.0000     51.7971      0.1085
   165.2500      0.0000     51.8233      0.1079
   165.5000      0.0000     51.8497      0.1042
   165.7500      0.0000     51.8756      0.1037
   166.0000      0.0000     51.9014      0.1032
   166.2500      0.0000     51.9271      0.1029
   166.5000      0.0000     51.9528      0.1023
   166.7500      0.0000     51.9783      0.1051
   167.0000      0.0000     52.0036      0.1048
   167.2500      0.0000     52.0291      0.1046
   167.5000      0.0000     52.0543      0.1043
   167.7500      0.0000     52.0859      0.1042
   168.0000      0.0000     52.1110      0.1039
   168.2500      0.0000     52.1362      0.1068
   168.5000      0.0000     52.1615      0.1067
   168.7500      0.0000     52.1866      0.1033
