~Version Information
VERS.                      2.0: CWLS Log ASCII Standard - VERSION 2.0
WRAP.                       NO: One line per depth step
~Well Information Block
STRT.FT               545.0000: 
STOP.FT              1452.5000: 
STEP.FT                 0.1000: 
NULL.                -999.2500: 
COMP.          Pioneer Natural Resources: COMPANY
WELL.          Parklane 43-34 Tr: WELL
FLD.           Purgatoire River: FIELD
LOC.           1643' FSL & 966' FEL: LOCATION
PROV.                 Colorado: PROVINCE
CNTY.               Las Animas: COUNTRY
SRVC.                Patterson: SERVICE COMPANY
DATE.          Fri Jul 29 07:27:28 2005: LOG DATE
UWI.           05 071 08452 00: UNIQUE WELL ID
~Curve Information Block
DEPT.FT            0 000 00 00: Depth
DCAL.in                       : CDL Caliper
RHOB.g/cc                     : CDL Bulk Density
RHOC.g/cc                     : CDL Density Correction
DPOR.pu                       : CDL Density Porosity
GR.GAPI                       : Gamma Ray
NPOR.pu                       : Neutron Porosity
~Parameter Information Block
~A  Depth       DCAL        RHOB        RHOC        DPOR         GR         NPOR    
# ...
  1197.8000      8.1288      2.3288      0.1082     19.4673    143.4042     20.8347
  1197.9000      8.1288      2.3415      0.1142     18.6958    138.3292     21.2901
  1198.0000      8.1321      2.3854      0.2175     16.0381    139.2061     21.8998
  1198.1000      8.1321      2.4362      0.2990     12.9604    148.4819     22.2873
  1198.2000      8.1321      2.4745      0.2868     10.6349    157.4243     22.6073
  1198.3000      8.1463      2.5175      0.2545      8.0288    162.3738     22.8408
  1198.4000      8.1463      2.5780      0.2649      4.3625    163.6820     22.8624
  1198.5000      8.1816      2.6260      0.3234      1.4529    162.6796     22.8653
  1198.6000      8.1816      2.6282      0.2718      1.3239    161.1579     23.0782
  1198.7000      8.1816      2.5958      0.2235      3.2848    159.1415     23.4085
  1198.8000      8.1936      2.5579      0.1898      5.5799    156.4380     23.7220
  1198.9000      8.1936      2.5277      0.1818      7.4116    152.7459     24.0012
  1199.0000      8.2276      2.5101      0.1538      8.4780    149.1255     24.2221
  1199.1000      8.2276      2.5103      0.0692      8.4665    147.1606     24.3629
  1199.2000      8.2276      2.5171      0.0865      8.0558    145.4491     24.2509
  1199.3000      8.2004      2.5075      0.1098      8.6343    144.7878     23.9123
  1199.4000      8.2004      2.4914      0.0201      9.6109    148.2217     23.7758
  1199.5000      8.1520      2.4994      0.0768      9.1293    153.1647     23.9954
  1199.6000      8.1520      2.5253      0.0767      7.5582    155.6447     24.0767
  1199.7000      8.1520      2.5448      0.1080      6.3785    155.8216     23.5920
  1199.8000      8.0195      2.5547      0.0619      5.7785    155.3208     22.9484
  1199.9000      8.0195      2.5574      0.1071      5.6105    155.8689     22.8317
  1200.0000      8.0204      2.5511      0.0880      5.9936    154.4747     23.2849
  1200.1000      8.0204      2.5410      0.0572      6.6083    149.1412     24.0190
  1200.2000      8.0204      2.5266      0.0879      7.4772    146.1759     24.8789
  1200.3000      8.0246      2.5045      0.0626      8.8167    147.8841     25.7375
  1200.4000      8.0246      2.4863      0.0304      9.9217    148.0811     26.8251
  1200.5000      8.0206      2.4903      0.0377      9.6777    144.4615     28.2332
  1200.6000      8.0206      2.5275      0.0536      7.4257    140.1611     29.7035
  1200.7000      8.0206      2.5951      0.1227      3.3260    134.3392     31.1795
  1200.8000      8.0398      2.6760      0.0870     -1.5737    125.2746     32.3576
  1200.9000      8.0398      2.7588      0.1087     -6.5920    119.1479     33.0204
  1201.0000      8.0221      2.8523      0.1402    -12.2576    118.5858     33.5212
  1201.1000      8.0221      2.9697      0.1806    -19.3736    114.6164     34.1006
  1201.2000      8.0221      3.1089      0.2299    -27.8093    104.6914     34.5038
  1201.3000      8.0131      3.2429      0.2601    -35.9351     96.8700     34.2290
  1201.4000      8.0131      3.3309      0.2962    -41.2667     94.2508     32.9825
  1201.5000      7.9625      3.3430      0.2868    -42.0020     92.1854     31.2067
  1201.6000      7.9625      3.2760      0.1945    -37.9381     86.4326     29.6714
  1201.7000      7.9625      3.1455      0.1534    -30.0318     78.8492     28.2611
  1201.8000      7.8713      2.9891     -0.0001    -20.5522     74.4991     26.5312
  1201.9000      7.8713      2.8586     -0.0562    -12.6416     75.8195     24.7030
  1202.0000      7.8559      2.7622     -0.0522     -6.8021     82.9071     23.1743
  1202.1000      7.8559      2.6872     -0.0833     -2.2515     92.1459     22.0521
  1202.2000      7.8559      2.6432     -0.0578      0.4135     98.7967     21.2371
  1202.3000      7.9117      2.6265      0.0362      1.4247    102.9282     20.5092
  1202.4000      7.9117      2.6028      0.1336      2.8591    109.2948     19.8755
  1202.5000      7.9424      2.5509      0.1098      6.0070    119.5089     19.3919
  1202.6000      7.9424      2.4901      0.0558      9.6928    129.1422     18.9965
  1202.7000      7.9424      2.4472      0.0354     12.2939    135.4734     18.7208
  1202.8000      7.9428      2.4239      0.0486     13.7045    137.6829     18.5615
  1202.9000      7.9428      2.4140      0.0473     14.3058    135.2902     18.6672
  1203.0000      8.0029      2.4163      0.0635     14.1640    132.9784     19.0492
  1203.1000      8.0029      2.4218      0.1130     13.8321    133.7002     19.2221
  1203.2000      8.0029      2.4174      0.0856     14.0980    135.9370     18.8772
  1203.3000      8.0383      2.4006      0.1460     15.1172    139.9199     18.3579
  1203.4000      8.0383      2.3771      0.1207     16.5417    143.9754     18.0246
  1203.5000      8.0448      2.3555      0.1500     17.8477    143.1689     17.9671
  1203.6000      8.0448      2.3393      0.1663     18.8306    139.2604     18.2193
  1203.7000      8.0448      2.3222      0.2121     19.8647    139.5873     18.5689
  1203.8000      8.0956      2.2997      0.1297     21.2281    144.6672     18.7221
  1203.9000      8.0956      2.2777      0.1124     22.5651    148.1289     18.7552
  1204.0000      8.1071      2.2575      0.1506     23.7884    147.2753     18.9565
  1204.1000      8.1071      2.2416      0.0645     24.7509    145.8084     19.3239
  1204.2000      8.1071      2.2458      0.0861     24.4948    144.6666     19.6003
  1204.3000      8.1343      2.2738      0.1442     22.7992    144.2998     19.8193
  1204.4000      8.1343      2.3047      0.1845     20.9292    147.0126     20.2061
  1204.5000      8.1684      2.3279      0.0974     19.5230    149.7903     20.5207
  1204.6000      8.1684      2.3540      0.1192     17.9372    147.5919     20.3890
  1204.7000      8.1684      2.3764      0.1195     16.5803    143.2965     20.3886
  1204.8000      8.2128      2.3810      0.0870     16.3056    141.1596     21.0218
  1204.9000      8.2128      2.3832      0.0220     16.1711    139.4301     21.6744
  1205.0000      8.2284      2.4017      0.0684     15.0486    138.7010     21.7366
  1205.1000      8.2284      2.4177      0.1376     14.0801    140.7193     21.4888
  1205.2000      8.2284      2.4037      0.0824     14.9248    144.9109     21.3348
  1205.3000      8.1519      2.3620      0.0689     17.4550    152.4910     21.2720
  1205.4000      8.1519      2.3166      0.0296     20.2063    160.6119     21.0113
  1205.5000      8.1344      2.2946     -0.0038     21.5387    163.1093     20.4831
  1205.6000      8.1344      2.3083      0.0163     20.7118    160.7693     20.1266
  1205.7000      8.1344      2.3473      0.0219     18.3464    154.8751     20.1829
  1205.8000      8.1407      2.3941      0.0493     15.5111    149.1338     20.3651
  1205.9000      8.1407      2.4408      0.0858     12.6812    148.7036     20.2648
  1206.0000      8.1322      2.4799      0.1935     10.3079    149.3746     20.0075
  1206.1000      8.1322      2.5019      0.2038      8.9764    148.3168     20.0623
  1206.2000      8.1322      2.5068      0.2695      8.6801    147.2436     20.6550
  1206.3000      8.1113      2.5050      0.2301      8.7858    146.1943     21.8757
  1206.4000      8.1113      2.5199      0.1794      7.8843    144.3482     23.4336
  1206.5000      8.0722      2.5707      0.1705      4.8049    139.8674     24.8216
  1206.6000      8.0722      2.6555      0.1666     -0.3340    130.6532     25.9800
  1206.7000      8.0722      2.7695      0.1983     -7.2441    119.4991     27.0456
  1206.8000      8.0132      2.9091      0.3336    -15.7033    112.2831     27.8845
  1206.9000      8.0132      3.0519      0.3888    -24.3564    110.2468     28.3035
  1207.0000      8.0267      3.1685      0.4377    -31.4217    107.9826     28.0733
  1207.1000      8.0267      3.2414      0.4247    -35.8452    101.0225     27.1662
  1207.2000      8.0267      3.2776      0.2506    -38.0381     94.1573     26.1819
  1207.3000      8.0341      3.2800      0.2766    -38.1819     92.8334     25.4532
