~Version Information
VERS.                      2.0: CWLS Log ASCII Standard - VERSION 2.0
WRAP.                       NO: One line per depth step
~Well Information Block
STRT.FT                 0.0000: 
STOP.FT              1906.7500: 
STEP.FT                 0.2500: 
NULL.                -999.2500: 
COMP.          Petrogulf Corporation: COMPANY
WELL.             Kraft 17-23R: WELL
FLD.           Purgatorie River: FIELD
LOC.           1509' FSL & 1673' FWL: LOCATION
STAT.                 Colorado: State
CNTY.               Las Animas: COUNTY
CTRY. USA : Country
SECT. 17 : Section
TOWN. 33S : Township
RANG. 67W : Range
SRVC.                Patterson: SERVICE COMPANY
DATE.          Fri Jan 06 08:59:54 2006: LOG DATE
API. 05-071-08560                         : UNIQUE WELL ID
~Curve Information Block
DEPT.FT            0 000 00 00: Depth
CCL.                          : Casing Collar Locator
TT3.usec                      : CBL 3' Travel Time
AMP3.mV                       : CBL 3' Amplitude
AMP3.mV                       : CBL 3' Amplitude
GR.GAPI                       : Gamma Ray
AMP3.mV                       : CBL 3' Amplitude
~Parameter Information Block
~A  Depth       CCL         TT3         AMP3        AMP3         GR        .AMP3    
# ...
  1632.0000      0.0000    710.7457      5.1668      5.1668    165.7259      5.1668
  1632.2500      0.0000    727.1406      5.4523      5.4523    164.6043      5.4523
  1632.5000      0.0000    726.7274      5.7772      5.7772    163.2669      5.7772
  1632.7500      0.0000    715.8148      6.1574      6.1574    163.3553      6.1574
  1633.0000      0.0000    712.7679      6.5309      6.5309    165.0506      6.5309
  1633.2500      0.0000    720.7935      6.8279      6.8279    166.9890      6.8279
  1633.5000      0.0000    728.7169      7.0010      7.0010    167.5412      7.0010
  1633.7500      0.0000    733.3193      7.0011      7.0011    165.8010      7.0011
  1634.0000      0.0000    739.9196      6.8052      6.8052    161.6678      6.8052
  1634.2500      0.0000    744.6539      6.4611      6.4611    155.6052      6.4611
  1634.5000      0.0000    734.4086      6.0667      6.0667    148.3370      6.0667
  1634.7500      0.0000    708.0699      5.7115      5.7115    140.6553      5.7115
  1635.0000      0.0000    682.0482      5.4118      5.4118    133.6715      5.4118
  1635.2500      0.0000    670.5445      5.1073      5.1073    128.9902      5.1073
  1635.5000      0.0000    674.6412      4.7613      4.7613    127.8871      4.7613
  1635.7500      0.0000    688.3080      4.4039      4.4039    130.0101      4.4039
  1636.0000      0.0000    702.7577      4.0744      4.0744    133.2400      4.0744
  1636.2500      0.0000    708.1985      3.7953      3.7953    135.2514      3.7953
  1636.5000      0.0000    701.2257      3.5757      3.5757    135.4275      3.5757
  1636.7500      0.0000    688.4395      3.4239      3.4239    135.0556      3.4239
  1637.0000      0.0000    677.4240      3.3479      3.3479    135.3560      3.3479
  1637.2500      0.0000    671.4603      3.3283      3.3283    135.5162      3.3283
  1637.5000      0.0000    673.7733      3.3284      3.3284    133.2540      3.3284
  1637.7500      0.0000    685.3517      3.3162      3.3162    127.5923      3.3162
  1638.0000      0.0000    698.6988      3.2600      3.2600    120.7277      3.2600
  1638.2500      0.0000    703.7451      3.1419      3.1419    116.7032      3.1419
  1638.5000      0.0000    699.2731      2.9683      2.9683    118.0302      2.9683
  1638.7500      0.0000    692.0400      2.7557      2.7557    123.6231      2.7557
  1639.0000      0.0000    687.3296      2.5285      2.5285    129.9475      2.5285
  1639.2500      0.0000    685.4142      2.3208      2.3208    133.7802      2.3208
  1639.5000      0.0000    684.2480      2.1464      2.1464    133.9472      2.1464
  1639.7500      0.0000    681.5078      1.9918      1.9918    131.4506      1.9918
  1640.0000      0.0000    675.6426      1.8634      1.8634    128.6365      1.8634
  1640.2500      0.0000    667.5758      1.7904      1.7904    127.5182      1.7904
  1640.5000      0.0000    660.3787      1.7725      1.7725    128.0310      1.7725
  1640.7500      0.0000    656.1735      1.7781      1.7781    128.1562      1.7781
  1641.0000      0.0000    654.6329      1.7838      1.7838    126.1913      1.7838
  1641.2500      0.0000    654.4528      1.7802      1.7802    122.5944      1.7802
  1641.5000      0.0000    655.3328      1.7514      1.7514    119.3554      1.7514
  1641.7500      0.0000    658.5850      1.6893      1.6893    117.9290      1.6893
  1642.0000      0.0000    665.2517      1.6193      1.6193    118.2303      1.6193
  1642.2500      0.0000    673.3965      1.5815      1.5815    119.6250      1.5815
  1642.5000      0.0000    679.2109      1.5985      1.5985    122.3093      1.5985
  1642.7500      0.0000    681.1783      1.6560      1.6560    127.1029      1.6560
  1643.0000      0.0000    680.9316      1.7253      1.7253    133.9635      1.7253
  1643.2500      0.0000    680.5379      1.8048      1.8048    141.3609      1.8048
  1643.5000      0.0000    680.9218      1.9141      1.9141    147.3630      1.9141
  1643.7500      0.0000    682.3431      2.0713      2.0713    150.9811      2.0713
  1644.0000      0.0000    684.8902      2.2817      2.2817    152.4255      2.2817
  1644.2500      0.0000    688.2448      2.5333      2.5333    152.6009      2.5333
  1644.5000      0.0000    691.4285      2.8089      2.8089    152.6998      2.8089
  1644.7500      0.0000    692.8110      3.0967      3.0967    153.8891      3.0967
  1645.0000      0.0000    690.5496      3.3819      3.3819    156.8246      3.3819
  1645.2500      0.0000    684.4752      3.6699      3.6699    161.2642      3.6699
  1645.5000      0.0000    678.0178      4.0363      4.0363    166.1120      4.0363
  1645.7500      0.0000    674.9467      4.5686      4.5686    169.7976      4.5686
  1646.0000      0.0000    673.1127      5.2031      5.2031    170.9769      5.2031
  1646.2500      0.0000    667.8005      5.6856      5.6856    169.3341      5.6856
  1646.5000      0.0000    662.2568      5.8070      5.8070    165.6814      5.8070
  1646.7500      0.0000    665.2260      5.7152      5.7152    161.1824      5.7152
  1647.0000      0.0000    676.8447      5.8047      5.8047    156.7153      5.8047
  1647.2500      0.0000    685.6308      6.1856      6.1856    152.8383      6.1856
  1647.5000      0.0000    682.7477      6.5610      6.5610    149.7801      6.5610
  1647.7500     -2.0000    675.2305      6.6999      6.6999    147.3507      6.6999
  1648.0000     -2.0000    677.9031      6.6792      6.6792    145.2762      6.6792
  1648.2500      2.0000    693.2948      6.6369      6.6369    143.5978      6.6369
  1648.5000      0.0000    707.0644      6.5487      6.5487    142.5034      6.5487
  1648.7500      0.0000    705.0937      6.3365      6.3365    141.9786      6.3365
  1649.0000      0.0000    689.7030      6.0374      6.0374    141.9526      6.0374
  1649.2500      0.0000    675.3406      5.7184      5.7184    142.6693      5.7184
  1649.5000      0.0000    673.3242      5.3954      5.3954    144.6098      5.3954
  1649.7500      0.0000    682.1874      5.1284      5.1284    147.9672      5.1284
  1650.0000      0.0000    690.1068      4.9445      4.9445    152.3631      4.9445
  1650.2500      0.0000    687.8641      4.7213      4.7213    157.1245      4.7213
  1650.5000      0.0000    678.5807      4.3666      4.3666    161.6272      4.3666
  1650.7500      0.0000    671.5539      3.9477      3.9477    165.1562      3.9477
  1651.0000      0.0000    670.3885      3.5417      3.5417    166.3915      3.5417
  1651.2500      0.0000    671.4958      3.1419      3.1419    163.4565      3.1419
  1651.5000      0.0000    671.8433      2.7366      2.7366    155.2444      2.7366
  1651.7500      0.0000    673.0652      2.3569      2.3569    142.9899      2.3569
  1652.0000      0.0000    676.4703      2.0337      2.0337    130.1473      2.0337
  1652.2500      0.0000    679.8089      1.7603      1.7603    120.3729      1.7603
  1652.5000      0.0000    681.0917      1.5185      1.5185    115.4697      1.5185
  1652.7500      0.0000    681.0073      1.3105      1.3105    114.7782      1.3105
  1653.0000      0.0000    681.5493      1.1381      1.1381    115.9985      1.1381
  1653.2500      0.0000    684.8051      0.9892      0.9892    116.5983      0.9892
  1653.5000      0.0000    691.1057      0.8633      0.8633    114.9691      0.8633
  1653.7500      0.0000    696.4660      0.7713      0.7713    110.9279      0.7713
  1654.0000      0.0000    695.2528      0.7114      0.7114    105.6269      0.7114
  1654.2500      0.0000    687.5970      0.6776      0.6776    100.9881      0.6776
  1654.5000      0.0000    681.5730      0.6643      0.6643     98.8121      0.6643
  1654.7500      0.0000    685.1177      0.6511      0.6511    100.0366      0.6511
  1655.0000      0.0000    695.6009      0.6103      0.6103    104.4930      0.6103
  1655.2500      0.0000    702.1768      0.5467      0.5467    111.0735      0.5467
  1655.5000      0.0000    698.2696      0.5036      0.5036    118.1438      0.5036
  1655.7500      0.0000    686.0709      0.5100      0.5100    124.1188      0.5100
