~Version Information
VERS.                      2.0: CWLS Log ASCII Standard - VERSION 2.0
WRAP.                       NO: One line per depth step
~Well Information Block
STRT.FT                 0.0000: 
STOP.FT              1674.7500: 
STEP.FT                 0.2500: 
NULL.                -999.2500: 
COMP.          Pioneer Natural Resources: COMPANY
WELL.          Culver 14-12 Tr: WELL
FLD.           Purgatorie River: FIELD
LOC.           915' FSL & 1048' FWL: LOCATION
STAT.                 Colorado: Colorado
CNTY.               Las Animas: COUNTY
CTRY. USA : Country
SECT. 12 : Section
TOWN. 32S : Township
RANG. 66W : Range
SRVC.                Patterson: SERVICE COMPANY
DATE.          Mon Oct 03 12:52:29 2005: LOG DATE
API. 05-071-08520                         : UNIQUE WELL ID
~Curve Information Block
DEPT.FT            0 000 00 00: Depth
CCL.                          : Casing Collar Locator
TT3.usec                      : CBL 3' Travel Time
AMP3.mV                       : CBL 3' Amplitude
GR.GAPI                       : Gamma Ray
~Parameter Information Block
~A  Depth       CCL         TT3         AMP3         GR     
# ...
  1206.0000      0.0000    742.1526      7.5759     51.0718
  1206.2500      0.0000    752.6414      7.6492     45.5708
  1206.5000      0.0000    763.9803      7.7272     42.2907
  1206.7500      0.0000    777.6104      7.7876     40.4658
  1207.0000      0.0000    791.6053      7.8432     39.8768
  1207.2500      0.0000    798.2482      7.8783     41.0545
  1207.5000      0.0000    795.1035      7.8506     44.8802
  1207.7500      0.0000    788.8373      7.7606     51.9162
  1208.0000      0.0000    783.7056      7.6620     62.1196
  1208.2500      0.0000    774.5136      7.5928     75.0716
  1208.5000      0.0000    757.3979      7.5219     90.0162
  1208.7500      0.0000    738.5042      7.3699    105.3248
  1209.0000      0.0000    724.2696      7.0514    118.0280
  1209.2500      0.0000    715.5834      6.4785    124.4763
  1209.5000      0.0000    715.1968      5.6808    122.2651
  1209.7500      0.0000    727.0373      5.0399    111.9789
  1210.0000      0.0000    748.1370      4.9727     97.0506
  1210.2500      0.0000    774.7775      5.2205     81.7544
  1210.5000      0.0000    807.9023      5.2061     69.0541
  1210.7500      0.0000    839.1224      4.9758     59.8807
  1211.0000      0.0000    852.4211      4.9399     53.8182
  1211.2500      0.0000    849.7894      5.1766     50.0823
  1211.5000      2.0000    851.7924      5.5027     48.0535
  1211.7500     -2.0000    868.9770      5.7604     47.3924
  1212.0000      0.0000    891.5211      5.9083     47.9172
  1212.2500      0.0000    906.5817      6.1451     49.4359
  1212.5000      0.0000    910.5767      6.8928     51.7250
  1212.7500      0.0000    905.8762      8.1869     54.6542
  1213.0000      0.0000    892.9323      9.2225     58.2970
  1213.2500      0.0000    868.9305      9.3784     62.9523
  1213.5000      0.0000    838.8013      9.1297     69.0857
  1213.7500      0.0000    815.2300      9.0471     76.9282
  1214.0000      0.0000    804.1274      9.0170     85.7031
  1214.2500      0.0000    803.3881      8.8195     93.2101
  1214.5000      0.0000    813.4709      8.5201     96.6099
  1214.7500      0.0000    839.1535      8.2552     94.0646
  1215.0000      0.0000    878.0222      8.0736     85.9637
  1215.2500      0.0000    915.7492      7.9938     74.9671
  1215.5000      0.0000    943.6602      8.0198     64.8505
  1215.7500      0.0000    966.6586      8.0863     58.6085
  1216.0000      0.0000    986.3735      8.1044     57.1055
  1216.2500      0.0000    997.6057      8.0690     59.4185
  1216.5000      0.0000    997.6025      8.0583     64.2078
  1216.7500      0.0000    984.7679      8.1557     70.4985
  1217.0000      0.0000    956.2141      8.4159     77.6276
  1217.2500      0.0000    915.3574      8.8555     85.2255
  1217.5000      0.0000    880.3725      9.4245     93.3059
  1217.7500      0.0000    871.5991     10.0108    101.7651
  1218.0000      0.0000    881.8860     10.5038    109.5340
  1218.2500      0.0000    876.0677     10.8661    114.4630
  1218.5000      0.0000    835.3693     11.1166    114.4857
  1218.7500      0.0000    782.6362     11.2587    109.2876
  1219.0000      0.0000    747.9073     11.2839    100.9643
  1219.2500      0.0000    737.8245     11.2137     92.7839
  1219.5000      0.0000    747.0177     11.0988     87.0597
  1219.7500      0.0000    770.8544     10.9885     84.2993
  1220.0000      0.0000    800.6658     10.8774     84.1878
  1220.2500      0.0000    823.9706     10.7044     86.5467
  1220.5000      0.0000    835.3427     10.4514     90.9370
  1220.7500      0.0000    838.8464     10.1781     95.9930
  1221.0000      0.0000    840.4152      9.9399     99.8063
  1221.2500      0.0000    844.3903      9.7535    100.9232
  1221.5000      0.0000    855.0705      9.6120     99.0181
  1221.7500      0.0000    872.8973      9.4941     95.0550
  1222.0000      0.0000    887.4391      9.4110     90.8776
  1222.2500      0.0000    885.6711      9.4030     88.0968
  1222.5000      0.0000    869.3997      9.4717     86.9386
  1222.7500      0.0000    851.6306      9.5823     86.3873
  1223.0000      0.0000    838.8755      9.6779     85.7554
  1223.2500      0.0000    828.4852      9.6758     85.7801
  1223.5000      0.0000    818.1699      9.5448     87.8078
  1223.7500      0.0000    811.8946      9.3728     92.3243
  1224.0000      0.0000    817.8925      9.2820     98.6993
  1224.2500      0.0000    835.4305      9.2801    105.7622
  1224.5000      0.0000    847.6275      9.2724    111.9476
  1224.7500      0.0000    843.9307      9.2092    115.4899
  1225.0000      0.0000    836.6487      9.1247    115.7183
  1225.2500      0.0000    842.2282      9.0470    114.2345
  1225.5000      0.0000    866.5969      8.9560    113.9257
  1225.7500      0.0000    906.3508      8.8419    116.5199
  1226.0000      0.0000    943.2770      8.7515    121.4158
  1226.2500      0.0000    951.6146      8.7367    126.6096
  1226.5000      0.0000    925.9855      8.7945    129.9955
  1226.7500      0.0000    885.4406      8.9004    129.8450
  1227.0000      0.0000    847.7784      9.0294    125.0937
  1227.2500      0.0000    823.0623      9.1274    116.0690
  1227.5000      0.0000    818.9427      9.1610    104.8906
  1227.7500      0.0000    823.3305      9.1850     94.6497
  1228.0000      0.0000    811.6689      9.2958     87.8703
  1228.2500      0.0000    786.4575      9.5207     85.4949
  1228.5000      0.0000    774.2703      9.7838     86.9886
  1228.7500      0.0000    783.4344      9.9909     91.1258
  1229.0000      0.0000    791.6307     10.1041     96.6091
  1229.2500      0.0000    782.3160     10.1414    102.1617
  1229.5000      0.0000    772.2452     10.1564    106.6105
  1229.7500      0.0000    783.4387     10.2097    109.3847
  1230.0000      0.0000    807.1446     10.3202    110.9481
  1230.2500      0.0000    817.7421     10.4522    112.3575
  1230.5000      0.0000    817.5712     10.5250    114.1446
  1230.7500      0.0000    842.9168     10.4218    115.7915
  1231.0000      0.0000    909.7833     10.0766    116.5354
  1231.2500      0.0000    974.7491      9.5609    116.4166
  1231.5000      0.0000    979.1804      9.0131    115.9971
  1231.7500      0.0000    927.5449      8.5324    115.0693
  1232.0000      0.0000    883.8767      8.1795    112.3497
  1232.2500      0.0000    887.7764      8.0084    106.7580
  1232.5000      0.0000    915.0056      8.0295     98.6775
  1232.7500      0.0000    926.2313      8.1733     89.9190
  1233.0000      0.0000    922.5762      8.3613     82.8422
  1233.2500      0.0000    935.1781      8.5837     79.4901
  1233.5000      0.0000    975.7473      8.8797     81.0028
  1233.7500      0.0000   1022.6196      9.2823     87.1807
  1234.0000      0.0000   1045.7607      9.7926     96.2809
  1234.2500      0.0000   1024.7655     10.3822    105.5398
  1234.5000      0.0000    960.1135     11.0317    112.5915
  1234.7500      0.0000    883.5425     11.7832    116.8267
  1235.0000      0.0000    832.8605     12.7016    119.4667
  1235.2500      0.0000    813.3969     13.6919    122.2838
  1235.5000      0.0000    807.6710     14.4635    126.0316
  1235.7500      0.0000    804.4443     14.7844    129.8184
  1236.0000      0.0000    801.8356     14.6700    131.8877
  1236.2500      0.0000    799.9376     14.3011    130.9519
  1236.5000      0.0000    798.8784     13.8545    126.9621
  1236.7500      0.0000    799.4279     13.4247    121.1243
  1237.0000      0.0000    803.4451     13.0328    115.3360
  1237.2500      0.0000    813.1049     12.6795    111.0394
  1237.5000      0.0000    830.4709     12.3836    108.1209
  1237.7500      0.0000    861.5633     12.1575    105.1834
  1238.0000      0.0000    916.7263     11.9842    101.3091
  1238.2500      0.0000    993.3024     11.8299     97.4277
  1238.5000      0.0000   1061.3400     11.6450     95.6944
  1238.7500      0.0000   1087.9087     11.3851     97.5553
  1239.0000      0.0000   1073.1936     11.0740    102.5280
  1239.2500      0.0000   1047.3250     10.8026    108.7610
