~Version Information
VERS.                      2.0: CWLS Log ASCII Standard - VERSION 2.0
WRAP.                       NO: One line per depth step
~Well Information Block
STRT.FT                10.0000: 
STOP.FT               959.2500: 
STEP.FT                 0.2500: 
NULL.                -999.2500: 
COMP.          XTO Energy Inc.: COMPANY
WELL.          Golden Eagle 20-04: WELL
FLD.           Purgatrorie River: FIELD
LOC.           702' FNL & 487' FWL--: LOCATION
STAT.                       CO: State
CNTY.               Las Animas: COUNTY
CTRY. USA : Country
SECT. 20 : Section
TOWN. 33S : Township
RANG. 67W : Range
SRVC.          Patterson Wireline: SERVICE COMPANY
DATE.          Mon Dec 05 08:42:44 2005: LOG DATE
API.           05 071 08599 00: UNIQUE WELL ID
~Curve Information Block
DEPT.FT            0 000 00 00: Depth
TEMP.degF                     : Downhole Temperature
DTMP.degF                     : Delta Temperature
~Parameter Information Block
~A  Depth       TEMP        DTMP    
# ...
   623.2500     63.9538      0.0247
   623.5000     63.9587      0.0241
   623.7500     63.9654      0.0243
   624.0000     63.9705      0.0245
   624.2500     63.9772      0.0239
   624.5000     63.9824      0.0249
   624.7500     63.9893      0.0242
   625.0000     63.9963      0.0253
   625.2500     64.0015      0.0255
   625.5000     64.0086      0.0265
   625.7500     64.0139      0.0257
   626.0000     64.0210      0.0259
   626.2500     64.0282      0.0260
   626.5000     64.0354      0.0261
   626.7500     64.0408      0.0263
   627.0000     64.0481      0.0264
   627.2500     64.0536      0.0266
   627.5000     64.0609      0.0268
   627.7500     64.0664      0.0269
   628.0000     64.0739      0.0271
   628.2500     64.0814      0.0283
   628.5000     64.0890      0.0285
   628.7500     64.0947      0.0287
   629.0000     64.1023      0.0289
   629.2500     64.1101      0.0291
   629.5000     64.1179      0.0284
   629.7500     64.1238      0.0297
   630.0000     64.1317      0.0300
   630.2500     64.1397      0.0303
   630.5000     64.1458      0.0296
   630.7500     64.1540      0.0309
   631.0000     64.1623      0.0302
   631.2500     64.1707      0.0305
   631.5000     64.1770      0.0319
   631.7500     64.1855      0.0322
   632.0000     64.1920      0.0325
   632.2500     64.2007      0.0316
   632.5000     64.2095      0.0329
   632.7500     64.2183      0.0331
   633.0000     64.2272      0.0332
   633.2500     64.2339      0.0332
   633.5000     64.2428      0.0333
   633.7500     64.2516      0.0322
   634.0000     64.2584      0.0321
   634.2500     64.2672      0.0321
   634.5000     64.2760      0.0320
   634.7500     64.2827      0.0320
   635.0000     64.2915      0.0330
   635.2500     64.2981      0.0318
   635.5000     64.3068      0.0318
   635.7500     64.3156      0.0329
   636.0000     64.3243      0.0317
   636.2500     64.3309      0.0328
   636.5000     64.3396      0.0317
   636.7500     64.3484      0.0317
   637.0000     64.3549      0.0317
   637.2500     64.3636      0.0328
   637.5000     64.3702      0.0317
   637.7500     64.3789      0.0318
   638.0000     64.3878      0.0330
   638.2500     64.3965      0.0330
   638.5000     64.4031      0.0331
   638.7500     64.4119      0.0333
   639.0000     64.4209      0.0322
   639.2500     64.4297      0.0325
   639.5000     64.4364      0.0338
   639.7500     64.4455      0.0341
   640.0000     64.4522      0.0332
   640.2500     64.4614      0.0335
   640.5000     64.4707      0.0351
   640.7500     64.4801      0.0342
   641.0000     64.4872      0.0358
   641.2500     64.4968      0.0362
   641.5000     64.5065      0.0366
   641.7500     64.5139      0.0357
   642.0000     64.5238      0.0373
   642.2500     64.5338      0.0376
   642.5000     64.5438      0.0366
   642.7500     64.5515      0.0382
   643.0000     64.5617      0.0386
   643.2500     64.5720      0.0376
   643.5000     64.5798      0.0380
   643.7500     64.5903      0.0382
   644.0000     64.6009      0.0386
   644.2500     64.6090      0.0390
   644.5000     64.6198      0.0407
   644.7500     64.6279      0.0411
   645.0000     64.6389      0.0401
   645.2500     64.6501      0.0418
   645.5000     64.6612      0.0408
   645.7500     64.6725      0.0425
   646.0000     64.6811      0.0429
   646.2500     64.6926      0.0417
   646.5000     64.7013      0.0421
   646.7500     64.7129      0.0425
   647.0000     64.7248      0.0442
   647.2500     64.7336      0.0444
   647.5000     64.7455      0.0446
   647.7500     64.7574      0.0448
   648.0000     64.7695      0.0450
   648.2500     64.7815      0.0451
   648.5000     64.7905      0.0452
   648.7500     64.8026      0.0437
   649.0000     64.8147      0.0437
   649.2500     64.8237      0.0437
   649.5000     64.8359      0.0451
   649.7500     64.8449      0.0435
   650.0000     64.8569      0.0434
   650.2500     64.8689      0.0447
   650.5000     64.8808      0.0430
   650.7500     64.8897      0.0443
   651.0000     64.9014      0.0440
   651.2500     64.9131      0.0422
   651.5000     64.9219      0.0419
   651.7500     64.9334      0.0430
   652.0000     64.9448      0.0412
   652.2500     64.9533      0.0408
   652.5000     64.9645      0.0418
   652.7500     64.9756      0.0413
   653.0000     64.9839      0.0395
   653.2500     64.9947      0.0404
   653.5000     65.0054      0.0399
   653.7500     65.0160      0.0381
   654.0000     65.0238      0.0390
   654.2500     65.0341      0.0385
   654.5000     65.0443      0.0368
   654.7500     65.0519      0.0363
   655.0000     65.0618      0.0371
   655.2500     65.0717      0.0355
   655.5000     65.0790      0.0350
   655.7500     65.0886      0.0357
   656.0000     65.0980      0.0342
   656.2500     65.1051      0.0337
   656.5000     65.1142      0.0345
   656.7500     65.1234      0.0340
   657.0000     65.1301      0.0336
   657.2500     65.1391      0.0333
   657.5000     65.1479      0.0330
   657.7500     65.1566      0.0326
   658.0000     65.1653      0.0324
   658.2500     65.1717      0.0320
   658.5000     65.1802      0.0318
   658.7500     65.1886      0.0305
   659.0000     65.1949      0.0302
   659.2500     65.2032      0.0310
   659.5000     65.2114      0.0308
   659.7500     65.2175      0.0296
   660.0000     65.2257      0.0304
   660.2500     65.2338      0.0293
   660.5000     65.2418      0.0291
   660.7500     65.2478      0.0299
   661.0000     65.2558      0.0287
   661.2500     65.2617      0.0285
   661.5000     65.2696      0.0282
   661.7500     65.2773      0.0289
   662.0000     65.2831      0.0277
   662.2500     65.2907      0.0284
   662.5000     65.2982      0.0282
   662.7500     65.3057      0.0280
   663.0000     65.3112      0.0278
   663.2500     65.3186      0.0277
   663.5000     65.3259      0.0268
   663.7500     65.3332      0.0268
   664.0000     65.3387      0.0278
   664.2500     65.3461      0.0279
   664.5000     65.3518      0.0282
   664.7500     65.3593      0.0274
   665.0000     65.3668      0.0286
   665.2500     65.3745      0.0279
   665.5000     65.3822      0.0290
   665.7500     65.3881      0.0292
   666.0000     65.3959      0.0285
   666.2500     65.4018      0.0287
   666.5000     65.4098      0.0289
   666.7500     65.4178      0.0301
   667.0000     65.4238      0.0293
   667.2500     65.4319      0.0304
   667.5000     65.4401      0.0306
   667.7500     65.4483      0.0297
   668.0000     65.4545      0.0309
   668.2500     65.4627      0.0310
   668.5000     65.4710      0.0301
   668.7500     65.4772      0.0303
   669.0000     65.4856      0.0316
   669.2500     65.4940      0.0308
   669.5000     65.5004      0.0311
   669.7500     65.5090      0.0325
   670.0000     65.5177      0.0318
   670.2500     65.5243      0.0323
   670.5000     65.5333      0.0339
   670.7500     65.5423      0.0333
   671.0000     65.5493      0.0339
   671.2500     65.5587      0.0357
   671.5000     65.5683      0.0351
   671.7500     65.5756      0.0358
   672.0000     65.5855      0.0377
   672.2500     65.5957      0.0385
   672.5000     65.6034      0.0380
   672.7500     65.6140      0.0401
   673.0000     65.6247      0.0410
   673.2500     65.6357      0.0405
   673.5000     65.6442      0.0427
   673.7500     65.6557      0.0438
   674.0000     65.6675      0.0448
   674.2500     65.6766      0.0442
   674.5000     65.6889      0.0466
   674.7500     65.7015      0.0476
   675.0000     65.7143      0.0469
   675.2500     65.7241      0.0494
   675.5000     65.7374      0.0503
   675.7500     65.7510      0.0494
   676.0000     65.7613      0.0502
   676.2500     65.7753      0.0527
   676.5000     65.7895      0.0535
   676.7500     65.8002      0.0523
   677.0000     65.8148      0.0546
   677.2500     65.8295      0.0552
   677.5000     65.8443      0.0540
   677.7500     65.8555      0.0563
   678.0000     65.8706      0.0569
   678.2500     65.8858      0.0555
   678.5000     65.8974      0.0561
   678.7500     65.9129      0.0585
