~Version Information
VERS.                      2.0: CWLS Log ASCII Standard - VERSION 2.0
WRAP.                       NO: One line per depth step
~Well Information Block
STRT.FT                -7.5000: 
STOP.FT              1336.0000: 
STEP.FT                 0.2500: 
NULL.                -999.2500: 
COMP.          Pioneer Natural Resources: COMPANY
WELL.               LPGC 32-32: WELL
FLD.           Purgatorie River: FIELD
LOC.           1937' FNL & 1661' FEL--: LOCATION
CNTY.               Las Animas: COUNTY
SRVC.          Patterson Wireline: SERVICE COMPANY
DATE.          Fri Feb 03 09:39:42 2006: LOG DATE
UWI.           05 071 08641 00: UNIQUE WELL ID
STAT.                       CO: STATE
~Curve Information Block
DEPT.FT            0 000 00 00: Depth
CCL.                          : Casing Collar Locator
TT3.usec                      : CBL 3' Travel Time
AMP3.mV                       : CBL 3' Amplitude
GR.GAPI                       : Gamma Ray
~Parameter Information Block
~A  Depth       CCL         TT3         AMP3         GR     
# ...
   964.0000      0.0000    598.2030     10.3421    113.1031
   964.2500     -1.5585    569.3370     10.1669    112.4138
   964.5000      0.0000    530.8532     10.2464    114.6629
   964.7500      2.0000    491.3949     10.4486    120.0496
   965.0000      0.0000    454.9979     10.7177    126.9408
   965.2500      0.0000    423.4359     11.1268    133.2614
   965.5000      0.0000    398.1161     11.8000    138.0889
   965.7500      0.0000    379.5004     12.7438    141.9064
   966.0000      0.0000    366.6134     13.7818    145.4097
   966.2500      0.0000    357.4854     14.7304    148.3277
   966.5000      0.0000    349.8595     15.5841    149.5629
   966.7500      0.0000    341.9956     16.4377    148.4749
   967.0000      0.0000    333.4424     17.2885    145.8416
   967.2500      0.0000    325.0874     18.0110    143.2733
   967.5000      0.0000    318.3151     18.4927    141.5740
   967.7500      0.0000    313.9247     18.7260    140.0779
   968.0000      0.0000    311.7251     18.7837    137.9510
   968.2500      0.0000    310.9338     18.7513    135.5460
   968.5000      0.0000    310.7759     18.6931    133.7704
   968.7500      0.0000    310.7650     18.6495    132.4323
   969.0000      0.0000    310.6764     18.6438    130.0310
   969.2500      0.0000    310.4539     18.6820    125.4263
   969.5000      0.0000    310.1262     18.7549    119.2565
   969.7500      0.0000    309.7482     18.8471    113.2500
   970.0000      0.0000    309.3755     18.9460    108.4970
   970.2500      0.0000    309.0567     19.0443    104.8499
   970.5000      0.0000    308.8221     19.1362    101.6241
   970.7500      0.0000    308.6722     19.2115     98.1916
   971.0000      0.0000    308.5868     19.2544     93.9361
   971.2500      0.0000    308.5493     19.2480     88.3131
   971.5000      0.0000    308.5643     19.1826     81.3746
   971.7500      0.0000    308.6849     19.0581     74.1135
   972.0000      0.0000    309.0866     18.8794     67.9372
   972.2500      0.0000    310.1901     18.6507     63.6910
   972.5000      0.0000    312.6895     18.3759     61.3424
   972.7500      0.0000    317.2286     18.0625     60.5020
   973.0000      0.0000    323.7387     17.7259     60.9912
   973.2500      0.0000    331.0661     17.3912     63.1248
   973.5000      0.0000    337.5347     17.0871     67.8878
   973.7500      0.0000    342.0460     16.8355     76.6166
   974.0000      0.0000    344.5979     16.6453     89.7982
   974.2500      0.0000    345.8507     16.5175    105.8235
   974.5000      0.0000    346.4337     16.4527    121.2140
   974.7500      0.0000    346.6606     16.4495    132.6406
   975.0000      0.0000    346.6375     16.4969    138.9856
   975.2500      0.0000    346.4394     16.5719    141.4392
   975.5000      0.0000    346.1848     16.6419    141.9933
   975.7500      0.0000    346.0180     16.6715    142.2558
   976.0000      0.0000    346.0425     16.6369    143.1858
   976.2500      0.0000    346.2656     16.5433    144.9472
   976.5000      0.0000    346.6017     16.4262    146.6852
   976.7500      0.0000    346.9334     16.3291    146.8307
   977.0000      0.0000    347.1654     16.2796    143.9910
   977.2500      0.0000    347.2053     16.2887    137.9306
   977.5000      0.0000    346.8677     16.3650    130.0883
   977.7500      0.0000    345.7396     16.5148    122.9076
   978.0000      0.0000    343.1535     16.7294    118.1599
   978.2500      0.0000    338.5078     16.9811    115.9249
   978.5000      0.0000    331.9184     17.2328    115.2810
   978.7500      0.0000    324.5848     17.4493    115.5753
   979.0000      0.0000    318.2253     17.6067    116.8614
   979.2500      0.0000    313.9951     17.7033    119.5727
   979.5000      0.0000    312.0439     17.7603    123.9970
   979.7500      0.0000    312.0941     17.8015    129.5762
   980.0000      0.0000    314.1797     17.8279    134.4589
   980.2500      0.0000    318.6020     17.8184    136.3140
   980.5000      0.0000    325.1518     17.7523    134.1456
   980.7500      0.0000    332.5883     17.6252    129.1799
   981.0000      0.0000    339.1684     17.4485    123.7348
   981.2500      0.0000    343.7455     17.2445    119.4185
   981.5000      0.0000    346.2665     17.0429    116.5374
   981.7500      0.0000    347.3385     16.8738    114.7430
   982.0000      0.0000    347.5833     16.7546    113.5163
   982.2500      0.0000    347.3853     16.6855    111.8168
   982.5000      0.0000    346.9790     16.6526    108.0137
   982.7500      0.0000    346.5831     16.6319    100.9155
   983.0000      0.0000    346.4200     16.5975     90.6757
   983.2500      0.0000    346.6593     16.5349     78.5212
   983.5000      0.0000    347.4302     16.4491     66.0926
   983.7500      0.0000    348.9956     16.3504     55.0105
   984.0000      0.0000    351.8436     16.2345     46.3308
   984.2500      0.0000    356.2322     16.0852     40.1954
   984.5000      0.0000    361.2917     15.9008     36.2410
   984.7500      0.0000    364.8473     15.7079     34.1724
   985.0000      0.0000    364.8557     15.5452     33.6921
   985.2500      0.0000    361.2517     15.4336     34.2490
   985.5000      0.0000    356.0318     15.3677     35.3548
   985.7500      0.0000    351.5029     15.3329     37.0183
   986.0000      0.0000    348.8611     15.3274     39.4203
   986.2500      0.0000    348.4149     15.3614     42.0402
   986.5000      0.0000    350.8928     15.4344     43.4330
   986.7500      0.0000    358.4481     15.5199     42.2291
   987.0000      0.0000    374.4583     15.5777     38.4362
   987.2500      0.0000    401.4648     15.5809     33.6348
   987.5000      0.0000    437.9703     15.5343     29.7964
   987.7500      0.0000    476.6506     15.4671     27.9621
   988.0000      0.0000    506.5159     15.4093     27.9517
   988.2500      0.0000    518.4347     15.3705     28.9725
   988.5000      0.0000    510.3643     15.3366     30.2841
   988.7500      0.0000    488.7509     15.2814     31.5018
   989.0000      0.0000    464.7465     15.1824     32.6318
   989.2500      0.0000    447.3404     15.0302     33.9261
   989.5000      0.0000    438.8600     14.8311     35.5745
   989.7500      0.0000    436.2425     14.6062     37.4847
   990.0000      0.0000    435.2096     14.3869     39.4093
   990.2500      0.0000    432.8978     14.2023     41.2306
   990.5000      0.0000    428.4268     14.0627     42.9048
   990.7500      0.0000    422.8807     13.9544     44.1198
   991.0000      0.0000    418.8201     13.8545     44.3139
   991.2500      0.0000    418.5099     13.7515     43.1862
   991.5000      0.0000    422.0304     13.6509     41.0468
   991.7500      0.0000    427.2675     13.5632     38.6019
   992.0000      0.0000    431.7556     13.4953     36.4986
   992.2500      0.0000    434.1721     13.4538     35.0688
   992.5000      0.0000    434.2380     13.4475     34.3794
   992.7500      0.0000    431.9619     13.4798     34.3939
   993.0000      0.0000    427.5983     13.5450     34.9570
   993.2500      0.0000    422.3315     13.6324     35.6542
   993.5000      0.0000    418.3511     13.7307     35.9931
   993.7500      0.0000    417.4023     13.8256     35.8893
   994.0000      0.0000    419.1543     13.9027     35.7521
   994.2500      0.0000    421.6548     13.9548     35.9386
   994.5000      0.0000    423.5562     13.9869     36.3197
   994.7500      0.0000    425.2453     14.0133     36.5596
   995.0000      0.0000    427.6385     14.0506     36.6391
   995.2500      0.0000    430.6741     14.1092     36.8929
   995.5000      0.0000    433.4079     14.1879     37.6437
   995.7500      0.0000    434.9666     14.2746     39.0772
   996.0000      0.0000    434.8060     14.3523     41.5248
   996.2500      0.0000    432.2932     14.4055     45.5561
   996.5000      0.0000    426.6573     14.4237     51.5136
   996.7500      0.0000    417.6511     14.4049     59.0496
   997.0000      0.0000    406.1690     14.3550     67.3037
   997.2500      0.0000    394.1173     14.2857     75.2346
