~Version Information
VERS.                      2.0: CWLS Log ASCII Standard - VERSION 2.0
WRAP.                       NO: One line per depth step
~Well Information Block
STRT.FT               860.0000: 
STOP.FT              2360.5000: 
STEP.FT                 0.1000: 
NULL.                -999.2500: 
COMP.          Pioneer Natural Resources: COMPANY
WELL.            Cayenne 23-23: WELL
FLD.           Purgatoire River: FIELD
LOC.           2555' FSL & 2386' FWL: LOCATION
PROV.                 Colorado: PROVINCE
CNTY.               Las Animas: COUNTRY
SRVC.                Patterson: SERVICE COMPANY
DATE.          Wed Aug 17 08:28:25 2005: LOG DATE
UWI.           05 071 08476 00: UNIQUE WELL ID
~Curve Information Block
DEPT.FT            0 000 00 00: Depth
DCAL.in                       : CDL Caliper
RHOB.g/cc                     : CDL Bulk Density
RHOC.g/cc                     : CDL Density Correction
DPOR.pu                       : CDL Density Porosity
GR.GAPI                       : Gamma Ray
NPOR.pu                       : Neutron Porosity
~Parameter Information Block
~A  Depth       DCAL        RHOB        RHOC        DPOR         GR         NPOR    
# ...
  1551.2000      8.1816      2.5661      0.1328      5.0853    130.0327     28.1987
  1551.3000      8.1816      2.5611      0.0698      5.3907    132.1591     28.8684
  1551.4000      8.1816      2.5574      0.1080      5.6096    140.4374     28.8681
  1551.5000      8.2390      2.5540      0.0770      5.8182    148.5568     28.0062
  1551.6000      8.2390      2.5521      0.0593      5.9314    149.9125     26.6241
  1551.7000      8.2390      2.5543      0.0754      5.7982    146.3553     25.3803
  1551.8000      8.2498      2.5576      0.0623      5.6019    146.2141     24.5515
  1551.9000      8.2498      2.5619      0.0313      5.3412    149.9172     24.0579
  1552.0000      8.1796      2.5604      0.0756      5.4326    149.8108     23.8071
  1552.1000      8.1796      2.5406      0.0642      6.6317    146.3138     24.1576
  1552.2000      8.1796      2.5189     -0.0109      7.9448    145.4823     25.5058
  1552.3000      8.1533      2.5209     -0.0003      7.8262    147.2623     26.9933
  1552.4000      8.1533      2.5365      0.0659      6.8771    146.4301     27.3300
  1552.5000      8.1384      2.5401      0.0266      6.6625    140.6900     26.8779
  1552.6000      8.1384      2.5248      0.0154      7.5896    135.4500     26.4891
  1552.7000      8.1384      2.5097     -0.0505      8.5023    137.0148     26.3168
  1552.8000      8.1433      2.5136      0.0331      8.2639    146.1740     26.4944
  1552.9000      8.1433      2.5282      0.0548      7.3830    155.0917     26.9150
  1553.0000      8.1493      2.5487     -0.0281      6.1393    155.7695     26.9423
  1553.1000      8.1493      2.5743      0.0869      4.5896    150.0647     26.6469
  1553.2000      8.1493      2.5801      0.1159      4.2360    145.3592     26.7291
  1553.3000      8.1643      2.5625      0.0466      5.3034    145.4215     27.0964
  1553.4000      8.1643      2.5422      0.0708      6.5346    149.0407     27.2880
  1553.5000      8.2144      2.5211      0.0562      7.8142    150.8426     27.2774
  1553.6000      8.2144      2.4985      0.0203      9.1795    148.5300     27.3067
  1553.7000      8.2144      2.4891     -0.0862      9.7499    147.0777     27.8082
  1553.8000      8.1759      2.4939      0.0590      9.4608    151.1298     28.7638
  1553.9000      8.1759      2.4985     -0.0073      9.1817    159.1722     29.4513
  1554.0000      8.1444      2.5060      0.0509      8.7292    164.8998     29.2108
  1554.1000      8.1444      2.5177      0.0261      8.0179    164.4937     28.0108
  1554.2000      8.1444      2.5195      0.0859      7.9103    158.7116     26.2478
  1554.3000      8.1285      2.5096      0.0416      8.5100    150.9503     24.3721
  1554.4000      8.1285      2.5115      0.0483      8.3928    146.9999     23.3403
  1554.5000      8.1298      2.5354      0.0998      6.9481    148.1999     23.9519
  1554.6000      8.1298      2.5667      0.0572      5.0506    148.1435     25.6305
  1554.7000      8.1298      2.5954      0.0772      3.3107    143.4525     27.0100
  1554.8000      8.1245      2.6113      0.1343      2.3436    140.7866     27.5378
  1554.9000      8.1245      2.5991      0.1108      3.0826    139.9461     27.6743
  1555.0000      8.1188      2.5613      0.0492      5.3760    133.4588     28.0636
  1555.1000      8.1188      2.5205      0.0293      7.8478    126.3667     28.3058
  1555.2000      8.1188      2.4898      0.0009      9.7093    127.6728     27.7330
  1555.3000      8.1167      2.4717     -0.0446     10.8075    133.3118     26.9164
  1555.4000      8.1167      2.4731      0.0081     10.7230    135.6719     26.6109
  1555.5000      8.1217      2.4910      0.0068      9.6357    133.5243     26.8608
  1555.6000      8.1217      2.5085      0.0394      8.5753    131.4264     26.8988
  1555.7000      8.1217      2.5094      0.0952      8.5206    132.9664     26.1056
  1555.8000      8.1124      2.4957      0.0315      9.3527    134.1750     25.0574
  1555.9000      8.1124      2.4906     -0.0098      9.6607    132.0898     24.3042
  1556.0000      8.1026      2.5151      0.0154      8.1776    129.5919     24.1053
  1556.1000      8.1026      2.5610      0.0839      5.3926    129.4517     24.4732
  1556.2000      8.1026      2.5925      0.1252      3.4848    133.5038     24.9547
  1556.3000      8.1066      2.5903      0.0665      3.6206    140.9676     25.2001
  1556.4000      8.1066      2.5738      0.0522      4.6202    146.7276     25.5295
  1556.5000      8.1056      2.5479      0.1025      6.1852    149.3883     26.3015
  1556.6000      8.1056      2.4951      0.0271      9.3871    150.8057     26.6916
  1556.7000      8.1056      2.4298     -0.0152     13.3428    147.4414     25.9818
  1556.8000      8.1098      2.3862     -0.0137     15.9898    140.0216     24.9332
  1556.9000      8.1098      2.3668     -0.0302     17.1643    135.5950     24.3945
  1557.0000      8.1165      2.3440     -0.0285     18.5431    133.5435     24.3727
  1557.1000      8.1165      2.2998     -0.0578     21.2224    127.0700     24.4998
  1557.2000      8.1165      2.2511     -0.0600     24.1778    118.8896     24.7446
  1557.3000      8.1157      2.2280     -0.0269     25.5759    118.3052     25.2740
  1557.4000      8.1157      2.2394      0.0185     24.8878    124.8571     26.3697
  1557.5000      8.0971      2.2642      0.1153     23.3834    130.2910     28.3774
  1557.6000      8.0971      2.2822      0.1018     22.2911    132.1564     30.6227
  1557.7000      8.0971      2.2935      0.0862     21.6056    134.5516     32.0039
  1557.8000      8.0844      2.3016      0.0808     21.1182    139.3120     32.4138
  1557.9000      8.0844      2.3139      0.0638     20.3713    144.9115     32.4901
  1558.0000      8.1658      2.3397      0.1207     18.8053    147.8245     32.7271
  1558.1000      8.1658      2.3711      0.1332     16.9002    146.0118     32.6028
  1558.2000      8.1658      2.4026      0.1038     14.9924    142.8303     31.1214
  1558.3000      8.1077      2.4346      0.1131     13.0540    146.2667     29.1958
  1558.4000      8.1077      2.4510      0.1581     12.0587    152.9025     28.5729
  1558.5000      8.1307      2.4418      0.0770     12.6182    152.3172     29.0191
  1558.6000      8.1307      2.4181      0.1141     14.0556    147.0318     29.3476
  1558.7000      8.1307      2.3936      0.0715     15.5373    145.0268     29.5191
  1558.8000      8.1592      2.3844      0.0550     16.0973    147.8815     29.9302
  1558.9000      8.1592      2.3981      0.0557     15.2646    149.5547     30.2418
  1559.0000      8.1981      2.4224      0.0746     13.7927    144.2393     30.0643
  1559.1000      8.1981      2.4511      0.0493     12.0520    137.7808     29.8936
  1559.2000      8.1981      2.4883      0.1396      9.7989    138.3088     30.1185
  1559.3000      8.1834      2.5191      0.1794      7.9345    142.1862     30.4611
  1559.4000      8.1834      2.5324      0.1142      7.1243    144.5625     30.3214
  1559.5000      8.1550      2.5347      0.1618      6.9884    146.8923     29.5322
  1559.6000      8.1550      2.5154      0.1371      8.1562    148.5049     28.4695
  1559.7000      8.1550      2.4725      0.0463     10.7587    147.1992     27.4672
  1559.8000      8.1417      2.4394     -0.0006     12.7658    144.2058     27.1095
  1559.9000      8.1417      2.4428      0.0065     12.5582    142.4701     27.2780
  1560.0000      8.1183      2.4717      0.0726     10.8083    143.0733     27.1992
  1560.1000      8.1183      2.5041      0.0266      8.8448    140.7871     26.9744
  1560.2000      8.1183      2.5360      0.0905      6.9088    137.1824     27.1515
  1560.3000      8.1295      2.5597      0.1149      5.4730    138.8723     27.5883
  1560.4000      8.1295      2.5600      0.1473      5.4535    139.7709     27.7497
  1560.5000      8.1356      2.5404      0.0761      6.6411    135.6680     27.4234
  1560.6000      8.1356      2.5222      0.0575      7.7435    134.2388     27.0321
  1560.7000      8.1356      2.5185      0.0818      7.9668    138.5547     26.7671
