~Version Information
VERS.                      2.0: CWLS Log ASCII Standard - VERSION 2.0
WRAP.                       NO: One line per depth step
~Well Information Block
STRT.FT                -6.7500: 
STOP.FT              1121.2500: 
STEP.FT                 0.2500: 
NULL.                -999.2500: 
COMP.          Pioneer Natural Resources: COMPANY
WELL.              Draco 31-21: WELL
FLD.           Purgatorie River: FIELD
LOC.           491' FNL & 2446' FEL--: LOCATION
CNTY.               Las Animas: COUNTY
SRVC.          Patterson Wireline: SERVICE COMPANY
DATE.          Mon Feb 06 09:50:04 2006: LOG DATE
UWI.           05 071 08672 00: UNIQUE WELL ID
STAT.                       CO: STATE
~Curve Information Block
DEPT.FT            0 000 00 00: Depth
CCL.                          : Casing Collar Locator
TT3.usec                      : CBL 3' Travel Time
AMP3.mV                       : CBL 3' Amplitude
GR.GAPI                       : Gamma Ray
~Parameter Information Block
~A  Depth       CCL         TT3         AMP3         GR     
# ...
   797.2500      0.0000    675.2732      5.6634     83.6723
   797.5000      0.0000    675.5718      5.6259     82.2004
   797.7500      0.0000    675.9827      5.5864     80.0191
   798.0000      0.0000    676.4111      5.5829     78.8969
   798.2500      0.0000    676.7151      5.6330     80.5953
   798.5000      0.0000    676.8079      5.7186     85.3079
   798.7500      0.0000    676.7410      5.8035     91.2515
   799.0000      0.0000    676.7732      5.8640     96.0994
   799.2500      0.0000    677.4138      5.8979     98.7878
   799.5000      0.0000    679.2500      5.9080     99.9511
   799.7500      0.0000    682.2718      5.8851    100.9887
   800.0000      0.0000    684.9572      5.8113    102.9024
   800.2500      0.0000    684.4509      5.6803    105.8173
   800.5000      0.0000    678.6241      5.5184    109.1892
   800.7500      0.0000    668.5845      5.3797    112.1765
   801.0000      0.0000    658.9745      5.2972    113.9561
   801.2500      0.0000    655.7969      5.2292    114.1309
   801.5000      0.0000    663.6233      5.0852    112.8460
   801.7500      0.0000    683.2975      4.8382    110.2444
   802.0000      0.0000    710.5698      4.5891    106.0911
   802.2500      0.0000    737.6519      4.4800    100.4276
   802.5000      0.0000    758.8434      4.5579     94.3637
   802.7500      0.0000    775.5640      4.7483     89.7187
   803.0000      2.0000    793.4564      4.9418     87.7636
   803.2500      0.0000    813.0349      5.0868     88.4885
   803.5000      0.0000    825.6345      5.2186     90.9899
   803.7500      0.0000    821.3401      5.4081     94.2077
   804.0000      0.0000    799.6594      5.6612     97.1067
   804.2500      0.0000    769.6483      5.8853     98.5211
   804.5000      0.0000    740.7693      5.9996     97.4286
   804.7500      0.0000    716.3988      6.0484     93.6858
   805.0000      0.0000    694.7613      6.1467     88.3009
   805.2500      0.0000    672.5273      6.3443     82.7623
   805.5000      0.0000    646.8115      6.5908     78.2513
   805.7500      0.0000    616.9143      6.8088     75.6328
   806.0000      0.0000    587.3574      6.9585     75.7778
   806.2500      0.0000    567.8442      7.0403     79.3531
   806.5000      0.0000    564.9185      7.0717     86.0783
   806.7500      0.0000    572.0759      7.0708     94.2871
   807.0000      0.0000    572.3160      7.0466    101.5433
   807.2500      0.0000    553.2950      6.9984    106.0586
   807.5000      0.0000    518.2245      6.9246    107.4713
   807.7500      0.0000    481.0145      6.8346    106.4190
   808.0000      0.0000    453.2739      6.7503    104.1136
   808.2500      0.0000    437.2170      6.6942    102.4368
   808.5000      0.0000    428.2363      6.6764    103.2292
   808.7500      0.0000    420.8882      6.6899    106.6178
   809.0000      0.0000    412.7132      6.7155    110.5685
   809.2500      0.0000    405.0132      6.7320    112.6083
   809.5000      0.0000    401.8792      6.7268    111.6641
   809.7500      0.0000    408.3092      6.6975    108.0993
   810.0000      0.0000    427.2755      6.6489    102.7091
   810.2500      0.0000    455.8615      6.5891     96.3009
   810.5000      0.0000    483.3762      6.5282     89.9585
   810.7500      0.0000    495.8888      6.4770     84.9239
   811.0000      0.0000    485.8795      6.4469     81.9059
   811.2500      0.0000    458.0186      6.4513     80.7581
   811.5000      0.0000    424.6798      6.5023     80.8659
   811.7500      0.0000    396.3313      6.5990     81.5323
   812.0000      0.0000    376.8053      6.7212     82.0096
   812.2500      0.0000    365.6686      6.8393     81.5833
   812.5000      0.0000    362.1181      6.9308     79.9015
   812.7500      0.0000    366.3997      6.9882     77.2654
   813.0000      0.0000    380.0627      7.0151     74.6351
   813.2500      0.0000    406.2747      7.0178     73.1989
   813.5000      0.0000    447.9357      7.0002     73.5903
   813.7500      0.0000    502.3545      6.9635     75.5971
   814.0000      0.0000    558.0396      6.9099     78.9551
   814.2500      0.0000    599.8635      6.8438     84.0051
   814.5000      0.0000    619.4486      6.7706     90.8164
   814.7500      0.0000    621.0176      6.6947     97.9027
   815.0000      0.0000    618.1133      6.6184    102.8150
   815.2500      0.0000    623.9696      6.5445    104.2304
   815.5000      0.0000    641.9071      6.4794    102.8013
   815.7500      0.0000    663.5368      6.4334     99.8902
   816.0000      0.0000    676.7036      6.4177     96.3959
   816.2500      0.0000    674.6940      6.4384     93.1489
   816.5000      0.0000    657.9028      6.4909     91.4563
   816.7500      0.0000    629.7261      6.5576     92.2537
   817.0000      0.0000    594.0911      6.6119     94.9416
   817.2500      0.0000    556.6470      6.6309     97.8000
   817.5000      0.0000    525.0485      6.6075     99.5649
   817.7500      0.0000    505.2304      6.5535    100.2444
   818.0000      0.0000    497.4970      6.4934    100.6374
   818.2500      0.0000    497.5883      6.4523    101.4809
   818.5000      0.0000    502.3261      6.4440    102.9917
   818.7500      0.0000    513.2227      6.4640    104.8779
   819.0000      0.0000    532.4324      6.4969    106.5255
   819.2500      0.0000    554.9482      6.5326    107.1206
   819.5000      0.0000    568.0910      6.5747    105.9967
   819.7500      0.0000    562.4027      6.6309    103.3766
   820.0000      0.0000    543.2476      6.6974    100.4947
   820.2500      0.0000    528.8361      6.7566     98.3023
   820.5000      0.0000    534.6993      6.7907     96.2007
   820.7500      0.0000    560.6101      6.7966     92.7546
   821.0000      0.0000    592.6370      6.7856     87.6580
   821.2500      0.0000    614.8152      6.7739     82.4103
   821.5000      0.0000    616.7853      6.7735     78.9242
   821.7500      0.0000    594.5309      6.7902     77.8927
   822.0000      0.0000    550.9067      6.8239     78.6451
   822.2500      0.0000    496.7652      6.8697     80.0430
   822.5000      0.0000    446.9407      6.9187     81.2032
   822.7500      0.0000    411.7495      6.9580     81.7575
   823.0000      0.0000    392.4138      6.9718     81.9302
   823.2500      0.0000    384.0375      6.9499     82.3465
   823.5000      0.0000    381.0378      6.8953     83.4504
   823.7500      0.0000    379.8415      6.8238     84.8934
   824.0000      0.0000    378.6486      6.7562     85.5764
   824.2500      0.0000    376.5010      6.7133     84.5176
   824.5000      0.0000    373.0656      6.7136     81.7964
   824.7500      0.0000    369.0767      6.7672     78.7069
   825.0000      0.0000    366.3760      6.8701     76.7902
   825.2500      0.0000    366.9500      7.0039     76.4456
   825.5000      0.0000    371.9842      7.1429     76.5422
   825.7500      0.0000    382.5601      7.2616     75.5002
   826.0000      0.0000    400.8531      7.3423     72.6822
   826.2500      0.0000    428.9318      7.3795     68.8562
   826.5000      0.0000    465.5990      7.3771     65.5403
   826.7500      0.0000    505.8796      7.3392     63.7462
   827.0000      0.0000    544.4333      7.2677     63.1227
   827.2500      0.0000    578.1136      7.1751     62.4266
   827.5000      0.0000    605.3764      7.0945     60.9206
   827.7500      0.0000    625.5794      7.0647     59.1737
   828.0000      0.0000    638.7263      7.1004     58.5076
   828.2500      0.0000    643.2543      7.1816     59.9246
   828.5000      0.0000    633.9896      7.2731     63.5918
   828.7500      0.0000    605.0607      7.3497     68.9296
   829.0000      0.0000    556.8973      7.4033     74.7679
   829.2500      0.0000    499.8711      7.4333     79.6768
   829.5000      0.0000    449.2582      7.4401     82.8431
   829.7500      0.0000    416.0938      7.4259     84.8505
   830.0000      0.0000    403.2476      7.3983     87.0811
   830.2500      0.0000    408.6128      7.3695     90.1007
   830.5000      0.0000    428.5522      7.3495     93.1302
