~Version Information
VERS.                      2.0: CWLS Log ASCII Standard - VERSION 2.0
WRAP.                       NO: One line per depth step
~Well Information Block
STRT.FT               742.7000: 
STOP.FT              1614.5000: 
STEP.FT                 0.1000: 
NULL.                -999.2500: 
COMP.          Pioneer Natural Resources: COMPANY
WELL.           Kermit 32-7 Tr: WELL
FLD.           Purgatoire River: FIELD
LOC.           2009' FNL & 2196' FEL: LOCATION
PROV.                 Colorado: PROVINCE
CNTY.               Las Animas: COUNTRY
SRVC.                Patterson: SERVICE COMPANY
DATE.          Mon Jan 16 13:19:56 2006: LOG DATE
UWI.           05 071 08664 00: UNIQUE WELL ID
~Curve Information Block
DEPT.FT            0 000 00 00: Depth
DCAL.in                       : CDL Caliper
RHOB.g/cc                     : CDL Bulk Density
RHOC.g/cc                     : CDL Density Correction
DPOR.pu                       : CDL Density Porosity
GR.GAPI                       : Gamma Ray
~Parameter Information Block
~A  Depth       DCAL        RHOB        RHOC        DPOR         GR     
# ...
  1437.1000      7.9785      1.9433     -0.0580     42.8307    145.9650
  1437.2000      7.9785      1.8742     -0.0195     47.0161    145.7322
  1437.3000      7.9513      1.8239     -0.0307     50.0646    147.2412
  1437.4000      7.9513      1.8014     -0.0534     51.4332    148.1696
  1437.5000      7.9367      1.8218     -0.0106     50.1960    147.2378
  1437.6000      7.9367      1.8784      0.0991     46.7626    140.7076
  1437.7000      7.9367      1.9527      0.1049     42.2588    129.0756
  1437.8000      7.9405      2.0301      0.2049     37.5671    122.6237
  1437.9000      7.9405      2.0967      0.1820     33.5350    125.1881
  1438.0000      7.9609      2.1499      0.1385     30.3074    131.4556
  1438.1000      7.9609      2.1955      0.1296     27.5453    136.7858
  1438.2000      7.9609      2.2333      0.0923     25.2529    137.3969
  1438.3000      7.9970      2.2593      0.0755     23.6775    133.4225
  1438.4000      7.9970      2.2708      0.0255     22.9818    131.4550
  1438.5000      8.0123      2.2788     -0.0064     22.4952    135.3027
  1438.6000      8.0123      2.2987      0.0442     21.2891    141.5414
  1438.7000      8.0123      2.3191      0.1394     20.0529    145.1710
  1438.8000      8.0563      2.3161      0.1410     20.2393    140.9135
  1438.9000      8.0563      2.2830      0.1052     22.2443    132.2919
  1439.0000      8.0980      2.2208      0.0936     26.0132    131.4500
  1439.1000      8.0980      2.1254      0.0827     31.7968    135.9535
  1439.2000      8.0980      2.0109     -0.0681     38.7355    136.2880
  1439.3000      8.0463      1.9129      0.0268     44.6702    133.1480
  1439.4000      8.0463      1.8324      0.0448     49.5531    129.7077
  1439.5000      8.0434      1.7371      0.0533     55.3264    126.2216
  1439.6000      8.0434      1.6281      0.0204     61.9316    121.5736
  1439.7000      8.0434      1.5423     -0.0068     67.1324    115.9051
  1439.8000      7.9989      1.5008     -0.0025     69.6505    112.4818
  1439.9000      7.9989      1.5074     -0.0627     69.2490    109.6257
  1440.0000      8.0254      1.5677     -0.0112     65.5943    105.4084
  1440.1000      8.0254      1.6669      0.0697     59.5813    101.9936
  1440.2000      8.0254      1.7778      0.1296     52.8627     97.2093
  1440.3000      8.0295      1.8957      0.1613     45.7137     91.7255
  1440.4000      8.0295      2.0279      0.1716     37.7043     87.9189
  1440.5000      7.9581      2.1575      0.1878     29.8483     84.6511
  1440.6000      7.9581      2.2593      0.2352     23.6806     82.8183
  1440.7000      7.9581      2.3410      0.1588     18.7298     86.0713
  1440.8000      8.0067      2.4226      0.1646     13.7793     94.5464
  1440.9000      8.0067      2.4951      0.1782      9.3860    100.2997
  1441.0000      7.8921      2.5383      0.1150      6.7721     99.0414
  1441.1000      7.8921      2.5507      0.0943      6.0197     98.3034
  1441.2000      7.8921      2.5478      0.0429      6.1953    101.7681
  1441.3000      7.8421      2.5497      0.0272      6.0762    106.6218
  1441.4000      7.8421      2.5584      0.0941      5.5545    114.3370
  1441.5000      7.8317      2.5547      0.0746      5.7741    125.9414
  1441.6000      7.8317      2.5356      0.0786      6.9327    138.6036
  1441.7000      7.8317      2.5177      0.0667      8.0201    149.5298
  1441.8000      7.8371      2.5104      0.0539      8.4604    156.1621
  1441.9000      7.8371      2.5121      0.0781      8.3598    157.9473
  1442.0000      7.8271      2.5203      0.0699      7.8602    156.0002
  1442.1000      7.8271      2.5362      0.1055      6.8990    152.3376
  1442.2000      7.8271      2.5590      0.0849      5.5154    148.2903
  1442.3000      7.8621      2.5856      0.0877      3.9043    145.9939
  1442.4000      7.8621      2.6114      0.1329      2.3415    149.0865
  1442.5000      7.9233      2.6251      0.1351      1.5104    155.2258
  1442.6000      7.9233      2.6160      0.0987      2.0579    157.6841
  1442.7000      7.9233      2.5921      0.0386      3.5112    152.8732
  1442.8000      7.9024      2.5735      0.0236      4.6383    141.6382
  1442.9000      7.9024      2.5676      0.0451      4.9921    129.9461
  1443.0000      7.8904      2.5682      0.0698      4.9565    122.2039
  1443.1000      7.8904      2.5743      0.0261      4.5878    116.9865
  1443.2000      7.8904      2.5827      0.0430      4.0790    111.8168
  1443.3000      7.8767      2.5811      0.0395      4.1767    109.5693
  1443.4000      7.8767      2.5732      0.0311      4.6517    112.4570
  1443.5000      7.8770      2.5662      0.0467      5.0806    113.8529
  1443.6000      7.8770      2.5455      0.0736      6.3357    103.9579
  1443.7000      7.8770      2.5094      0.0106      8.5204     86.1316
  1443.8000      7.8278      2.4888     -0.0003      9.7690     73.7887
  1443.9000      7.8278      2.5011      0.0045      9.0213     69.9140
  1444.0000      7.8361      2.5228      0.1167      7.7080     68.6639
  1444.1000      7.8361      2.5254      0.0756      7.5508     67.3416
  1444.2000      7.8361      2.5215      0.0286      7.7890     66.9851
  1444.3000      7.8540      2.5283      0.0893      7.3785     67.5323
  1444.4000      7.8540      2.5322      0.0909      7.1407     69.0220
  1444.5000      7.8614      2.5298      0.0298      7.2820     71.7962
  1444.6000      7.8614      2.5323      0.0633      7.1334     72.2151
  1444.7000      7.8614      2.5335      0.0759      7.0617     69.1990
  1444.8000      7.8672      2.5290      0.0267      7.3344     70.3879
  1444.9000      7.8672      2.5241      0.0307      7.6310     79.2071
  1445.0000      7.8562      2.5150      0.0532      8.1833     86.1021
  1445.1000      7.8562      2.4971      0.0641      9.2640     84.4848
  1445.2000      7.8562      2.4732      0.0490     10.7141     79.0273
  1445.3000      7.8427      2.4479      0.0569     12.2502     74.9813
  1445.4000      7.8427      2.4285     -0.0185     13.4256     73.0543
  1445.5000      7.8237      2.4111      0.0403     14.4787     72.5021
  1445.6000      7.8237      2.3770     -0.0003     16.5476     70.5405
  1445.7000      7.8237      2.3238      0.0191     19.7721     65.8702
  1445.8000      7.8153      2.2642     -0.0115     23.3841     63.0260
  1445.9000      7.8153      2.1945      0.0508     27.6034     64.5225
  1446.0000      7.8179      2.1005      0.0117     33.3032     69.8572
  1446.1000      7.8179      1.9948     -0.0475     39.7083     77.1407
  1446.2000      7.8179      1.9007      0.0099     45.4104     81.7557
  1446.3000      7.8149      1.8083     -0.0089     51.0113     82.5543
  1446.4000      7.8149      1.7047     -0.0236     57.2898     82.4171
  1446.5000      7.8259      1.6138     -0.0776     62.8020     81.6221
  1446.6000      7.8259      1.5670      0.0041     65.6341     79.6463
  1446.7000      7.8259      1.5671      0.0275     65.6288     77.5744
  1446.8000      7.9237      1.6051      0.0396     63.3282     76.3912
  1446.9000      7.9237      1.6801      0.0356     58.7834     75.0731
  1447.0000      8.0047      1.7926      0.0833     51.9623     73.3929
  1447.1000      8.0047      1.9245      0.1644     43.9703     72.9018
  1447.2000      8.0047      2.0486      0.1836     36.4463     72.1092
  1447.3000      7.9944      2.1680      0.1946     29.2132     69.7004
  1447.4000      7.9944      2.3011      0.2378     21.1450     67.3307
  1447.5000      8.0290      2.4339      0.2197     13.0947     68.8224
  1447.6000      8.0290      2.5268      0.2284      7.4645     75.5905
  1447.7000      8.0290      2.5657      0.1117      5.1076     85.5024
  1447.8000      7.9709      2.5721      0.0917      4.7186     96.4912
  1447.9000      7.9709      2.5671      0.0229      5.0264    107.2694
  1448.0000      7.8253      2.5679      0.0340      4.9753    115.8977
  1448.1000      7.8253      2.5856      0.0567      3.9043    121.7234
  1448.2000      7.8253      2.6034      0.0977      2.8254    123.6389
