~Version Information
 VERS.                                  2.0 : CWLS LAS VERSION
 WRAP.                                   NO : WRAPING MODE
 SWARE .                 MController 2.5.0E : SOFTWARE VERSION
~Well Information
 WELL.                      Black Cat 13-23 : WELL
 COMP.     Pioneer Natural Resources USA Inc: COMPANY
 FLD.                      Purgatorie River : FIELD
 LOC.                 NW/SW Sec32 T32S R67W : LOCATION
 DATE.                           7/30-31/05 : DATE(S) LOGGED
 SRVC.       Blanco Geological Services LLC : SERVICE COMPANY
 STAT.                                   CO : STATE
 CNTY.                           Las Animas : COUNTY
 CTRY.                                  USA : COUNTRY
 API.                       05-071-08450-00 : API NUMBER
 STRT.FT                             327.00 : START DEPTH
 STOP.FT                            2850.00 : STOP DEPTH
 STEP.FT                               1.00 : DEPTH INCREMENT
 NULL.                                -9999 : NULL VALUE
~Curve information
 DEPTH.FT                                   :
 ROP.MIN/FT                                 :
 GAS.UNITS                                  :
~ASCII Log data
# ...
      2327.0         0.37          2.1 
      2328.0         0.30          1.0 
      2329.0         0.33          1.2 
      2330.0         0.38          1.3 
      2331.0         0.37          1.3 
      2332.0         0.40          1.3 
      2333.0         0.40          2.5 
      2334.0         0.37          3.9 
      2335.0         0.37          3.7 
      2336.0         0.40          3.9 
      2337.0         0.40          4.6 
      2338.0         0.40          5.3 
      2339.0         0.45          6.1 
      2340.0         0.43          5.9 
      2341.0        17.72        166.5 
      2342.0         0.43         92.6 
      2343.0         0.43        141.2 
      2344.0         0.47        149.9 
      2345.0         0.48        134.4 
      2346.0         0.33         69.8 
      2347.0         0.37         37.5 
      2348.0         0.30         32.0 
      2349.0         0.30         38.5 
      2350.0         0.27         43.3 
      2351.0         0.23         46.5 
      2352.0         0.23         48.5 
      2353.0         0.17         48.5 
      2354.0         0.23         47.8 
      2355.0         0.23         45.6 
      2356.0         0.23         40.6 
      2357.0         0.22         33.4 
      2358.0         0.27         26.5 
      2359.0         0.20         18.0 
      2360.0         0.23         13.7 
      2361.0         0.23          8.5 
      2362.0         0.27          7.4 
      2363.0         0.37          9.8 
      2364.0         0.40         10.1 
      2365.0         0.53          9.4 
      2366.0         0.43          4.2 
      2367.0         0.32          2.2 
      2368.0         0.40          0.8 
      2369.0         0.33          0.1 
      2370.0         0.50          0.1 
      2371.0        14.60         26.5 
      2372.0         0.60         15.1 
      2373.0         0.55          3.8 
      2374.0         0.60          1.2 
      2375.0         0.63          4.8 
      2376.0         0.60         11.4 
      2377.0         0.47         11.5 
      2378.0         0.47          9.9 
      2379.0         0.48          6.5 
      2380.0         0.63          3.0 
      2381.0         0.37          5.2 
      2382.0         0.27         14.2 
      2383.0         0.30         25.0 
      2384.0         0.47         32.7 
      2385.0         0.60         32.8 
      2386.0         0.55         24.5 
      2387.0         0.37         10.8 
      2388.0         0.50          4.0 
      2389.0         0.33          0.2 
      2390.0         0.30          1.0 
      2391.0         0.37          1.2 
      2392.0         0.43          1.8 
      2393.0         0.47          0.8 
      2394.0         0.48          0.1 
      2395.0         0.43          1.1 
      2396.0         0.37          1.0 
      2397.0         0.40          0.3 
      2398.0         0.40          0.1 
      2399.0         0.43          0.9 
      2400.0         0.47          0.3 
      2401.0         9.45         11.2 
      2402.0         0.97          5.9 
      2403.0         0.98          7.5 
      2404.0         0.50          9.6 
      2405.0         0.20          9.8 
      2406.0         0.73          9.1 
      2407.0         0.77          0.3 
      2408.0         0.58          1.5 
      2409.0         0.50          2.0 
      2410.0         0.60          1.4 
      2411.0         0.43          0.8 
      2412.0         0.50          0.1 
      2413.0         0.47          3.7 
      2414.0         0.57          3.4 
      2415.0         0.55          2.2 
      2416.0         0.57          2.0 
      2417.0         0.57          1.4 
      2418.0         0.87          1.6 
      2419.0         0.87          2.4 
      2420.0         0.75          3.8 
      2421.0         0.70          3.9 
      2422.0         0.77          3.6 
      2423.0         0.70          4.8 
      2424.0         0.65          7.4 
      2425.0         0.77         12.3 
      2426.0         0.57         11.8 
      2427.0         0.33          8.7 
      2428.0         0.30          6.5 
      2429.0         0.37          3.9 
      2430.0         0.37          1.8 
      2431.0        13.67         15.2 
      2432.0         0.48         22.1 
      2433.0         0.47         20.4 
      2434.0         0.63          8.9 
      2435.0         0.53         19.4 
      2436.0         0.50         36.6 
      2437.0         0.47         40.5 
      2438.0         0.52         39.5 
      2439.0         0.50         29.6 
      2440.0         0.40         17.3 
      2441.0         0.33          9.2 
      2442.0         0.27          5.1 
      2443.0         0.40          4.7 
      2444.0         0.27          4.7 
      2445.0         0.40          4.9 
      2446.0         0.50          5.9 
      2447.0         0.55          5.5 
      2448.0         0.57          3.5 
      2449.0         0.50          8.0 
      2450.0         0.40         14.5 
      2451.0         0.33         17.0 
      2452.0         0.33         17.7 
      2453.0         0.30         16.5 
      2454.0         0.37         13.1 
      2455.0         0.38          8.3 
      2456.0         0.37          4.6 
      2457.0         0.30          3.2 
      2458.0         0.33          1.7 
      2459.0         0.23          1.9 
      2460.0         0.33          1.4 
      2461.0        13.87         24.6 
      2462.0         0.40          6.9 
      2463.0         0.30          3.1 
      2464.0         0.45          1.3 
      2465.0         0.40          0.8 
      2466.0         0.47          0.7 
      2467.0         0.47          0.3 
      2468.0         0.50          3.3 
      2469.0         0.50          4.9 
      2470.0         0.50          6.0 
      2471.0         0.62          5.1 
      2472.0         0.60          3.8 
      2473.0         0.60          2.7 
      2474.0         0.60          2.8 
      2475.0         0.60          3.3 
      2476.0         0.57          4.1 
      2477.0         0.55          4.7 
      2478.0         0.50          7.0 
      2479.0         0.50          8.3 
      2480.0         0.50         16.3 
      2481.0         0.50         23.9 
      2482.0         0.40         26.1 
      2483.0         0.33         25.9 
      2484.0         0.32         21.7 
      2485.0         0.27         15.3 
      2486.0         0.23         10.3 
      2487.0         0.30          6.8 
      2488.0         0.33          4.2 
      2489.0         0.37          3.4 
      2490.0         0.47          3.5 
      2491.0        13.33         39.2 
      2492.0         0.57         16.4 
      2493.0         0.50          8.2 
      2494.0         0.48          3.5 
      2495.0         0.50          3.0 
      2496.0         0.47          1.9 
      2497.0         0.47          2.3 
      2498.0         0.47          2.7 
      2499.0         0.53          9.0 
      2500.0         0.63         18.7 
      2501.0         0.65         23.8 
      2502.0         0.70         22.8 
      2503.0         0.70         13.2 
      2504.0         0.63          5.7 
      2505.0         0.33          6.1 
      2506.0         0.55          7.0 
      2507.0         0.53          7.6 
      2508.0         0.47          7.8 
      2509.0         0.40          7.8 
      2510.0         0.37          7.5 
      2511.0         0.33          5.6 
      2512.0         0.30          4.5 
      2513.0         0.27          4.6 
      2514.0         0.37          8.2 
      2515.0         0.38          8.2 
      2516.0         0.40          7.0 
      2517.0         0.43          4.2 
      2518.0         0.47          3.1 
      2519.0         0.43          2.2 
      2520.0         0.73          2.9 
      2521.0        13.17         28.6 
      2522.0         0.47          9.1 
      2523.0         0.42          3.6 
      2524.0         0.30          1.8 
      2525.0         0.30         66.2 
      2526.0         0.33        152.1 
