~Version Information
 VERS.                                  2.0 : CWLS LAS VERSION
 WRAP.                                   NO : WRAPING MODE
 SWARE .                 MController 2.5.0N : SOFTWARE VERSION
~Well Information
 WELL.                       BaaBaa 34-1 TR : WELL
 COMP.       Pioneer Natural Resources, USA : COMPANY
 FLD.                       Purgatory River : FIELD
 LOC.                 SW/SE Sec1 T33S R67W  : LOCATION
 DATE.                             03/02/06 : DATE(S) LOGGED
 SRVC.      Blanco Geological Services, LLC : SERVICE COMPANY
 STAT.                             Colorado : STATE
 CNTY.                           Las Animas : COUNTY
 CTRY.                                  USA : COUNTRY
 API.                       05-071-08710-00 : API NUMBER
 STRT.FT                             380.00 : START DEPTH
 STOP.FT                            1410.00 : STOP DEPTH
 STEP.FT                               1.00 : DEPTH INCREMENT
 NULL.                                -9999 : NULL VALUE
~Curve information
 DEPTH.FT                                   :
 ROP.MIN/FT                                 :
 GAS.UNITS                                  :
~ASCII Log data
       380.0     -9999.00          1.5 
       381.0         5.77          1.8 
       382.0         0.20          1.8 
       383.0         0.13          2.1 
       384.0         0.13          2.2 
       385.0         0.10          2.3 
       386.0         0.13          2.4 
       387.0         0.13          2.8 
       388.0         0.13          2.9 
       389.0         0.10          2.9 
       390.0         0.10          2.8 
       391.0         0.13          3.5 
       392.0         0.10          3.5 
       393.0         0.15          3.1 
       394.0         0.13          3.9 
       395.0         0.10          3.5 
       396.0         0.10          3.9 
       397.0         0.10          3.6 
       398.0         0.13          4.1 
       399.0         0.10          3.8 
       400.0         0.10          3.8 
       401.0         0.10          3.8 
       402.0         0.10          3.9 
       403.0         0.13          4.0 
       404.0         0.10          4.2 
       405.0         0.10          4.0 
       406.0         0.10          4.3 
       407.0         0.13          4.2 
       408.0         0.10          4.3 
       409.0         0.10          4.3 
       410.0         0.13          4.0 
       411.0         3.32          5.7 
       412.0         0.10          5.9 
       413.0         0.17          5.8 
       414.0         0.30          6.3 
       415.0         0.23          6.7 
       416.0         0.28          7.0 
       417.0         0.17          6.9 
       418.0         0.13          6.8 
       419.0         0.13          6.8 
       420.0         0.17          6.5 
       421.0         0.17          6.7 
       422.0         0.13          6.7 
       423.0         0.17          6.7 
       424.0         0.17          7.0 
       425.0         0.17          6.9 
       426.0         0.17          6.7 
       427.0         0.17          6.1 
       428.0         0.17          5.0 
       429.0         0.17          4.0 
       430.0         0.17          2.7 
       431.0         0.13          1.7 
       432.0         0.17          1.4 
       433.0         0.17          1.7 
       434.0         0.17          2.3 
       435.0         0.17          2.8 
       436.0         0.18          4.0 
       437.0         0.17          4.2 
       438.0         0.23          5.0 
       439.0         0.20          5.3 
       440.0         0.17          5.7 
       441.0         3.65         29.1 
       442.0         0.30         55.9 
       443.0         0.23         59.6 
       444.0         0.17         58.1 
       445.0         0.17         52.5 
       446.0         0.17         49.2 
       447.0         0.20         43.4 
       448.0         0.20         38.4 
       449.0         0.17         28.0 
       450.0         0.17         25.7 
       451.0         0.20         21.8 
       452.0         0.17         17.5 
       453.0         0.18         14.7 
       454.0         0.13         12.5 
       455.0         0.17         11.9 
       456.0         0.17         11.0 
       457.0         0.17         10.4 
       458.0         0.13          9.7 
       459.0         0.20          9.2 
       460.0         0.13          8.8 
       461.0         0.20          8.6 
       462.0         0.17          8.0 
       463.0         0.20          7.4 
       464.0         0.17          5.3 
       465.0         0.17          3.8 
       466.0         0.17          3.0 
       467.0         0.17          3.4 
       468.0         0.17          3.6 
       469.0         0.17          4.7 
       470.0         0.20          5.2 
       471.0         3.42          6.4 
       472.0         0.23          5.8 
       473.0         0.28          6.0 
       474.0         0.27          5.6 
       475.0         0.20          5.7 
       476.0         0.23          6.0 
       477.0         0.27          6.0 
       478.0         0.23          5.8 
       479.0         0.17          5.8 
       480.0         0.20          5.4 
       481.0         0.17          5.5 
       482.0         0.20          5.3 
       483.0         0.20          5.4 
       484.0         0.17          5.5 
       485.0         0.17          5.4 
       486.0         0.17          5.3 
       487.0         0.13          5.3 
       488.0         0.17          5.2 
       489.0         0.17          5.5 
       490.0         0.15          5.5 
       491.0         0.20          5.3 
       492.0         0.23          5.1 
       493.0         0.20          5.8 
       494.0         0.20          5.7 
       495.0         0.17          5.7 
       496.0         0.20          5.6 
       497.0         0.20          5.5 
       498.0         0.20          5.7 
       499.0         0.27          5.3 
       500.0         0.17          5.3 
       501.0         3.45          5.3 
       502.0         0.33          2.2 
       503.0         0.27          1.8 
       504.0         0.17          1.7 
       505.0         0.17          1.7 
       506.0         0.22          1.7 
       507.0         0.20          2.4 
       508.0         0.13          2.2 
       509.0         0.20          3.0 
       510.0         0.17          3.2 
       511.0         0.17          2.9 
       512.0         0.13          2.8 
       513.0         0.13          2.9 
       514.0         0.17          2.5 
       515.0         0.13          2.4 
       516.0         0.13          2.2 
       517.0         0.13          2.8 
       518.0         0.20          4.0 
       519.0         0.20          3.5 
       520.0         0.20          2.8 
       521.0         0.23          2.5 
       522.0         0.20          2.7 
       523.0         0.20          2.1 
       524.0         0.13          1.8 
       525.0         0.17          1.6 
       526.0         0.22          1.8 
       527.0         0.20          1.9 
       528.0         0.17          1.6 
       529.0         0.17          1.6 
       530.0         0.20          2.0 
       531.0         3.05          1.8 
       532.0         0.17          2.1 
       533.0         0.30          2.2 
       534.0         0.27          1.8 
       535.0         0.27          1.9 
       536.0         0.27          2.3 
       537.0         0.27          1.9 
       538.0         0.20          1.8 
       539.0         0.13          1.7 
       540.0         0.17          2.2 
       541.0         0.17          1.8 
       542.0         0.20          2.3 
       543.0         0.17          2.4 
       544.0         0.22          3.0 
       545.0         0.20          3.5 
       546.0         0.20          3.3 
       547.0         0.17          2.8 
       548.0         0.20          2.7 
       549.0         0.27          2.3 
       550.0         0.20          2.2 
       551.0         0.30          2.9 
       552.0         0.27          2.2 
       553.0         0.17          2.0 
       554.0         0.17          1.8 
       555.0         0.13          2.0 
       556.0         0.17          1.9 
       557.0         0.20          1.7 
       558.0         0.20          2.0 
       559.0         0.20          1.9 
       560.0         0.20          1.9 
       561.0         3.12          2.5 
       562.0         0.13          2.5 
       563.0         0.28          2.4 
       564.0         0.20          1.9 
       565.0         0.13          2.2 
       566.0         0.13          1.8 
       567.0         0.10          1.7 
       568.0         0.13          1.9 
       569.0         0.10          1.8 
       570.0         0.30          4.9 
       571.0         0.23          7.5 
       572.0         0.20         10.1 
       573.0         0.20         11.3 
       574.0         0.20         11.6 
       575.0         0.20         11.4 
       576.0         0.20         10.1 
       577.0         0.13          9.3 
       578.0         0.13          8.2 
       579.0         0.23          7.4 
