~Version Information
VERS.                      2.0: CWLS Log ASCII Standard - VERSION 2.0
WRAP.                       NO: One line per depth step
~Well Information Block
STRT.FT                -6.5000: 
STOP.FT              1636.7500: 
STEP.FT                 0.2500: 
NULL.                -999.2500: 
COMP.          Pioneer Natural Resources: COMPANY
WELL.          Stock Canyon 34-33: WELL
FLD.           Purgatorie River: FIELD
LOC.           980' FSL & 2191' FEL--: LOCATION
PROV.                       CO: PROVINCE
CNTY.               Las Animas: COUNTRY
SRVC.          Patterson Wireline: SERVICE COMPANY
DATE.          Mon Dec 12 09:29:49 2005: LOG DATE
UWI.           05 071 08601 00: UNIQUE WELL ID
~Curve Information Block
DEPT.FT            0 000 00 00: Depth
CCL.                          : Casing Collar Locator
TT3.usec                      : CBL 3' Travel Time
AMP3.mV                       : CBL 3' Amplitude
GR.GAPI                       : Gamma Ray
~Parameter Information Block
~A  Depth       CCL         TT3         AMP3         GR     
# ...
   630.0000      0.0000    280.0175     82.6334    113.6247
   630.2500      0.0000    280.0298     82.6412    107.4864
   630.5000      0.0000    280.0440     82.6539    106.0902
   630.7500      0.0000    280.0561     82.6668    109.0508
   631.0000      0.0000    280.0629     82.6771    114.3385
   631.2500      0.0000    280.0638     82.6828    118.9086
   631.5000      0.0000    280.0602     82.6784    119.9840
   631.7500      0.0000    280.0538     82.6577    116.4853
   632.0000      0.0000    280.0468     82.6251    109.4975
   632.2500      0.0000    280.0422     82.5992    101.4931
   632.5000      0.0000    280.0422     82.5981     95.1784
   632.7500      0.0000    280.0462     82.6223     92.7541
   633.0000      0.0000    280.0521     82.6550     95.5730
   633.2500      0.0000    280.0584     82.6780    103.8307
   633.5000      0.0000    280.0648     82.6848    116.0776
   633.7500      0.0000    280.0707     82.6794    129.2498
   634.0000      0.0000    280.0751     82.6710    140.0534
   634.2500      0.0000    280.0768     82.6704    146.9204
   634.5000      0.0000    280.0753     82.6834    150.5275
   634.7500      0.0000    280.0713     82.7040    152.5558
   635.0000      0.0000    280.0672     82.7204    154.3458
   635.2500      0.0000    280.0659     82.7308    156.4930
   635.5000      0.0000    280.0684     82.7492    158.9793
   635.7500      0.0000    280.0724     82.7902    161.3376
   636.0000      0.0000    280.0747     82.8468    162.6105
   636.2500      0.0000    280.0748     82.8926    161.1404
   636.5000      0.0000    280.0748     82.9061    155.2140
   636.7500      0.0000    280.0767     82.8897    144.9014
   637.0000      0.0000    280.0805     82.8627    133.0486
   637.2500      0.0000    280.0840     82.8408    123.5639
   637.5000      0.0000    280.0846     82.8288    118.4437
   637.7500      0.0000    280.0814     82.8261    116.5002
   638.0000      0.0000    280.0762     82.8348    114.8774
   638.2500      0.0000    280.0721     82.8582    111.7415
   638.5000      0.0000    280.0706     82.8909    107.3503
   638.7500      0.0000    280.0710     82.9164    102.5835
   639.0000      0.0000    280.0726     82.9187     97.2381
   639.2500      0.0000    280.0759     82.8959     90.5452
   639.5000      0.0000    280.0816     82.8608     83.2030
   639.7500      0.0000    280.0883     82.8288     78.2940
   640.0000      0.0000    280.0931     82.8073     79.7829
   640.2500      0.0000    280.0938     82.7935     89.6878
   640.5000      0.0000    280.0906     82.7809    106.4285
   640.7500      0.0000    280.0858     82.7652    125.6718
   641.0000      0.0000    280.0809     82.7486    142.4052
   641.2500      0.0000    280.0760     82.7368    152.6811
   641.5000      0.0000    280.0705     82.7336    155.2582
   641.7500      0.0000    280.0639     82.7379    152.6147
   642.0000      0.0000    280.0571     82.7431    149.4603
   642.2500      0.0000    280.0523     82.7389    149.4028
   642.5000      0.0000    280.0520     82.7172    153.1641
   642.7500      0.0000    280.0562     82.6795    159.3984
   643.0000      0.0000    280.0634     82.6379    165.9734
   643.2500      0.0000    280.0717     82.6071    170.6675
   643.5000      0.0000    280.0802     82.5929    172.0654
   643.7500      0.0000    280.0877     82.5890    170.2288
   644.0000      0.0000    280.0926     82.5862    165.7672
   644.2500      0.0000    280.0930     82.5851    158.1398
   644.5000      0.0000    280.0884     82.5964    145.9762
   644.7500      0.0000    280.0797     82.6276    129.7933
   645.0000      0.0000    280.0695     82.6725    113.6104
   645.2500      0.0000    280.0609     82.7149    102.7166
   645.5000      0.0000    280.0558     82.7393     99.8839
   645.7500      0.0000    280.0552     82.7391    104.2632
   646.0000      0.0000    280.0590     82.7186    113.4137
   646.2500      0.0000    280.0655     82.6871    125.2089
   646.5000      0.0000    280.0717     82.6506    137.7913
   646.7500      0.0000    280.0742     82.6116    149.0964
   647.0000      0.0000    280.0720     82.5769    157.5239
   647.2500      0.0000    280.0677     82.5585    162.9978
   647.5000      0.0000    280.0648     82.5626    166.7976
   647.7500      0.0000    280.0637     82.5799    169.9388
   648.0000      0.0000    280.0616     82.5953    171.6295
   648.2500      0.0000    280.0562     82.6040    169.8604
   648.5000      0.0000    280.0518     82.6156    164.0450
   648.7500      0.0000    280.0630     82.6415    156.5750
   649.0000      0.0000    280.1142     82.6825    150.9623
   649.2500      0.0000    280.2294     82.7294    148.7328
   649.5000      0.0000    280.4028     82.7710    148.9561
   649.7500      0.0000    280.5724     82.8001    150.3829
   650.0000      0.0000    280.6461     82.8117    152.7818
   650.2500      0.0000    280.5795     82.8018    155.9993
   650.5000      0.0000    280.4203     82.7718    158.9421
   650.7500      0.0000    280.2590     82.7322    160.1920
   651.0000      0.0000    280.1518     82.6981    159.0347
   651.2500      0.0000    280.1003     82.6783    155.5932
   651.5000      0.0000    280.0811     82.6710    150.5553
   651.7500      0.0000    280.0745     82.6681    144.9888
   652.0000      0.0000    280.0704     82.6675    139.9478
   652.2500      0.0000    280.0664     82.6770    136.0009
   652.5000      0.0000    280.0645     82.7035    133.3860
   652.7500      0.0000    280.0677     82.7428    132.6670
   653.0000      0.0000    280.0761     82.7837    134.5051
   653.2500      0.0000    280.0858     82.8185    138.3248
   653.5000      0.0000    280.0913     82.8408    142.0731
   653.7500      0.0000    280.0894     82.8375    144.0366
   654.0000      0.0000    280.0805     82.7928    144.4154
   654.2500      0.0000    280.0668     82.7037    144.7336
   654.5000      0.0000    280.0506     82.5862    146.2096
   654.7500      0.0000    280.0340     82.4659    148.9084
   655.0000      0.0000    280.0204     82.3638    152.1101
   655.2500      0.0000    280.0135     82.2906    155.1535
   655.5000      0.0000    280.0153     82.2492    157.8087
   655.7500      0.0000    280.0239     82.2368    160.1900
   656.0000      0.0000    280.0348     82.2428    162.7910
   656.2500      0.0000    280.0434     82.2485    166.1990
   656.5000      0.0000    280.0468     82.2363    170.1996
   656.7500      0.0000    280.0435     82.2036    173.6424
   657.0000      0.0000    280.0329     82.1657    175.6681
   657.2500      0.0000    280.0159     82.1395    176.4377
   657.5000      0.0000    279.9967     82.1262    176.1351
   657.7500      0.0000    279.9851     82.1151    173.8567
   658.0000      0.0000    280.0028     82.0870    168.2273
   658.2500      0.0000    280.0979     81.9712    159.1330
   658.5000      0.0000    280.3604     81.5420    148.7243
   658.7500      0.0000    280.9134     80.4027    140.6454
   659.0000      0.0000    281.8455     78.2427    137.7162
   659.2500      0.0000    283.1094     75.2520    139.6246
   659.5000      0.0000    284.4842     72.1863    142.8644
   659.7500      0.0000    285.6732     69.8641    143.4474
   660.0000      0.0000    286.4735     68.6084    139.7964
   660.2500      0.0000    286.8719     68.1854    133.0418
   660.5000      0.0000    286.9997     68.1450    125.3453
   660.7500      0.0000    287.0109     68.1489    118.6501
   661.0000      0.0000    286.9977     68.0827    114.3253
   661.2500     -2.0000    286.9841     67.9706    112.8475
   661.5000      2.0000    286.9452     67.8749    113.5406
   661.7500      0.0000    286.7885     67.9173    114.9910
   662.0000      0.0000    286.3274     68.3220    116.0047
   662.2500      0.0000    285.3629     69.3055    116.4910
   662.5000      0.0000    283.8964     70.8991    117.7082
   662.7500      0.0000    282.2491     72.9549    121.2899
   663.0000      0.0000    280.8742     75.2396    127.3772
   663.2500      0.0000    280.0263     77.4331    133.7980
