~Version Information
VERS.                      2.0: CWLS Log ASCII Standard - VERSION 2.0
WRAP.                       NO: One line per depth step
~Well Information Block
STRT.FT                -6.7500: 
STOP.FT              2256.0000: 
STEP.FT                 0.2500: 
NULL.                -999.2500: 
COMP.          Pioneer Natural Resources: COMPANY
WELL.               Relay 12-7: WELL
FLD.           Purgatorie River: FIELD
LOC.           1999' FNL & 848' FWL--: LOCATION
PROV.                       CO: PROVINCE
CNTY.               Las Animas: COUNTRY
SRVC.          Patterson Wireline: SERVICE COMPANY
DATE.          Thu Dec 22 09:06:31 2005: LOG DATE
UWI.           05 071 08453 00: UNIQUE WELL ID
~Curve Information Block
DEPT.FT            0 000 00 00: Depth
CCL.                          : Casing Collar Locator
TT3.usec                      : CBL 3' Travel Time
AMP3.mV                       : CBL 3' Amplitude
GR.GAPI                       : Gamma Ray
~Parameter Information Block
~A  Depth       CCL         TT3         AMP3         GR     
# ...
   127.2500      0.0000    342.2601     14.0010     84.6075
   127.5000      0.0000    342.1494     14.0806     78.9040
   127.7500      0.0000    342.0293     14.1422     74.8459
   128.0000      0.0000    341.9418     14.1659     73.0845
   128.2500      0.0000    341.9034     14.1479     73.3603
   128.5000      0.0000    341.9017     14.1067     74.7888
   128.7500      0.0000    341.9153     14.0719     76.4815
   129.0000      0.0000    341.9319     14.0612     78.6034
   129.2500      0.0000    341.9483     14.0704     82.3068
   129.5000      0.0000    341.9581     14.0914     87.8582
   129.7500      0.0000    341.9448     14.1305     93.1731
   130.0000      0.0000    341.8932     14.2023     94.8875
   130.2500      0.0000    341.8065     14.3059     91.1320
   130.5000      0.0000    341.7098     14.4137     83.3123
   130.7500      0.0000    341.6372     14.4864     75.2810
   131.0000      0.0000    341.6111     14.5026     70.6164
   131.2500      0.0000    341.6313     14.4772     70.2311
   131.5000      0.0000    341.6806     14.4508     72.0566
   131.7500      0.0000    341.7402     14.4588     72.9540
   132.0000      0.0000    341.8010     14.5083     71.3244
   132.2500      0.0000    341.8563     14.5838     68.2262
   132.5000      0.0000    341.8886     14.6679     65.9271
   132.7500      0.0000    341.8766     14.7471     65.3814
   133.0000      0.0000    341.8198     14.8035     65.3454
   133.2500      0.0000    341.7460     14.8170     63.9574
   133.5000      0.0000    341.6890     14.7842     60.7407
   133.7500      0.0000    341.6636     14.7319     56.8784
   134.0000      0.0000    341.6635     14.7061     53.9329
   134.2500      0.0000    341.6734     14.7439     52.7289
   134.5000      0.0000    341.6803     14.8485     53.2077
   134.7500      0.0000    341.6794     14.9874     54.7343
   135.0000      0.0000    341.6731     15.1150     56.3624
   135.2500      0.0000    341.6680     15.2011     57.2483
   135.5000      0.0000    341.6734     15.2345     57.0878
   135.7500      0.0000    341.6995     15.2057     56.1409
   136.0000      0.0000    341.7489     15.0996     54.9046
   136.2500      0.0000    341.8083     14.9184     53.9783
   136.5000      0.0000    341.8535     14.7051     54.0848
   136.7500      0.0000    341.8671     14.5336     55.7212
   137.0000      0.0000    341.8520     14.4673     58.5913
   137.2500      0.0000    341.8271     14.5222     61.6308
   137.5000      0.0000    341.8071     14.6642     63.6648
   137.7500      0.0000    341.7861     14.8407     63.9843
   138.0000      0.0000    341.7442     15.0157     62.5216
   138.2500      0.0000    341.6741     15.1760     59.7547
   138.5000      0.0000    341.5961     15.3142     56.3795
   138.7500      0.0000    341.5439     15.4155     52.9051
   139.0000      0.0000    341.5334     15.4660     49.4861
   139.2500      0.0000    341.5484     15.4698     46.0987
   139.5000      0.0000    341.5546     15.4555     42.9499
   139.7500      0.0000    341.5298     15.4584     40.7182
   140.0000      0.0000    341.4790     15.4976     40.1430
   140.2500      0.0000    341.4242     15.5687     41.2299
   140.5000      0.0000    341.3836     15.6556     43.0264
   140.7500      0.0000    341.3637     15.7436     44.3022
   141.0000      0.0000    341.3606     15.8254     44.3800
   141.2500      0.0000    341.3644     15.8966     43.4470
   141.5000      0.0000    341.3665     15.9465     42.4121
   141.7500      0.0000    341.3683     15.9567     42.5777
   142.0000      0.0000    341.3789     15.9200     45.1522
   142.2500      0.0000    341.4003     15.8579     50.5924
   142.5000      0.0000    341.4240     15.8082     58.1259
   142.7500      0.0000    341.4432     15.7895     65.9300
   143.0000      0.0000    341.4626     15.7871     72.0087
   143.2500      0.0000    341.4893     15.7789     75.3431
   143.5000      0.0000    341.5208     15.7653     76.5497
   143.7500      0.0000    341.5436     15.7646     77.2539
   144.0000      0.0000    341.5490     15.7847     78.6037
   144.2500      0.0000    341.5448     15.8122     80.5351
   144.5000      0.0000    341.5513     15.8315     82.3376
   144.7500      0.0000    341.5809     15.8465     83.3403
   145.0000      0.0000    341.6252     15.8779     83.1133
   145.2500      0.0000    341.6638     15.9396     81.7797
   145.5000      0.0000    341.6837     16.0205     80.2316
   145.7500      0.0000    341.6888     16.0889     79.4643
   146.0000      0.0000    341.6936     16.1133     79.6439
   146.2500      0.0000    341.7108     16.0846     80.1644
   146.5000      0.0000    341.7419     16.0237     80.3948
   146.7500      0.0000    341.7792     15.9673     79.9298
   147.0000      0.0000    341.8180     15.9447     78.3609
   147.2500      0.0000    341.8672     15.9643     75.4384
   147.5000      0.0000    341.9414     16.0199     71.6856
   147.7500      0.0000    342.0407     16.1004     68.4695
   148.0000      0.0000    342.1422     16.1932     67.0705
   148.2500      0.0000    342.2147     16.2884     67.5937
   148.5000      0.0000    342.2374     16.3875     68.8466
   148.7500      0.0000    342.2025     16.4986     69.3950
   149.0000      0.0000    342.1087     16.6154     68.7875
   149.2500      0.0000    341.9633     16.7078     67.6769
   149.5000      0.0000    341.7875     16.7441     66.7823
   149.7500      0.0000    341.6166     16.7181     65.9356
   150.0000      0.0000    341.4886     16.6497     64.1939
   150.2500      0.0000    341.4272     16.5621     60.8417
   150.5000      0.0000    341.4236     16.4667     56.2297
   150.7500      0.0000    341.4460     16.3712     51.6267
   151.0000      0.0000    341.7610     16.2950     48.3568
   151.2500      0.0000    344.2399     16.2678     47.0467
   151.5000      0.0000    354.9257     16.3050     47.3618
   151.7500      0.0000    385.7869     16.3565     48.2193
   152.0000      0.0000    450.2314     16.2544     48.5670
   152.2500      0.0000    550.2934     15.7594     48.3874
   152.5000      0.0000    666.2639     14.7592     48.7742
   152.7500      0.0000    765.4167     13.4382     50.5671
   153.0000      0.0000    826.3582     12.1801     53.1166
   153.2500      0.0000    851.8660     11.2762     55.0580
   153.5000      0.0000    856.2712     10.7634     56.2595
   153.7500     -2.0000    847.6757     10.5124     58.1999
   154.0000      2.0000    826.7034     10.3962     62.1837
   154.2500      0.0000    793.7759     10.3783     67.8148
   154.5000      0.0000    748.7249     10.5129     73.4273
   154.7500      0.0000    687.4878     10.8973     77.3743
   155.0000      0.0000    608.0123     11.5943     78.7347
   155.2500      0.0000    519.6392     12.5547     77.5471
   155.5000      0.0000    440.9295     13.5938     74.8747
   155.7500      0.0000    386.4085     14.4655     72.1654
   156.0000      0.0000    357.5647     15.0023     70.2579
   156.2500      0.0000    346.2246     15.2039     69.4117
   156.5000      0.0000    343.1143     15.1993     70.2417
   156.7500      0.0000    342.6230     15.1406     73.7320
   157.0000      0.0000    342.5892     15.1333     79.8863
   157.2500      0.0000    342.5177     15.2307     87.0534
   157.5000      0.0000    342.3968     15.4430     93.1812
   157.7500      0.0000    342.2649     15.7275     97.2596
   158.0000      0.0000    342.1368     15.9999     99.2051
   158.2500      0.0000    341.9988     16.1912     99.0915
   158.5000      0.0000    341.8360     16.3021     97.2355
   158.7500      0.0000    341.6529     16.3982     94.6355
   159.0000      0.0000    341.4608     16.5554     92.3338
   159.2500      0.0000    341.2635     16.8037     90.2824
   159.5000      0.0000    341.0659     17.1079     87.6899
   159.7500      0.0000    340.8918     17.3928     84.5610
   160.0000      0.0000    340.7765     17.5951     82.0470
   160.2500      0.0000    340.7400     17.6963     81.0762
   160.5000      0.0000    340.7656     17.7166     81.2980
