~Version Information
VERS.                      2.0: CWLS Log ASCII Standard - VERSION 2.0
WRAP.                       NO: One line per depth step
~Well Information Block
STRT.FT               325.0000: 
STOP.FT              1013.5000: 
STEP.FT                 0.1000: 
NULL.                -999.2500: 
COMP.          Pioneer Natural Resources: COMPANY
WELL.                Doc 34-30: WELL
FLD.           Purgatoire River: FIELD
LOC.           454' FSL & 1386' FEL: LOCATION
CNTY.               Las Animas: COUNTY
SRVC.                Patterson: SERVICE COMPANY
DATE.          Thu Feb 16 07:19:58 2006: LOG DATE
UWI.           05 071 08694 00: UNIQUE WELL ID
STAT.                 Colorado: STATE
~Curve Information Block
DEPT.FT            0 000 00 00: Depth
DCAL.in                       : CDL Caliper
RHOB.g/cc                     : CDL Bulk Density
RHOC.g/cc                     : CDL Density Correction
DPOR.pu                       : CDL Density Porosity
GR.GAPI                       : Gamma Ray
NPOR.pu                       : Neutron Porosity
~Parameter Information Block
~A  Depth       DCAL        RHOB        RHOC        DPOR         GR         NPOR    
# ...
   776.2000      8.0248      2.5070      0.0351      8.6675    117.7700     27.8667
   776.3000      8.0225      2.5034      0.0514      8.8855    116.0604     27.3985
   776.4000      8.0225      2.5006     -0.0077      9.0526    112.1173     27.1532
   776.5000      8.0215      2.5099      0.0292      8.4927    112.5145     27.3927
   776.6000      8.0215      2.5185      0.0654      7.9713    115.3626     27.6549
   776.7000      8.0215      2.5077      0.0449      8.6270    116.5024     27.3983
   776.8000      8.0221      2.4875      0.0332      9.8477    117.0398     27.1849
   776.9000      8.0221      2.4823      0.0087     10.1639    120.1835     27.6191
   777.0000      8.0219      2.4996      0.0460      9.1182    123.9350     27.7605
   777.1000      8.0219      2.5239      0.0718      7.6439    122.2406     27.1349
   777.2000      8.0219      2.5345      0.0784      7.0023    116.5401     26.4900
   777.3000      8.0203      2.5284      0.0513      7.3691    114.5431     26.1927
   777.4000      8.0203      2.5194      0.0289      7.9136    118.7042     26.4598
   777.5000      8.0193      2.5158      0.0571      8.1364    123.0358     27.3824
   777.6000      8.0193      2.5151      0.0420      8.1755    122.1091     28.4020
   777.7000      8.0193      2.5189      0.0248      7.9458    117.4599     28.6957
   777.8000      8.0190      2.5254      0.0569      7.5503    114.3808     28.1869
   777.9000      8.0190      2.5221      0.0407      7.7537    114.5153     28.0018
   778.0000      8.0199      2.5105      0.0083      8.4567    115.0841     28.6111
   778.1000      8.0199      2.5132     -0.0030      8.2915    115.0703     29.4168
   778.2000      8.0199      2.5347      0.0427      6.9868    115.2276     29.9412
   778.3000      8.0215      2.5510      0.0380      6.0011    115.8049     30.0151
   778.4000      8.0215      2.5555      0.0087      5.7266    115.3594     29.7650
   778.5000      8.0230      2.5602      0.0511      5.4394    112.9850     29.1322
   778.6000      8.0230      2.5584      0.0540      5.5488    111.2647     28.3423
   778.7000      8.0230      2.5366      0.0994      6.8730    113.0286     27.8630
   778.8000      8.0241      2.5048     -0.0062      8.8028    117.1853     27.9224
   778.9000      8.0241      2.4888     -0.0238      9.7714    120.3157     28.2748
   779.0000      8.0250      2.4942      0.0146      9.4411    120.3705     28.5844
   779.1000      8.0250      2.5009      0.0379      9.0357    118.6964     28.8192
   779.2000      8.0250      2.4975      0.0069      9.2433    118.1424     29.0640
   779.3000      8.0254      2.4929      0.0209      9.5223    118.0726     29.5360
   779.4000      8.0254      2.4922      0.0123      9.5615    114.8332     29.8792
   779.5000      8.0253      2.4910      0.0017      9.6343    111.2393     29.3301
   779.6000      8.0253      2.4892     -0.0053      9.7463    113.7498     28.3902
   779.7000      8.0253      2.4945      0.0073      9.4245    119.8677     28.3308
   779.8000      8.0249      2.5029      0.0547      8.9176    123.7066     28.9973
   779.9000      8.0249      2.5005     -0.0074      9.0607    122.2298     28.9905
   780.0000      8.0251      2.4915      0.0089      9.6070    115.9957     28.2441
   780.1000      8.0251      2.4873      0.0160      9.8617    111.0912     27.9573
   780.2000      8.0251      2.4903      0.0240      9.6775    114.1517     28.0940
   780.3000      8.0248      2.4975     -0.0059      9.2403    122.8604     27.8230
   780.4000      8.0248      2.4998      0.0351      9.1025    128.0291     27.3209
   780.5000      8.0241      2.4903      0.0521      9.6809    125.5643     27.4101
   780.6000      8.0241      2.4817     -0.0173     10.1987    122.0421     27.7138
   780.7000      8.0241      2.4936     -0.0169      9.4787    124.1312     27.2542
   780.8000      8.0244      2.5161      0.0384      8.1140    131.5632     26.4292
   780.9000      8.0244      2.5212      0.0481      7.8063    138.3514     26.0968
   781.0000      8.0249      2.5085      0.0115      8.5759    139.0233     26.3027
   781.1000      8.0249      2.5001      0.0061      9.0822    138.9769     26.5371
   781.2000      8.0249      2.5041      0.0744      8.8421    143.5330     26.5256
   781.3000      8.0248      2.5172      0.0253      8.0488    147.9337     26.3438
   781.4000      8.0248      2.5340      0.0590      7.0277    151.5199     25.8833
   781.5000      8.0245      2.5429      0.0303      6.4901    157.6381     25.5528
   781.6000      8.0245      2.5370      0.0418      6.8507    161.7278     26.0197
   781.7000      8.0245      2.5189      0.0308      7.9482    159.1524     27.1429
   781.8000      8.0240      2.4959      0.0202      9.3417    151.9522     28.3653
   781.9000      8.0240      2.4757     -0.0225     10.5653    143.6430     28.8641
   782.0000      8.0234      2.4688     -0.0312     10.9848    141.5763     28.1531
   782.1000      8.0234      2.4756      0.0194     10.5716    151.9169     27.3840
   782.2000      8.0234      2.4832      0.0111     10.1068    165.3414     27.8872
   782.3000      8.0235      2.4936     -0.0010      9.4815    168.7214     29.0631
   782.4000      8.0235      2.5098      0.0642      8.4941    163.7374     29.5169
   782.5000      8.0244      2.5175      0.0535      8.0318    160.4001     28.9919
   782.6000      8.0244      2.5113      0.0537      8.4073    166.4050     28.1712
   782.7000      8.0244      2.5005      0.0566      9.0627    178.2764     27.2979
   782.8000      8.0248      2.4926      0.0230      9.5398    184.9889     26.6966
   782.9000      8.0248      2.4883      0.0679      9.8019    185.8939     27.1470
   783.0000      8.0281      2.4739      0.0797     10.6719    185.5497     28.3092
   783.1000      8.0281      2.4450      0.0209     12.4218    181.4288     29.2913
   783.2000      8.0281      2.4214      0.0098     13.8566    172.3315     30.0829
   783.3000      8.0355      2.4033      0.0742     14.9534    161.8169     30.3659
   783.4000      8.0355      2.3512      0.0662     18.1100    150.6691     29.9626
   783.5000      8.0434      2.2488     -0.0199     24.3148    136.5520     29.7913
   783.6000      8.0434      2.1290     -0.0667     31.5768    120.9169     30.2073
   783.7000      8.0434      2.0122     -0.0623     38.6566    105.8791     30.5362
   783.8000      8.0498      1.8939     -0.0924     45.8253     92.1097     30.5768
   783.9000      8.0498      1.7814     -0.0910     52.6411     80.2347     30.5749
   784.0000      8.0609      1.6870     -0.1363     58.3612     69.7869     30.6898
   784.1000      8.0609      1.6083     -0.0656     63.1308     60.3739     30.9784
   784.2000      8.0609      1.5392     -0.0858     67.3200     53.0686     31.3628
   784.3000      8.0917      1.4878     -0.0697     70.4380     49.6287     31.8173
   784.4000      8.0917      1.4582      0.0326     72.2333     48.2280     32.2856
   784.5000      8.1392      1.4344      0.0483     73.6739     44.2489     33.0679
   784.6000      8.1392      1.4080      0.0197     75.2722     38.9371     34.3806
   784.7000      8.1392      1.3872      0.0190     76.5322     37.3660     35.4702
   784.8000      8.1712      1.3781     -0.0146     77.0825     38.2097     35.6377
   784.9000      8.1712      1.3793     -0.0168     77.0138     36.8177     35.0658
   785.0000      8.1836      1.3802      0.0275     76.9562     33.3232     34.4370
   785.1000      8.1836      1.3669      0.0124     77.7657     31.1051     33.9861
   785.2000      8.1836      1.3381     -0.0115     79.5109     30.9071     33.3532
   785.3000      8.1929      1.3146     -0.0672     80.9357     30.7467     32.7476
   785.4000      8.1929      1.3214     -0.0396     80.5199     30.2415     32.8390
   785.5000      8.1965      1.3629      0.0222     78.0069     30.1036     33.7282
   785.6000      8.1965      1.4327      0.0208     73.7752     30.9798     34.6260
   785.7000      8.1965      1.5245      0.0907     68.2137     33.2735     34.3534
