~Version Information
VERS.                      2.0: CWLS Log ASCII Standard - VERSION 2.0
WRAP.                       NO: One line per depth step
~Well Information Block
STRT.FT               800.0000: 
STOP.FT              3500.0000: 
STEP.FT                 0.1000: 
NULL.                -999.2500: 
COMP.          Pioneer Natural Resources: COMPANY
WELL.          Cordillera 34-7: WELL
FLD.           Purgatoire River: FIELD
LOC.           598' FSL & 1770' FEL--: LOCATION
PROV.                 Colorado: PROVINCE
CNTY.               Las Animas: COUNTRY
SRVC.                Patterson: SERVICE COMPANY
DATE.          Fri Oct 28 07:22:44 2005: LOG DATE
UWI.           05 071 08552 00: UNIQUE WELL ID
~Curve Information Block
DEPT.FT            0 000 00 00: Depth
DCAL.in                       : CDL Caliper
RHOB.g/cc                     : CDL Bulk Density
RHOC.g/cc                     : CDL Density Correction
DPOR.pu                       : CDL Density Porosity
NPOR.pu                       : Neutron Porosity
GR.GAPI                       : Gamma Ray
~Parameter Information Block
~A  Depth       DCAL        RHOB        RHOC        DPOR        NPOR         GR     
# ...
  1865.6000      8.0290      2.5966      0.0394      3.2361     29.5053    112.2333
  1865.7000      8.0290      2.5973      0.0490      3.1967     28.7440    115.0677
  1865.8000      8.0215      2.6085      0.0595      2.5137     28.0571    117.8406
  1865.9000      8.0215      2.6200      0.0423      1.8160     28.0065    118.6268
  1866.0000      8.0195      2.6210      0.0732      1.7585     28.2170    117.5698
  1866.1000      8.0195      2.6060      0.0688      2.6685     28.1363    115.7121
  1866.2000      8.0195      2.5838      0.0445      4.0094     27.5433    115.2371
  1866.3000      8.0191      2.5674      0.0387      5.0061     26.7809    114.2866
  1866.4000      8.0191      2.5607      0.0399      5.4121     27.0272    109.8063
  1866.5000      8.0179      2.5617      0.0267      5.3544     28.5428    108.5817
  1866.6000      8.0179      2.5666      0.0387      5.0553     29.8351    112.7956
  1866.7000      8.0179      2.5744      0.0376      4.5844     29.8722    114.1878
  1866.8000      8.0176      2.5809      0.0661      4.1892     29.1261    112.3268
  1866.9000      8.0176      2.5779      0.0702      4.3684     28.1177    112.4887
  1867.0000      8.0189      2.5645      0.0662      5.1791     27.1083    113.6848
  1867.1000      8.0189      2.5485      0.0345      6.1536     26.7940    113.8442
  1867.2000      8.0189      2.5381      0.0223      6.7817     27.4752    114.8351
  1867.3000      8.0213      2.5351      0.0256      6.9622     28.2689    115.4578
  1867.4000      8.0213      2.5321      0.0429      7.1425     28.4655    112.3035
  1867.5000      8.0221      2.5266      0.0115      7.4804     28.1726    107.9863
  1867.6000      8.0221      2.5335      0.0037      7.0632     27.4872    108.5252
  1867.7000      8.0221      2.5583      0.0502      5.5587     26.7798    110.8883
  1867.8000      8.0207      2.5819      0.0699      4.1286     26.5501    109.7137
  1867.9000      8.0207      2.5890      0.0744      3.6965     26.6209    110.2417
  1868.0000      8.0194      2.5853      0.0341      3.9210     26.6924    115.4970
  1868.1000      8.0194      2.5877      0.0687      3.7766     26.6360    121.0324
  1868.2000      8.0194      2.6031      0.0466      2.8415     26.2347    121.5194
  1868.3000      8.0198      2.6212      0.0747      1.7432     25.2253    117.1781
  1868.4000      8.0198      2.6294      0.0808      1.2512     24.0553    114.5543
  1868.5000      8.0198      2.6275      0.0700      1.3646     23.6647    112.5769
  1868.6000      8.0198      2.6212      0.0877      1.7477     23.9063    104.4056
  1868.7000      8.0198      2.6179      0.0437      1.9465     24.2543     91.5572
  1868.8000      8.0194      2.6240      0.0683      1.5741     24.7806     80.7522
  1868.9000      8.0194      2.6340      0.0802      0.9691     25.5551     74.9033
  1869.0000      8.0190      2.6419      0.0734      0.4928     26.6281     75.9357
  1869.1000      8.0190      2.6487      0.0707      0.0797     27.6858     82.8667
  1869.2000      8.0190      2.6525      0.0631     -0.1515     28.2620     90.1465
  1869.3000      8.0191      2.6506      0.0713     -0.0344     28.6248     93.9608
  1869.4000      8.0191      2.6460      0.0491      0.2446     28.9843     95.6321
  1869.5000      8.0178      2.6482      0.0668      0.1118     29.2105     99.8762
  1869.6000      8.0178      2.6584      0.0782     -0.5092     29.2378    107.2932
  1869.7000      8.0178      2.6615      0.0812     -0.6973     28.9000    114.6273
  1869.8000      8.0169      2.6532      0.0245     -0.1929     28.2547    121.7928
  1869.9000      8.0169      2.6505      0.0399     -0.0310     27.6281    126.8719
  1870.0000      8.0177      2.6599      0.0032     -0.5999     26.8681    126.2243
  1870.1000      8.0177      2.6712     -0.0122     -1.2822     25.7052    119.6428
  1870.2000      8.0177      2.6731      0.0133     -1.4030     24.6179    109.9324
  1870.3000      8.0191      2.6581      0.0689     -0.4911     23.9807    101.1942
  1870.4000      8.0191      2.6292      0.0756      1.2579     23.4448     97.5412
  1870.5000      8.0212      2.6063      0.0531      2.6494     22.8277     99.6732
  1870.6000      8.0212      2.6079      0.0560      2.5498     22.3560    100.9233
  1870.7000      8.0212      2.6289      0.0945      1.2801     22.2546     94.3385
  1870.8000      8.0225      2.6490      0.0913      0.0582     22.5237     82.9124
  1870.9000      8.0225      2.6600      0.0694     -0.6050     22.6109     75.5871
  1871.0000      8.0222      2.6625      0.0724     -0.7547     22.2748     76.9294
  1871.1000      8.0222      2.6543      0.0680     -0.2592     22.0831     82.7495
  1871.2000      8.0222      2.6388      0.0355      0.6780     22.1804     85.7366
  1871.3000      8.0215      2.6260      0.0021      1.4548     22.1909     84.7288
  1871.4000      8.0215      2.6217      0.0509      1.7165     22.4611     83.3203
  1871.5000      8.0218      2.6221      0.0344      1.6908     23.2516     82.0770
  1871.6000      8.0218      2.6171      0.0665      1.9952     24.0790     81.1800
  1871.7000      8.0218      2.6039      0.0326      2.7922     24.8820     81.3902
  1871.8000      8.0213      2.5942      0.0279      3.3818     25.6166     81.6549
  1871.9000      8.0213      2.5924      0.0312      3.4910     25.6026     81.0922
  1872.0000      8.0195      2.5924      0.0324      3.4927     24.9787     81.4225
  1872.1000      8.0195      2.5930      0.0439      3.4535     24.9076     83.5917
  1872.2000      8.0195      2.5891      0.0783      3.6934     25.8142     85.3553
  1872.3000      8.0183      2.5715      0.0375      4.7561     27.3946     88.6823
  1872.4000      8.0183      2.5474      0.0472      6.2177     29.1003     96.8383
  1872.5000      8.0164      2.5350      0.0159      6.9700     30.3059    106.1838
  1872.6000      8.0164      2.5425      0.0620      6.5147     30.6391    112.5063
  1872.7000      8.0164      2.5693      0.0260      4.8885     30.2518    117.0407
  1872.8000      8.0162      2.6154      0.0688      2.0973     29.8153    120.9367
  1872.9000      8.0162      2.6612      0.1015     -0.6805     29.4449    121.7015
  1873.0000      8.0191      2.6807      0.1263     -1.8625     28.8999    115.1314
  1873.1000      8.0191      2.6752      0.0978     -1.5288     28.5148    103.3686
  1873.2000      8.0191      2.6553      0.1368     -0.3224     28.3847     93.6365
  1873.3000      8.0210      2.6255      0.0904      1.4831     28.0669     90.6919
  1873.4000      8.0210      2.5988      0.0430      3.1056     27.8258     94.2844
  1873.5000      8.0218      2.5825      0.0122      4.0920     28.0430    100.2827
  1873.6000      8.0218      2.5684      0.0232      4.9459     28.2005    106.9145
  1873.7000      8.0218      2.5529     -0.0400      5.8875     28.0758    114.8157
  1873.8000      8.0275      2.5468     -0.0200      6.2529     27.9130    121.3629
  1873.9000      8.0275      2.5561     -0.0400      5.6900     27.7442    122.4623
  1874.0000      8.0385      2.5775     -0.0183      4.3915     27.7787    119.8145
  1874.1000      8.0385      2.6014      0.0179      2.9459     28.4057    118.3189
  1874.2000      8.0385      2.6055      0.0714      2.6996     29.6176    118.5844
  1874.3000      8.0466      2.5805     -0.0224      4.2134     30.6204    118.0246
  1874.4000      8.0466      2.5459      0.0263      6.3074     30.6976    114.5621
  1874.5000      8.0495      2.5173      0.0416      8.0413     30.3127    109.5055
  1874.6000      8.0495      2.5001      0.0223      9.0841     30.4141    108.5473
  1874.7000      8.0495      2.4948      0.0306      9.4033     31.1839    116.5068
  1874.8000      8.0500      2.4874      0.0377      9.8553     32.1260    131.9893
  1874.9000      8.0500      2.4698      0.0010     10.9194     32.6732    146.5738
  1875.0000      8.0492      2.4537      0.0159     11.8983     32.5589    150.7974
  1875.1000      8.0492      2.4472      0.0274     12.2892     31.9931    146.1990
