~Version Information
VERS.                      2.0: CWLS Log ASCII Standard - VERSION 2.0
WRAP.                       NO: One line per depth step
~Well Information Block
STRT.FT              1585.0000: 
STOP.FT              2353.0000: 
STEP.FT                 0.2500: 
NULL.                -999.2500: 
COMP.          XTO Energy Inc.: COMPANY
WELL.          Hill Ranch 15-11: WELL
FLD.           Purgatrorie River: FIELD
LOC.           1862' FSL & 1801' FWL: LOCATION
STAT.                       CO: State
CNTY.               Las Animas: COUNTY
CTRY. USA : Country
SECT. 15 : Section
TOWN. 35S : Township
RANG. 67W : Range
SRVC.          Patterson Wireline: SERVICE COMPANY
DATE.          Thu Dec 08 10:20:02 2005: LOG DATE
API.              05 071 08472: UNIQUE WELL ID
~Curve Information Block
DEPT.FT            0 000 00 00: Depth
CCL.                          : Casing Collar Locator
TT3.usec                      : CBL 3' Travel Time
AMP3.mV                       : CBL 3' Amplitude
BONDIX.                       : CBL Bond Index
GR.GAPI                       : Gamma Ray
~Parameter Information Block
~A  Depth       CCL         TT3         AMP3       BONDIX        GR     
# ...
  2257.0000      0.0000    767.1186      6.1079      0.6025    104.5835
  2257.2500      0.0000    767.1300      6.2801      0.5963    107.7413
  2257.5000      0.0000    767.0195      6.3673      0.5933    107.8898
  2257.7500      0.0000    766.8557      6.4041      0.5920    104.6272
  2258.0000      0.0000    766.6808      6.4258      0.5913     98.4411
  2258.2500      0.0000    766.4538      6.4518      0.5904     90.8381
  2258.5000      0.0000    765.8991      6.4849      0.5893     83.7679
  2258.7500      0.0000    764.2425      6.5252      0.5879     78.7338
  2259.0000      0.0000    760.1539      6.5792      0.5861     76.3737
  2259.2500      0.0000    752.4857      6.6542      0.5836     76.5765
  2259.5000      0.0000    741.7970      6.7460      0.5806     78.6572
  2259.7500      0.0000    731.1202      6.8375      0.5777     81.7128
  2260.0000      0.0000    724.2285      6.9097      0.5754     85.3091
  2260.2500      0.0000    722.4288      6.9563      0.5739     89.5826
  2260.5000      0.0000    723.3536      6.9871      0.5729     94.2523
  2260.7500      0.0000    723.3055      7.0188      0.5719     97.8993
  2261.0000      0.0000    720.5054      7.0600      0.5706     98.8505
  2261.2500      0.0000    716.1106      7.1057      0.5692     96.6337
  2261.5000      0.0000    712.6542      7.1435      0.5680     92.1976
  2261.7500      0.0000    711.5030      7.1649      0.5674     86.8868
  2262.0000      0.0000    711.3828      7.1696      0.5672     81.7066
  2262.2500      0.0000    709.7501      7.1614      0.5675     77.7130
  2262.5000      0.0000    706.1002      7.1444      0.5680     76.4629
  2262.7500      0.0000    703.3019      7.1222      0.5687     79.1424
  2263.0000      0.0000    705.1931      7.0951      0.5695     85.1979
  2263.2500      0.0000    713.3027      7.0579      0.5707     92.3625
  2263.5000      0.0000    725.8792      7.0008      0.5725     98.1097
  2263.7500      0.0000    739.3894      6.9173      0.5751    100.9384
  2264.0000      0.0000    750.9936      6.8125      0.5785    100.7628
  2264.2500      0.0000    760.1276      6.7060      0.5819     98.6465
  2264.5000      0.0000    767.8337      6.6201      0.5848     96.0134
  2264.7500      0.0000    774.5499      6.5628      0.5867     93.6877
  2265.0000      0.0000    778.8681      6.5233      0.5880     91.6107
  2265.2500      0.0000    778.7674      6.4862      0.5893     89.5908
  2265.5000      0.0000    773.7657      6.4466      0.5906     88.1591
  2265.7500      0.0000    765.4611      6.4108      0.5918     88.1717
  2266.0000      0.0000    756.1619      6.3843      0.5927     89.5094
  2266.2500      0.0000    747.4311      6.3643      0.5934     90.9196
  2266.5000      0.0000    739.7997      6.3427      0.5942     91.4921
  2266.7500      0.0000    733.3564      6.3167      0.5951     91.4861
  2267.0000      0.0000    728.2804      6.2938      0.5959     91.3471
  2267.2500      0.0000    724.7932      6.2870      0.5961     90.9853
  2267.5000      0.0000    722.8495      6.3022      0.5956     90.5763
  2267.7500      0.0000    722.1045      6.3285      0.5947     90.9482
  2268.0000      0.0000    722.1683      6.3396      0.5943     92.5337
  2268.2500      0.0000    722.8608      6.3042      0.5955     94.5664
  2268.5000      0.0000    724.3864      6.1983      0.5992     95.6524
  2268.7500      0.0000    727.3809      6.0107      0.6060     94.9591
  2269.0000      0.0000    732.5656      5.7440      0.6160     93.0678
  2269.2500      0.0000    739.9481      5.4160      0.6289     91.7167
  2269.5000      0.0000    748.2943      5.0610      0.6438     92.0660
  2269.7500      0.0000    755.6893      4.7234      0.6589     93.0688
  2270.0000      0.0000    760.8123      4.4455      0.6722     92.2431
  2270.2500      0.0000    763.6085      4.2539      0.6819     88.1730
  2270.5000      0.0000    764.8482      4.1523      0.6872     81.6581
  2270.7500      0.0000    765.3253      4.1243      0.6887     74.4866
  2271.0000      0.0000    765.4714      4.1464      0.6875     68.0323
  2271.2500      0.0000    765.3920      4.2047      0.6845     63.4060
  2271.5000      0.0000    764.9548      4.3064      0.6792     62.0071
  2271.7500      0.0000    763.7626      4.4762      0.6707     64.9012
  2272.0000      0.0000    761.1619      4.7369      0.6583     71.6995
  2272.2500      0.0000    756.5432      5.0904      0.6425     80.4991
  2272.5000      0.0000    749.8147      5.5111      0.6250     89.0562
  2272.7500      0.0000    741.4122      5.9545      0.6080     95.9515
  2273.0000      0.0000    731.8220      6.3744      0.5931    100.6918
  2273.2500      0.0000    721.7810      6.7362      0.5809    103.0265
  2273.5000      0.0000    713.3069      7.0230      0.5718    102.6797
  2273.7500      0.0000    709.4183      7.2341      0.5653     99.9530
  2274.0000      0.0000    711.6627      7.3783      0.5609     96.1220
  2274.2500      0.0000    718.3108      7.4639      0.5584     92.6488
  2274.5000      0.0000    725.6635      7.4897      0.5576     90.0289
  2274.7500      0.0000    730.9610      7.4475      0.5589     87.6617
  2275.0000      0.0000    734.0027      7.3365      0.5622     84.8361
  2275.2500      0.0000    736.3088      7.1754      0.5671     81.6700
  2275.5000      0.0000    738.8209      6.9986      0.5725     79.0481
  2275.7500      0.0000    740.5458      6.8401      0.5776     77.6979
  2276.0000      0.0000    739.7242      6.7157      0.5816     77.4446
  2276.2500      0.0000    736.0582      6.6202      0.5848     77.4346
  2276.5000      0.0000    731.2089      6.5411      0.5874     77.0536
  2276.7500      0.0000    727.2053      6.4786      0.5895     76.4435
  2277.0000      0.0000    724.9150      6.4498      0.5905     76.0754
  2277.2500      0.0000    723.9859      6.4706      0.5898     76.1809
  2277.5000      0.0000    723.6637      6.5357      0.5876     76.9189
  2277.7500      0.0000    723.4205      6.6243      0.5846     78.7776
  2278.0000      0.0000    723.0877      6.7225      0.5814     82.1942
  2278.2500      0.0000    722.7515      6.8361      0.5777     86.6805
  2278.5000      0.0000    722.6316      6.9779      0.5732     90.7761
  2278.7500      0.0000    722.8341      7.1481      0.5679     93.1495
  2279.0000      0.0000    722.8776      7.3309      0.5624     93.6950
  2279.2500      0.0000    721.4925      7.5060      0.5572     93.4963
  2279.5000      0.0000    717.4574      7.6625      0.5526     93.8257
  2279.7500      0.0000    711.0297      7.8002      0.5487     95.1038
  2280.0000      0.0000    704.2521      7.9185      0.5454     96.6314
  2280.2500      0.0000    699.6042      8.0076      0.5430     97.2829
  2280.5000      0.0000    698.5758      8.0536      0.5417     96.5292
  2280.7500      0.0000    701.4319      8.0523      0.5417     94.8834
  2281.0000      0.0000    707.5275      8.0145      0.5428     93.4730
  2281.2500      0.0000    715.2867      7.9548      0.5444     93.2350
  2281.5000      0.0000    722.2196      7.8768      0.5466     94.3817
  2281.7500      0.0000    725.6478      7.7747      0.5494     96.3572
  2282.0000      0.0000    723.7552      7.6509      0.5530     98.2897
  2282.2500      0.0000    716.0360      7.5263      0.5566     99.8787
  2282.5000      0.0000    703.1996      7.4272      0.5595    101.8478
  2282.7500      0.0000    687.2236      7.3647      0.5613    104.8710
  2283.0000      0.0000    671.2253      7.3285      0.5624    108.1270
  2283.2500      0.0000    658.2823      7.3018      0.5632    109.8551
  2283.5000      0.0000    649.8689      7.2781      0.5639    109.4150
  2283.7500      0.0000    645.4945      7.2633      0.5644    107.9238
  2284.0000      0.0000    643.7580      7.2616      0.5644    106.8668
  2284.2500      0.0000    643.6365      7.2635      0.5644    107.0015
  2284.5000      0.0000    645.1649      7.2474      0.5649    108.5671
  2284.7500      0.0000    649.3538      7.1985      0.5664    111.3118
