~Version Information
 VERS.                                  2.0 : CWLS LAS VERSION
 WRAP.                                   NO : WRAPING MODE
 SWARE .                 MController 2.5.0J : SOFTWARE VERSION
~Well Information
 WELL.                     McDonald 33-31 R : WELL
 COMP.  Pioneer Natural Resources USA, Inc. : COMPANY
 FLD.                      Purgatoire River : FIELD
 LOC.                NW/SE Sec 31 T32S R66W : LOCATION
 DATE.                             09/22/05 : DATE(S) LOGGED
 SRVC.       BLANCO Geological Services LLC : SERVICE COMPANY
 STAT.                                   CO : STATE
 CNTY.                           Las Animas : COUNTY
 CTRY.                                  USA : COUNTRY
 API.                       05-071-08533-00 : API NUMBER
 STRT.FT                             377.00 : START DEPTH
 STOP.FT                            2310.00 : STOP DEPTH
 STEP.FT                               1.00 : DEPTH INCREMENT
 NULL.                                -9999 : NULL VALUE
~Curve information
 DEPTH.FT                                   :
 ROP.MIN/FT                                 :
 GAS.UNITS                                  :
~ASCII Log data
# ...
      1777.0         0.27        122.5 
      1778.0         0.27        133.5 
      1779.0         0.20        136.0 
      1780.0         0.17        135.8 
      1781.0         0.20        133.5 
      1782.0         0.20        133.1 
      1783.0         0.17        134.9 
      1784.0         0.17        135.4 
      1785.0         0.17        135.2 
      1786.0         0.17        135.5 
      1787.0         0.17        135.0 
      1788.0         0.23        132.7 
      1789.0         0.22        129.8 
      1790.0         0.20        131.2 
      1791.0         0.20        131.1 
      1792.0         0.23        127.9 
      1793.0         0.20        124.7 
      1794.0         0.17        125.3 
      1795.0         0.27        124.7 
      1796.0         0.20        100.4 
      1797.0         0.17         75.7 
      1798.0         0.17         77.8 
      1799.0         0.17         83.3 
      1800.0         3.22        460.3 
      1801.0         0.23        303.1 
      1802.0         0.37        294.4 
      1803.0         0.27        280.7 
      1804.0         0.27        247.5 
      1805.0         0.28        198.5 
      1806.0         0.20        171.1 
      1807.0         0.30        165.0 
      1808.0         0.27        157.6 
      1809.0         0.27        152.8 
      1810.0         0.27        145.0 
      1811.0         0.27        134.4 
      1812.0         0.23        123.3 
      1813.0         0.30        125.4 
      1814.0         0.23        129.0 
      1815.0         0.20        130.4 
      1816.0         0.23        129.4 
      1817.0         0.20        125.7 
      1818.0         0.25        123.0 
      1819.0         0.23        122.8 
      1820.0         0.23        125.3 
      1821.0         0.20        128.1 
      1822.0         0.20        127.8 
      1823.0         0.20        122.1 
      1824.0         0.20        117.3 
      1825.0         0.23        119.0 
      1826.0         0.17        120.0 
      1827.0         0.17        120.1 
      1828.0         0.23        120.2 
      1829.0         0.20        114.2 
      1830.0         3.88       1210.3 
      1831.0         0.37        888.8 
      1832.0         0.32        854.9 
      1833.0         0.23        778.1 
      1834.0         0.23        726.3 
      1835.0         0.30        704.4 
      1836.0         0.23        675.2 
      1837.0         0.17        651.7 
      1838.0         0.20        642.9 
      1839.0         0.40        643.8 
      1840.0         0.37        635.6 
      1841.0         0.47        618.7 
      1842.0         0.48        601.9 
      1843.0         0.67        638.1 
      1844.0         0.30        628.3 
      1845.0         0.23        626.0 
      1846.0         0.20        626.0 
      1847.0         0.23        622.9 
      1848.0         0.20        605.7 
      1849.0         0.23        576.5 
      1850.0         0.23        540.3 
      1851.0         0.23        510.5 
      1852.0         0.23        484.2 
      1853.0         0.20        465.8 
      1854.0         0.17        453.4 
      1855.0         0.25        441.6 
      1856.0         0.27        440.0 
      1857.0         0.23         47.5 
      1858.0         0.27         68.6 
      1859.0         0.23         80.7 
      1860.0         3.62        465.0 
      1861.0         0.37        284.9 
      1862.0         0.23        251.4 
      1863.0         0.13        234.5 
      1864.0         0.17        226.4 
      1865.0         0.20        214.4 
      1866.0         0.23        193.6 
      1867.0         0.20        156.7 
      1868.0         0.22        122.5 
      1869.0         0.17         85.9 
      1870.0         0.17         66.1 
      1871.0         0.13         51.6 
      1872.0         0.17         43.6 
      1873.0         0.17         34.6 
      1874.0         0.23         29.1 
      1875.0         0.20         22.6 
      1876.0         0.20         18.6 
      1877.0         0.23         16.7 
      1878.0         0.23         14.4 
      1879.0         0.20         12.3 
      1880.0         0.13         12.1 
      1881.0         0.20         11.8 
      1882.0         0.17         10.4 
      1883.0         0.17         10.9 
      1884.0         0.17         18.1 
      1885.0         0.22         46.5 
      1886.0         0.17         59.7 
      1887.0         0.17         70.3 
      1888.0         0.13         77.2 
      1889.0         0.10         81.4 
      1890.0         3.42       1500.7 
      1891.0         0.23       1088.5 
      1892.0         0.37       1030.1 
      1893.0         0.37        948.5 
      1894.0         0.30        849.8 
      1895.0         0.53        784.7 
      1896.0         0.52        702.2 
      1897.0         0.47        659.7 
      1898.0         0.37        647.6 
      1899.0         0.33        634.9 
      1900.0         0.37        634.6 
      1901.0         0.30        628.9 
      1902.0         0.33        625.4 
      1903.0         0.32        626.7 
      1904.0         0.30        621.0 
      1905.0         0.33        622.2 
      1906.0         0.30        620.3 
      1907.0         0.27        620.6 
      1908.0         0.30        620.6 
      1909.0         0.30        620.3 
      1910.0         0.30        620.0 
      1911.0         0.30        618.4 
      1912.0         0.37        614.0 
      1913.0         0.30        602.5 
      1914.0         0.32        567.6 
      1915.0         0.30        516.9 
      1916.0         0.23        481.6 
      1917.0         0.23        465.8 
      1918.0         0.23        452.7 
      1919.0         0.27        443.9 
      1920.0         3.38        440.0 
      1921.0         0.50         10.1 
      1922.0         0.40         10.2 
      1923.0         0.37         10.0 
      1924.0         0.38         10.1 
      1925.0         0.33         10.0 
      1926.0         0.33          9.9 
      1927.0         0.37          9.7 
      1928.0         0.33          9.5 
      1929.0         0.30          9.7 
      1930.0         0.30          9.4 
      1931.0         0.27          9.1 
      1932.0         0.37          9.2 
      1933.0         0.27          9.5 
      1934.0         0.30          8.8 
      1935.0         0.35          9.2 
      1936.0         0.30          9.3 
      1937.0         0.40          9.0 
      1938.0         0.27          9.1 
      1939.0         0.27          9.3 
      1940.0         0.27          9.2 
      1941.0         0.27          8.9 
      1942.0         0.30          9.2 
      1943.0         0.27          9.3 
      1944.0         0.33          9.2 
      1945.0         0.30          9.2 
      1946.0         0.38          9.2 
      1947.0         0.37          9.2 
      1948.0         0.23          9.0 
      1949.0         0.30          8.9 
      1950.0         3.48        130.6 
      1951.0         0.20        174.6 
      1952.0         0.40        234.3 
      1953.0         0.37        240.8 
      1954.0         0.37        238.0 
      1955.0         0.30        218.9 
      1956.0         0.35        196.6 
      1957.0         0.30        174.9 
      1958.0         0.40        161.1 
      1959.0         0.37        148.0 
      1960.0         0.37        138.9 
      1961.0         0.23        138.4 
      1962.0         0.30        139.4 
      1963.0         0.33        139.2 
      1964.0         0.33        137.7 
      1965.0         0.37        136.1 
      1966.0         0.35        133.1 
      1967.0         0.37        130.8 
      1968.0         0.37        129.3 
      1969.0         0.33        131.1 
      1970.0         0.33        131.3 
      1971.0         0.37        129.9 
      1972.0         0.47        125.7 
      1973.0         0.33        120.6 
      1974.0         0.23         98.7 
      1975.0         0.25         35.2 
      1976.0         0.20         16.1 
