~Version Information
 VERS.                                  2.0 : CWLS LAS VERSION
 WRAP.                                   NO : WRAPING MODE
 SWARE .                 MController 2.5.0N : SOFTWARE VERSION
~Well Information
 WELL.                LORENCITO 10-36-33-67 : WELL
 COMP.    PIONEER NATURAL RESOURCES USA INC : COMPANY
 FLD.                      PURGATIORE RIVER : FIELD
 LOC.                NW/SE SEC 36 T33S R67W : LOCATION
 DATE.                             08/27/05 : DATE(S) LOGGED
 SRVC.       BLANCO GEOLOGICAL SERVICES LLC : SERVICE COMPANY
 STAT.                             COLORADO : STATE
 CNTY.                           LAS ANIMAS : COUNTY
 CTRY.                                  USA : COUNTRY
 API.                       05-071-08501-00 : API NUMBER
 STRT.FT                             321.00 : START DEPTH
 STOP.FT                            1570.00 : STOP DEPTH
 STEP.FT                               1.00 : DEPTH INCREMENT
 NULL.                                -9999 : NULL VALUE
~Curve information
 DEPTH.FT                                   :
 ROP.MIN/FT                                 :
 GAS.UNITS                                  :
~ASCII Log data
# ...
      1321.0         0.27        206.3 
      1322.0         0.32        198.3 
      1323.0         0.20        190.2 
      1324.0         0.23        183.3 
      1325.0         0.20        176.5 
      1326.0         0.23        173.5 
      1327.0         0.30        171.2 
      1328.0         0.30        168.7 
      1329.0         0.27        166.3 
      1330.0         0.30        164.7 
      1331.0         0.27        161.2 
      1332.0         0.30        158.7 
      1333.0         0.23        155.7 
      1334.0         0.30        154.3 
      1335.0         0.28        153.6 
      1336.0         0.27        153.4 
      1337.0         0.27        153.0 
      1338.0         0.27        152.5 
      1339.0         0.27        152.2 
      1340.0         0.17        152.1 
      1341.0         0.20        152.3 
      1342.0         4.18        336.5 
      1343.0         0.47        332.2 
      1344.0         0.58        301.8 
      1345.0         0.43        272.6 
      1346.0         0.33        218.2 
      1347.0         0.33        195.5 
      1348.0         0.40        181.1 
      1349.0         0.40        177.9 
      1350.0         0.27        181.3 
      1351.0         0.30        182.1 
      1352.0         0.30        179.7 
      1353.0         0.30        171.0 
      1354.0         0.35        158.3 
      1355.0         0.30        157.4 
      1356.0         0.27        160.8 
      1357.0         0.33        161.0 
      1358.0         0.27        159.8 
      1359.0         0.37        157.4 
      1360.0         0.30        156.8 
      1361.0         0.27        157.0 
      1362.0         0.30        156.8 
      1363.0         0.30        155.6 
      1364.0         0.27        153.8 
      1365.0         0.32        152.3 
      1366.0         0.30        151.5 
      1367.0         0.30        150.8 
      1368.0         0.23        150.0 
      1369.0         0.20        149.6 
      1370.0         0.17        149.5 
      1371.0         0.20        149.8 
      1372.0         3.08        198.3 
      1373.0         0.23        285.9 
      1374.0         0.23        343.8 
      1375.0         0.23        359.3 
      1376.0         0.23        352.8 
      1377.0         0.17        323.4 
      1378.0         0.27        278.8 
      1379.0         0.20        244.2 
      1380.0         0.23        230.8 
      1381.0         0.20        236.7 
      1382.0         0.25        244.9 
      1383.0         0.30        245.9 
      1384.0         0.33        240.5 
      1385.0         0.30        226.7 
      1386.0         0.27        214.5 
      1387.0         0.27        204.0 
      1388.0         0.27        197.3 
      1389.0         0.23        189.5 
      1390.0         0.20        182.5 
      1391.0         0.30        177.7 
      1392.0         0.27        172.4 
      1393.0         0.33        167.6 
      1394.0         0.35        164.2 
      1395.0         0.30        161.2 
      1396.0         0.27        160.4 
      1397.0         0.27        159.5 
      1398.0         0.30        159.1 
      1399.0         0.27        161.7 
      1400.0         0.30        183.0 
      1401.0         0.27        203.3 
      1402.0         4.02        321.8 
      1403.0         0.45        322.1 
      1404.0         0.37        279.3 
      1405.0         0.30        225.0 
      1406.0         0.30        196.3 
      1407.0         0.27        205.0 
      1408.0         0.23        212.7 
      1409.0         0.23        216.0 
      1410.0         0.23        216.0 
      1411.0         0.23        215.0 
      1412.0         0.23        213.1 
      1413.0         0.20        208.1 
      1414.0         0.23        201.3 
      1415.0         0.23        193.5 
      1416.0         0.32        186.7 
      1417.0         0.27        179.1 
      1418.0         0.23        173.3 
      1419.0         0.37        168.9 
      1420.0         0.20        163.5 
      1421.0         0.27        161.0 
      1422.0         0.23        158.3 
      1423.0         0.27        155.3 
      1424.0         0.27        152.6 
      1425.0         0.23        150.5 
      1426.0         0.23        149.1 
      1427.0         0.23        160.3 
      1428.0         0.23        213.1 
      1429.0         0.25        287.0 
      1430.0         0.23        337.2 
      1431.0         0.27        345.9 
      1432.0         4.58        406.4 
      1433.0         0.50        316.1 
      1434.0         0.43        232.0 
      1435.0         0.50        212.8 
      1436.0         0.55        224.4 
      1437.0         0.37        222.1 
      1438.0         0.33        210.8 
      1439.0         0.30        197.0 
      1440.0         0.30        181.6 
      1441.0         0.33        170.8 
      1442.0         0.33        162.1 
      1443.0         0.27        161.0 
      1444.0         0.30        161.5 
      1445.0         0.30        165.9 
      1446.0         0.32        169.9 
      1447.0         0.30        170.1 
      1448.0         0.30        168.6 
      1449.0         0.30        167.0 
      1450.0         0.27        165.1 
      1451.0         0.33        162.7 
      1452.0         0.30        159.5 
      1453.0         0.30        156.6 
      1454.0         0.33        154.3 
      1455.0         0.30        152.3 
      1456.0         0.30        152.0 
      1457.0         0.28        152.3 
      1458.0         0.33        152.5 
      1459.0         0.33        151.6 
      1460.0         0.27        148.1 
      1461.0         0.30        148.3 
      1462.0         4.22        324.2 
      1463.0         0.50        369.5 
      1464.0         0.55        345.1 
      1465.0         0.50        237.7 
      1466.0         0.47        268.1 
      1467.0         0.40        273.4 
      1468.0         0.37        264.0 
      1469.0         0.33        241.2 
      1470.0         0.20        221.5 
      1471.0         0.17        212.3 
      1472.0         0.17        205.4 
      1473.0         0.27        194.7 
      1474.0         0.30        186.3 
      1475.0         0.25        178.5 
      1476.0         0.23        173.2 
      1477.0         0.30        168.2 
      1478.0         0.33        169.5 
      1479.0         0.33        170.4 
      1480.0         0.37        168.4 
      1481.0         0.30        164.6 
      1482.0         0.27        163.8 
      1483.0         0.30        163.2 
      1484.0         0.30        160.6 
      1485.0         0.27        156.0 
      1486.0         0.28        151.5 
      1487.0         0.30        145.9 
      1488.0         0.27        143.1 
      1489.0         0.30        141.4 
      1490.0         0.30        143.4 
      1491.0         0.30        145.7 
      1492.0         5.10       1176.4 
      1493.0         0.37        910.2 
      1494.0         0.37        802.6 
      1495.0         0.40        764.9 
      1496.0         0.33        777.5 
      1497.0         0.33        778.4 
      1498.0         0.33        759.4 
      1499.0         0.37        731.1 
      1500.0         0.33        695.3 
      1501.0         0.30        675.0 
      1502.0         0.28        664.3 
      1503.0         0.30        657.3 
      1504.0         0.30        644.0 
      1505.0         0.33        638.2 
      1506.0         0.30        638.6 
      1507.0         0.30        637.9 
      1508.0         0.33        630.8 
      1509.0         0.33        627.6 
      1510.0         0.27        625.0 
      1511.0         0.30        621.8 
      1512.0         0.27        619.5 
      1513.0         0.28        616.0 
      1514.0         0.33        618.3 
      1515.0         0.30        619.9 
      1516.0         0.30        621.8 
      1517.0         0.30        624.4 
      1518.0         0.33        624.7 
      1519.0         0.33        624.1 
      1520.0         0.30        622.8 
