~Version Information
VERS.                      2.0: CWLS Log ASCII Standard - VERSION 2.0
WRAP.                       NO: One line per depth step
~Well Information Block
STRT.FT               800.0000: 
STOP.FT              3500.0000: 
STEP.FT                 0.1000: 
NULL.                -999.2500: 
COMP.          Pioneer Natural Resources: COMPANY
WELL.          Cordillera 34-7: WELL
FLD.           Purgatoire River: FIELD
LOC.           598' FSL & 1770' FEL--: LOCATION
PROV.                 Colorado: PROVINCE
CNTY.               Las Animas: COUNTRY
SRVC.                Patterson: SERVICE COMPANY
DATE.          Fri Oct 28 07:22:44 2005: LOG DATE
UWI.           05 071 08552 00: UNIQUE WELL ID
~Curve Information Block
DEPT.FT            0 000 00 00: Depth
DCAL.in                       : CDL Caliper
RHOB.g/cc                     : CDL Bulk Density
RHOC.g/cc                     : CDL Density Correction
DPOR.pu                       : CDL Density Porosity
NPOR.pu                       : Neutron Porosity
GR.GAPI                       : Gamma Ray
~Parameter Information Block
~A  Depth       DCAL        RHOB        RHOC        DPOR        NPOR         GR     
# ...
  2403.2000      7.9551      2.5678      0.0159      4.9819     25.7398    129.8529
  2403.3000      7.9583      2.5664     -0.0619      5.0656     25.1202    128.1855
  2403.4000      7.9583      2.5927     -0.0098      3.4737     25.4671    123.5201
  2403.5000      7.9610      2.6256      0.1047      1.4758     25.9385    120.8500
  2403.6000      7.9610      2.6329      0.0626      1.0347     25.9103    118.2724
  2403.7000      7.9610      2.6268      0.0431      1.4035     25.9335    112.7838
  2403.8000      7.9605      2.6315      0.0789      1.1237     26.2329    106.4439
  2403.9000      7.9605      2.6474      0.0419      0.1596     26.3562    105.7041
  2404.0000      7.9585      2.6667      0.0389     -1.0108     26.2542    110.1305
  2404.1000      7.9585      2.6775      0.0920     -1.6688     26.2886    112.9637
  2404.2000      7.9585      2.6689      0.0816     -1.1451     26.5276    115.4476
  2404.3000      7.9570      2.6510      0.0553     -0.0620     26.9703    120.3154
  2404.4000      7.9570      2.6454      0.0595      0.2807     27.7709    124.3320
  2404.5000      7.9562      2.6543      0.0473     -0.2626     28.5694    126.4340
  2404.6000      7.9562      2.6578      0.0812     -0.4723     28.7369    127.6142
  2404.7000      7.9562      2.6395      0.0605      0.6394     28.3670    127.3647
  2404.8000      7.9568      2.6063      0.0742      2.6489     27.9480    124.9204
  2404.9000      7.9568      2.5776      0.0023      4.3874     27.6877    125.0513
  2405.0000      7.9531      2.5725     -0.0069      4.6983     27.3263    130.8924
  2405.1000      7.9531      2.5987      0.0062      3.1096     26.7274    132.5135
  2405.2000      7.9531      2.6383      0.0543      0.7090     26.5390    125.6973
  2405.3000      7.9423      2.6545      0.0595     -0.2742     27.0504    120.9382
  2405.4000      7.9423      2.6343      0.0429      0.9520     27.6653    123.2812
  2405.5000      7.9332      2.6019      0.0274      2.9132     27.8990    128.4352
  2405.6000      7.9332      2.5755      0.0505      4.5153     27.5262    132.8809
  2405.7000      7.9332      2.5498      0.0129      6.0724     26.8448    135.0389
  2405.8000      7.9299      2.5309      0.0028      7.2174     26.3506    134.3667
  2405.9000      7.9299      2.5369      0.0076      6.8531     26.0161    131.8153
  2406.0000      7.9289      2.5643      0.0461      5.1924     25.8736    131.1530
  2406.1000      7.9289      2.5941      0.0375      3.3877     26.1527    132.6898
  2406.2000      7.9289      2.6149      0.0613      2.1298     26.8816    131.4495
  2406.3000      7.9285      2.6178      0.0910      1.9490     27.6070    127.4563
  2406.4000      7.9285      2.5997      0.0685      3.0500     27.9574    124.8891
  2406.5000      7.9280      2.5740      0.0247      4.6081     28.0623    126.2398
  2406.6000      7.9280      2.5619      0.0167      5.3423     28.1886    132.4762
  2406.7000      7.9280      2.5652      0.0262      5.1410     28.3562    138.3296
  2406.8000      7.9260      2.5678      0.0613      4.9826     28.5241    136.6184
  2406.9000      7.9260      2.5636     -0.0031      5.2365     28.8125    131.6257
  2407.0000      7.9240      2.5593      0.0262      5.4990     29.1637    132.6913
  2407.1000      7.9240      2.5546      0.0521      5.7816     29.4269    139.8806
  2407.2000      7.9240      2.5564     -0.0201      5.6720     29.4501    146.5774
  2407.3000      7.9237      2.5757      0.0640      4.5032     28.9260    148.8050
  2407.4000      7.9237      2.5969      0.0646      3.2210     27.9359    146.4790
  2407.5000      7.9245      2.6006      0.0790      2.9955     26.9801    143.9195
  2407.6000      7.9245      2.5895      0.0632      3.6677     26.2228    142.2637
  2407.7000      7.9245      2.5776      0.0253      4.3874     25.6500    138.2608
  2407.8000      7.9263      2.5753      0.0270      4.5261     25.2851    132.2611
  2407.9000      7.9263      2.5813      0.0553      4.1622     24.7998    127.0485
  2408.0000      7.9270      2.5906      0.0447      3.6008     24.0104    124.2080
  2408.1000      7.9270      2.5975      0.0610      3.1831     23.2155    121.2785
  2408.2000      7.9270      2.5916      0.0428      3.5391     22.7796    115.1903
  2408.3000      7.9252      2.5762      0.0433      4.4723     22.7612    104.1288
  2408.4000      7.9252      2.5684      0.0407      4.9477     23.1415     90.4456
  2408.5000      7.9242      2.5747      0.0295      4.5648     23.6946     81.4166
  2408.6000      7.9242      2.5840      0.0506      3.9986     23.9832     80.5790
  2408.7000      7.9242      2.5873      0.0571      3.7987     23.7615     82.3461
  2408.8000      7.9262      2.5931      0.0456      3.4480     23.0199     77.6408
  2408.9000      7.9262      2.6086      0.0484      2.5090     22.0222     69.0104
  2409.0000      7.9292      2.6187      0.0839      1.8972     21.1695     64.5975
  2409.1000      7.9292      2.6097      0.0597      2.4397     20.6868     62.0658
  2409.2000      7.9292      2.5950      0.0341      3.3308     20.6176     57.5632
  2409.3000      7.9303      2.5875      0.0692      3.7903     20.7714     53.8120
  2409.4000      7.9303      2.5886      0.0046      3.7234     20.7258     51.4998
  2409.5000      7.9311      2.6006      0.0549      2.9918     20.2922     49.8871
  2409.6000      7.9311      2.6129      0.0588      2.2513     19.5334     50.4278
  2409.7000      7.9311      2.6101      0.0752      2.4160     18.3944     50.7186
  2409.8000      7.9317      2.5968      0.0220      3.2218     17.3506     48.5306
  2409.9000      7.9317      2.5915      0.0373      3.5456     17.2911     45.8007
  2410.0000      7.9327      2.6006      0.0533      2.9948     18.1444     42.4892
  2410.1000      7.9327      2.6089      0.0908      2.4939     19.0680     39.8816
  2410.2000      7.9327      2.5993      0.0854      3.0699     19.5896     39.9073
  2410.3000      7.9336      2.5754      0.0621      4.5189     19.4758     41.1748
  2410.4000      7.9336      2.5520      0.0451      5.9400     19.1242     41.1315
  2410.5000      7.9327      2.5346      0.0256      6.9963     19.5818     40.0203
  2410.6000      7.9327      2.5214      0.0351      7.7916     20.4730     41.5913
  2410.7000      7.9327      2.5163      0.0115      8.1004     20.5573     45.6976
  2410.8000      7.9315      2.5206      0.0477      7.8435     20.1876     48.0733
  2410.9000      7.9315      2.5284      0.0406      7.3718     20.3564     49.1032
  2411.0000      7.9326      2.5356      0.0652      6.9355     21.2362     51.6050
  2411.1000      7.9326      2.5387      0.0742      6.7470     22.4120     54.4811
  2411.2000      7.9326      2.5388      0.0543      6.7366     23.2746     56.7581
  2411.3000      7.9343      2.5425      0.0781      6.5141     23.5442     61.6129
  2411.4000      7.9343      2.5557      0.0431      5.7157     23.4638     70.2948
  2411.5000      7.9330      2.5822      0.0528      4.1109     23.5527     77.6152
  2411.6000      7.9330      2.6110      0.1080      2.3641     24.2614     80.3704
  2411.7000      7.9330      2.6273      0.0761      1.3758     25.5090     80.3252
  2411.8000      7.9303      2.6389      0.0634      0.6709     26.4700     79.1088
  2411.9000      7.9303      2.6590      0.0421     -0.5475     26.5097     81.0531
  2412.0000      7.9281      2.6783      0.0686     -1.7145     26.0105     90.4357
  2412.1000      7.9281      2.6770      0.0807     -1.6374     25.9327    101.6366
  2412.2000      7.9281      2.6582     -0.0362     -0.4962     26.6326    105.1745
  2412.3000      7.9246      2.6440     -0.0081      0.3622     27.5198    100.9017
  2412.4000      7.9246      2.6403     -0.0026      0.5885     28.1843     97.0615
  2412.5000      7.9231      2.6385      0.0377      0.6986     28.5798    102.0707
  2412.6000      7.9231      2.6317      0.0506      1.1095     28.6367    113.3577
  2412.7000      7.9231      2.6232      0.0428      1.6268     28.5328    120.4424
