~Version Information
VERS.                      2.0: CWLS Log ASCII Standard - VERSION 2.0
WRAP.                       NO: One line per depth step
~Well Information Block
STRT.FT               350.0000: 
STOP.FT               906.0000: 
STEP.FT                 0.2500: 
NULL.                -999.2500: 
COMP.          Pioneer Natural Resources: COMPANY
WELL.           Hartford 31-18: WELL
FLD.           Purgatorie River: FIELD
LOC.           375' FNL & 1660' FEL: LOCATION
PROV.                 Colorado: PROVINCE
CNTY.               Las Animas: COUNTRY
SRVC.                Patterson: SERVICE COMPANY
DATE.          Sat Nov 19 19:02:38 2005: LOG DATE
UWI.           05-071-08555               : UNIQUE WELL ID
~Curve Information Block
DEPT.FT            0 000 00 00: Depth
SN.Ohm-m                      : IEL Short Normal
SP.mV                         : IEL Spontaneous Potential
DIR.Ohm-m                     : IEL Induction Resistivity
GR.GAPI                       : Gamma Ray
~Parameter Information Block
~A  Depth        SN          SP         DIR          GR     
# ...
   718.5000     23.8856    190.5577     21.4395     90.5829
   718.7500     23.5605    191.5579     21.7094     90.3724
   719.0000     23.3366    192.5410     21.9801     91.5854
   719.2500     23.3282    193.4573     22.2459     93.2115
   719.5000     23.6003    194.2667     22.5144     95.5995
   719.7500     24.1646    194.9503     22.8009     96.3591
   720.0000     25.0412    195.5091     23.1230     95.1040
   720.2500     26.2855    195.9502     23.4954     92.1191
   720.5000     27.9301    196.2794     23.9263     84.1712
   720.7500     29.9068    196.5053     24.4115     77.1482
   721.0000     32.0130    196.6460     24.9255     66.0324
   721.2500     33.9520    196.7270     25.4142     59.4852
   721.5000     35.4509    196.7744     25.7941     52.6352
   721.7500     36.3807    196.8089     25.9678     50.5894
   722.0000     36.7634    196.8461     25.8507     50.9731
   722.2500     36.6679    196.8986     25.4017     52.5600
   722.5000     36.1124    196.9738     24.6389     54.9578
   722.7500     35.0483    197.0702     23.6315     55.8832
   723.0000     33.4358    197.1754     22.4742     56.0040
   723.2500     31.3868    197.2674     21.2602     55.3387
   723.5000     29.1818    197.3177     20.0647     53.7497
   723.7500     27.0566    197.2944     18.9381     52.9928
   724.0000     25.0586    197.1719     17.9064     53.9263
   724.2500     23.1802    196.9458     16.9759     56.5304
   724.5000     21.5041    196.6417     16.1434     62.8326
   724.7500     20.1476    196.3087     15.4065     67.4890
   725.0000     19.1605    195.9996     14.7716     73.3499
   725.2500     18.5013    195.7529     14.2544     76.2725
   725.5000     18.0645    195.5865     13.8745     79.8287
   725.7500     17.7466    195.5004     13.6487     81.8300
   726.0000     17.5080    195.4814     13.5863     83.7130
   726.2500     17.3663    195.5101     13.6864     83.9988
   726.5000     17.3642    195.5673     13.9388     83.7982
   726.7500     17.5562    195.6376     14.3268     84.0044
   727.0000     18.0028    195.7074     14.8321     84.8750
   727.2500     18.8054    195.7578     15.4402     84.9788
   727.5000     20.1993    195.7641     16.1439     83.0139
   727.7500     22.6424    195.7031     16.9446     80.1813
   728.0000     26.7537    195.5603     17.8501     74.2403
   728.2500     32.9439    195.3302     18.8710     69.4905
   728.5000     40.8934    195.0110     20.0140     61.7195
   728.7500     49.4533    194.6021     21.2692     56.3829
   729.0000     57.2393    194.1057     22.5916     48.2043
   729.2500     63.3244    193.5281     23.8857     42.5595
   729.5000     67.3446    192.8783     25.0103     34.2842
   729.7500     69.1655    192.1687     25.8173     29.5737
   730.0000     68.6435    191.4185     26.2112     24.6946
   730.2500     65.6980    190.6562     26.1893     23.0149
   730.5000     60.5871    189.9173     25.8323     22.5669
   730.7500     54.0874    189.2389     25.2601     23.5503
   731.0000     47.3130    188.6563     24.5855     27.0829
   731.2500     41.2664    188.2027     23.8910     30.8093
   731.5000     36.5053    187.9069     23.2292     37.7472
   731.7500     33.1298    187.7857     22.6354     42.4630
   732.0000     30.9311    187.8339     22.1399     48.4241
   732.2500     29.5426    188.0226     21.7701     51.4635
   732.5000     28.5956    188.3060     21.5445     55.3290
   732.7500     27.8878    188.6323     21.4666     58.1695
   733.0000     27.4704    188.9518     21.5240     63.7779
   733.2500     27.5753    189.2233     21.6931     68.3494
   733.5000     28.4421    189.4217     21.9448     74.9809
   733.7500     30.1602    189.5411     22.2481     78.0487
   734.0000     32.6040    189.5898     22.5705     79.2637
   734.2500     35.5197    189.5809     22.8789     77.6797
   734.5000     38.7016    189.5269     23.1442     72.1316
   734.7500     42.0418    189.4406     23.3507     66.7185
   735.0000     45.3332    189.3387     23.5033     56.9768
   735.2500     48.0066    189.2402     23.6227     50.1039
   735.5000     49.1999    189.1620     23.7294     40.5212
   735.7500     48.3022    189.1159     23.8242     35.2855
   736.0000     45.5073    189.1111     23.8790     29.9394
   736.2500     41.7344    189.1581     23.8425     28.2727
   736.5000     37.9745    189.2680     23.6553     28.7345
   736.7500     34.7835    189.4461     23.2697     30.9888
   737.0000     32.2846    189.6857     22.6662     37.2771
   737.2500     30.3922    189.9629     21.8658     43.3876
   737.5000     28.9655    190.2370     20.9305     54.7524
   737.7500     27.8609    190.4563     19.9474     62.6940
   738.0000     26.9471    190.5732     19.0023     72.4536
   738.2500     26.1255    190.5630     18.1550     76.1672
   738.5000     25.3506    190.4332     17.4298     76.8638
   738.7500     24.6120    190.2144     16.8206     74.9317
   739.0000     23.8893    189.9431     16.3058     71.2961
   739.2500     23.1464    189.6503     15.8636     69.8753
   739.5000     22.3698    189.3612     15.4812     70.1071
   739.7500     21.5862    189.0970     15.1551     71.4871
   740.0000     20.8504    188.8752     14.8877     74.5875
   740.2500     20.2310    188.7080     14.6840     77.1645
   740.5000     19.7747    188.6025     14.5496     81.7398
   740.7500     19.4657    188.5633     14.4896     85.0449
   741.0000     19.2487    188.5939     14.5051     89.4849
   741.2500     19.0954    188.6971     14.5898     91.5298
   741.5000     19.0389    188.8734     14.7280     92.8663
   741.7500     19.1604    189.1162     14.8959     92.8709
   742.0000     19.5392    189.4054     15.0664     92.2409
   742.2500     20.1904    189.7031     15.2153     91.5349
   742.5000     21.0523    189.9591     15.3257     89.6636
   742.7500     22.0441    190.1273     15.3914     87.4949
   743.0000     23.1185    190.1824     15.4178     82.3013
   743.2500     24.2502    190.1269     15.4214     77.3445
   743.5000     25.3515    189.9824     15.4267     67.6989
   743.7500     26.1513    189.7754     15.4599     60.3006
   744.0000     26.2478    189.5305     15.5400     49.8075
   744.2500     25.4451    189.2713     15.6720     44.7939
   744.5000     24.0004    189.0226     15.8427     42.1692
   744.7500     22.4309    188.8069     16.0234     43.7973
   745.0000     21.1321    188.6414     16.1784     49.9538
   745.2500     20.2384    188.5385     16.2776     55.3204
   745.5000     19.7265    188.5098     16.3073     63.4125
   745.7500     19.5103    188.5657     16.2748     68.2508
   746.0000     19.4784    188.7116     16.2057     74.5641
   746.2500     19.5536    188.9458     16.1365     78.2383
   746.5000     19.7484    189.2588     16.1072     82.6398
   746.7500     20.1338    189.6309     16.1549     84.3963
   747.0000     20.7376    190.0294     16.3074     84.9388
   747.2500     21.4945    190.4120     16.5793     84.2652
   747.5000     22.2989    190.7380     16.9705     82.6485
   747.7500     23.0777    190.9810     17.4663     81.3675
   748.0000     23.8210    191.1337     18.0392     78.8083
   748.2500     24.5684    191.2033     18.6496     76.5215
   748.5000     25.3413    191.2047     19.2464     72.6981
   748.7500     26.0756    191.1578     19.7728     70.5315
   749.0000     26.6480    191.0857     20.1781     68.7191
   749.2500     26.9623    191.0103     20.4316     68.4371
   749.5000     26.9851    190.9463     20.5313     68.6524
   749.7500     26.7322    190.8972     20.5035     68.8259
   750.0000     26.2699    190.8580     20.3951     68.9576
   750.2500     25.7102    190.8219     20.2606     69.0831
   750.5000     25.1549    190.7886     20.1509     69.6989
   750.7500     24.6325    190.7657     20.1029     70.6103
   751.0000     24.1003    190.7647     20.1322     72.9691
   751.2500     23.5127    190.7924     20.2283     75.2303
   751.5000     22.9051    190.8421     20.3567     79.4205
   751.7500     22.4000    190.8886     20.4703     82.4102
