~Version Information
VERS.                      2.0: CWLS Log ASCII Standard - VERSION 2.0
WRAP.                       NO: One line per depth step
~Well Information Block
STRT.FT               615.0000: 
STOP.FT              2807.0000: 
STEP.FT                 0.1000: 
NULL.                -999.2500: 
COMP.          Pioneer Natural Resources: COMPANY
WELL.              Loews 41-32: WELL
FLD.           Purgatoire River: FIELD
LOC.           751' FNL & 128' FEL: LOCATION
CNTY.               Las Animas: COUNTY
SRVC.                Patterson: SERVICE COMPANY
DATE.          Mon Feb 13 07:19:27 2006: LOG DATE
UWI.           05 071 08693 00: UNIQUE WELL ID
STAT.                 Colorado: STATE
~Curve Information Block
DEPT.FT            0 000 00 00: Depth
DCAL.in                       : CDL Caliper
RHOB.g/cc                     : CDL Bulk Density
RHOC.g/cc                     : CDL Density Correction
DPOR.pu                       : CDL Density Porosity
GR.GAPI                       : Gamma Ray
NPOR.pu                       : Neutron Porosity
~Parameter Information Block
~A  Depth       DCAL        RHOB        RHOC        DPOR         GR         NPOR    
# ...
  1344.6000      8.1947      2.5693     -0.0652      4.8909    152.4483     26.2318
  1344.7000      8.1947      2.6026      0.0205      2.8719    156.8554     25.9377
  1344.8000      8.1922      2.6349      0.0187      0.9166    166.0815     25.3181
  1344.9000      8.1922      2.6516      0.0250     -0.0984    172.9450     24.7610
  1345.0000      8.1932      2.6519      0.0267     -0.1178    172.6883     24.3534
  1345.1000      8.1932      2.6423      0.0385      0.4695    169.9856     24.4907
  1345.2000      8.1932      2.6278      0.0483      1.3448    172.4727     25.0237
  1345.3000      8.1900      2.6100      0.0321      2.4249    178.4763     25.3650
  1345.4000      8.1900      2.5947     -0.0165      3.3522    182.5393     25.5204
  1345.5000      8.1854      2.5894      0.0498      3.6742    181.9816     25.8292
  1345.6000      8.1854      2.5875      0.0062      3.7856    179.8505     26.3046
  1345.7000      8.1854      2.5784      0.0374      4.3403    179.5173     26.4985
  1345.8000      8.1841      2.5655     -0.0057      5.1215    179.6915     26.3885
  1345.9000      8.1841      2.5633      0.0381      5.2575    178.9582     26.4099
  1346.0000      8.1816      2.5750      0.0260      4.5445    175.8788     26.2863
  1346.1000      8.1816      2.5839      0.0261      4.0069    170.4924     25.5514
  1346.2000      8.1816      2.5682      0.0555      4.9552    167.3401     24.6585
  1346.3000      8.1721      2.5321     -0.0237      7.1470    170.3353     24.3580
  1346.4000      8.1721      2.4995     -0.0091      9.1200    177.4100     24.5685
  1346.5000      8.1877      2.4835     -0.0365     10.0931    185.2199     24.9584
  1346.6000      8.1877      2.4805      0.0161     10.2740    189.4728     25.3947
  1346.7000      8.1877      2.4825     -0.0086     10.1520    185.7056     25.4559
  1346.8000      8.1894      2.4920     -0.0263      9.5785    176.9086     25.0708
  1346.9000      8.1894      2.5093      0.0168      8.5258    169.2832     24.6285
  1347.0000      8.1903      2.5211     -0.0040      7.8145    162.5495     24.5218
  1347.1000      8.1903      2.5191      0.0240      7.9361    157.0347     24.7512
  1347.2000      8.1903      2.5162     -0.0138      8.1085    157.6411     24.9135
  1347.3000      8.1858      2.5298     -0.0059      7.2872    162.4468     25.2564
  1347.4000      8.1858      2.5571      0.0282      5.6284    164.8040     25.9226
  1347.5000      8.1889      2.5835      0.0810      4.0316    165.3372     26.1640
  1347.6000      8.1889      2.6028      0.0632      2.8592    167.2400     25.5081
  1347.7000      8.1889      2.6096      0.1310      2.4488    169.4198     24.5457
  1347.8000      8.2063      2.5991      0.0454      3.0845    171.4210     24.5904
  1347.9000      8.2063      2.5834      0.0577      4.0335    173.4483     25.9435
  1348.0000      8.2302      2.5725      0.0443      4.6973    174.8568     26.9635
  1348.1000      8.2302      2.5712      0.0358      4.7737    178.0777     26.9461
  1348.2000      8.2302      2.5815      0.0195      4.1527    184.8958     27.1194
  1348.3000      8.2464      2.5882      0.0838      3.7432    190.5335     27.7276
  1348.4000      8.2464      2.5784      0.0436      4.3407    189.1176     27.8370
  1348.5000      8.2713      2.5685      0.0173      4.9388    181.6723     27.5404
  1348.6000      8.2713      2.5759      0.0380      4.4888    177.1303     27.3237
  1348.7000      8.2713      2.5836      0.0526      4.0238    179.5148     27.2211
  1348.8000      8.2750      2.5605      0.0728      5.4226    182.6557     27.0185
  1348.9000      8.2750      2.4951      0.0633      9.3897    183.2592     26.8723
  1349.0000      8.2768      2.4019      0.0197     15.0377    181.6885     27.2502
  1349.1000      8.2768      2.2973     -0.0173     21.3750    177.9665     27.7708
  1349.2000      8.2768      2.1731     -0.0345     28.9011    172.9709     28.1051
  1349.3000      8.2794      2.0160     -0.0816     38.4245    167.1254     28.7179
  1349.4000      8.2794      1.8460     -0.1416     48.7246    161.5285     29.7497
  1349.5000      8.2875      1.6991     -0.1979     57.6307    158.9259     30.6821
  1349.6000      8.2875      1.5721     -0.1260     65.3270    158.3381     31.0499
  1349.7000      8.2875      1.4339     -0.1666     73.7006    154.3789     31.1387
  1349.8000      8.3263      1.2950     -0.1997     82.1198    146.6290     31.3560
  1349.9000      8.3263      1.2059     -0.1614     87.5217    138.1949     31.4295
  1350.0000      8.3557      1.1918     -0.0600     88.3771    127.3794     31.1586
  1350.1000      8.3557      1.2293      0.0136     86.1017    113.4255     30.7822
  1350.2000      8.3557      1.2765      0.0819     83.2433    100.9561     30.9501
  1350.3000      8.5588      1.3086      0.0592     81.2977     91.3158     31.6718
  1350.4000      8.5588      1.3245      0.0910     80.3358     83.0892     32.0520
  1350.5000      8.8695      1.3300      0.0527     79.9977     79.0056     31.9276
  1350.6000      8.8695      1.3359      0.0486     79.6404     81.0266     31.7817
  1350.7000      8.8695      1.3519      0.0358     78.6728     83.2793     31.9303
  1350.8000      9.0982      1.3702      0.0707     77.5646     79.3193     32.4638
  1350.9000      9.0982      1.3679      0.0555     77.7025     72.5816     32.9397
  1351.0000      9.1345      1.3355     -0.0065     79.6694     68.7224     32.9379
  1351.1000      9.1345      1.2918     -0.0628     82.3153     67.4912     32.3680
  1351.2000      9.1345      1.2636     -0.0479     84.0233     65.9238     31.5759
  1351.3000      9.0438      1.2559      0.0209     84.4928     61.5744     31.2979
  1351.4000      9.0438      1.2596      0.0288     84.2649     53.8223     31.7116
  1351.5000      8.4834      1.2822      0.0064     82.8958     44.7061     32.4386
  1351.6000      8.4834      1.3301      0.0667     79.9927     39.3355     33.0290
  1351.7000      8.4834      1.3801      0.0644     76.9648     39.7853     32.9018
  1351.8000      8.3989      1.4105      0.0527     75.1187     41.7200     32.3374
  1351.9000      8.3989      1.4250      0.0643     74.2447     41.4508     32.3850
  1352.0000      8.4678      1.4271      0.1186     74.1132     39.3601     33.0281
  1352.1000      8.4678      1.4132      0.1084     74.9582     38.2313     33.3820
  1352.2000      8.4678      1.3984      0.0146     75.8547     37.8911     33.3488
  1352.3000      8.6892      1.4059      0.0265     75.4018     36.5843     33.5634
  1352.4000      8.6892      1.4226      0.0179     74.3890     35.5698     34.0428
  1352.5000      8.7053      1.4146     -0.0780     74.8725     37.2686     34.0166
  1352.6000      8.7053      1.3716     -0.0797     77.4767     41.4966     33.4296
  1352.7000      8.7053      1.3141     -0.0762     80.9628     44.7432     32.9906
  1352.8000      8.5731      1.2878     -0.1063     82.5568     45.5075     32.9974
  1352.9000      8.5731      1.3306      0.0091     79.9653     46.3915     33.0819
  1353.0000      8.6377      1.4400      0.0441     73.3316     49.0196     32.6765
  1353.1000      8.6377      1.5949      0.0982     63.9434     51.5400     32.0147
  1353.2000      8.6377      1.7673      0.1770     53.4960     52.2447     31.7220
  1353.3000      8.6435      1.9294      0.1632     43.6710     52.9053     31.8326
  1353.4000      8.6435      2.0778      0.1964     34.6815     57.0756     32.0033
  1353.5000      8.3510      2.2221      0.2664     25.9336     65.3676     31.6546
  1353.6000      8.3510      2.3604      0.2904     17.5531     74.3323     30.8168
  1353.7000      8.3510      2.4743      0.3157     10.6457     83.0095     30.3550
  1353.8000      8.3099      2.5392      0.2601      6.7124     93.9917     30.4280
  1353.9000      8.3099      2.5504      0.1150      6.0392    107.9750     30.2123
  1354.0000      8.1447      2.5318      0.0212      7.1639    121.2156     29.2427
  1354.1000      8.1447      2.5042      0.0248      8.8366    127.1155     28.1170
