~Version Information
VERS.                      2.0: CWLS Log ASCII Standard - VERSION 2.0
WRAP.                       NO: One line per depth step
~Well Information Block
STRT.FT               260.0000: 
STOP.FT              1230.0000: 
STEP.FT                 0.2500: 
NULL.                -999.2500: 
COMP.          Pioneer Natural Resources: COMPANY
WELL.             Mahalo 12-20: WELL
FLD.           Purgatoire River: FIELD
LOC.           1689' FNL & 479' FWL: LOCATION
CNTY.               Las Animas: COUNTY
SRVC.                Patterson: SERVICE COMPANY
DATE.          Thu Feb 23 20:25:01 2006: LOG DATE
UWI.           05 071 08700 00: UNIQUE WELL ID
STAT.                 Colorado: STATE
~Curve Information Block
DEPT.FT            0 000 00 00: Depth
SN.Ohm-m                      : IEL Short Normal
SP.mV                         : IEL Spontaneous Potential
DIR.Ohm-m                     : IEL Induction Resistivity
GR.GAPI                       : Gamma Ray
~Parameter Information Block
~A  Depth        SN          SP         DIR          GR     
# ...
   695.5000   2000.0000   2000.0000     19.8291     85.5224
   695.7500   2000.0000   2000.0000     19.8433     86.7090
   696.0000   2000.0000   2000.0000     19.8178     87.9545
   696.2500   2000.0000   2000.0000     19.7309     88.5869
   696.5000   2000.0000   2000.0000     19.6041     89.5419
   696.7500   2000.0000   2000.0000     19.4870     90.0343
   697.0000   2000.0000   2000.0000     19.4211     89.7112
   697.2500   2000.0000   2000.0000     19.4175     88.3613
   697.5000   2000.0000   2000.0000     19.4616     84.8133
   697.7500   2000.0000   2000.0000     19.5360     81.9674
   698.0000   2000.0000   2000.0000     19.6385     77.8474
   698.2500   2000.0000   2000.0000     19.7793     75.5298
   698.5000   2000.0000   2000.0000     19.9642     73.2121
   698.7500   2000.0000   2000.0000     20.1823     72.6989
   699.0000   2000.0000   2000.0000     20.4090     73.5723
   699.2500   2000.0000   2000.0000     20.6203     75.0972
   699.5000   2000.0000   2000.0000     20.8074     78.3150
   699.7500   2000.0000   2000.0000     20.9811     80.6302
   700.0000   2000.0000   2000.0000     21.1669     83.4008
   700.2500   2000.0000   2000.0000     21.3971     84.3360
   700.5000   2000.0000   2000.0000     21.7038     84.0300
   700.7500   2000.0000   2000.0000     22.1133     82.6451
   701.0000   2000.0000   2000.0000     22.6391     78.8780
   701.2500   2000.0000   2000.0000     23.2771     75.4281
   701.5000   2000.0000   2000.0000     24.0053     69.4502
   701.7500   2000.0000   2000.0000     24.7912     65.4155
   702.0000   2000.0000   2000.0000     25.6032     60.1677
   702.2500   2000.0000   2000.0000     26.4194     57.5372
   702.5000   2000.0000   2000.0000     27.2308     54.8171
   702.7500   2000.0000   2000.0000     28.0379     53.4648
   703.0000   2000.0000   2000.0000     28.8408     51.5603
   703.2500   2000.0000   2000.0000     29.6213     50.3403
   703.5000   2000.0000   2000.0000     30.3291     49.0388
   703.7500   2000.0000   2000.0000     30.8886     48.8034
   704.0000   2000.0000   2000.0000     31.2300     49.3485
   704.2500   2000.0000   2000.0000     31.3239     49.9454
   704.5000     35.4049     30.1566     31.1924     50.5248
   704.7500     35.5184     30.1157     30.8922     50.5977
   705.0000     35.2504     30.1307     30.4888     50.6275
   705.2500     34.5027     30.2084     30.0405     50.9512
   705.5000     33.4168     30.3345     29.5890     52.2457
   705.7500     32.2519     30.4810     29.1518     53.5400
   706.0000     31.2426     30.6162     28.7216     55.4433
   706.2500     30.4829     30.7159     28.2787     56.2129
   706.5000     29.8934     30.7730     27.8074     56.1832
   706.7500     29.3688     30.7994     27.3012     55.5021
   707.0000     28.8901     30.8183     26.7499     54.2469
   707.2500     28.4665     30.8508     26.1269     53.7509
   707.5000     28.0474     30.9048     25.3932     53.9343
   707.7500     27.5439     30.9746     24.5179     54.6193
   708.0000     26.9443     31.0491     23.4977     56.3054
   708.2500     26.3534     31.1213     22.3592     57.9428
   708.5000     25.8653     31.1913     21.1466     61.6012
   708.7500     25.4262     31.2633     19.9072     65.1453
   709.0000     24.8337     31.3410     18.6852     72.7347
   709.2500     23.8451     31.4242     17.5207     79.7772
   709.5000     22.3147     31.5086     16.4493     93.9009
   709.7500     20.3222     31.5870     15.4977    105.4411
   710.0000     18.2220     31.6522     14.6806    124.1169
   710.2500     16.4809     31.6993     13.9984    135.9011
   710.5000     15.3366     31.7290     13.4390    150.0035
   710.7500     14.6518     31.7477     12.9802    156.0964
   711.0000     14.1484     31.7659     12.5956    160.2976
   711.2500     13.6749     31.7945     12.2599    160.6662
   711.5000     13.2457     31.8428     11.9549    159.3302
   711.7500     12.9001     31.9150     11.6720    157.7386
   712.0000     12.5621     32.0060     11.4123    154.3872
   712.2500     12.1072     32.1018     11.1830    151.4546
   712.5000     11.5733     32.1852     10.9932    146.3130
   712.7500     11.1600     32.2480     10.8516    142.8192
   713.0000     10.9931     32.3022     10.7644    138.2638
   713.2500     11.0842     32.3763     10.7353    135.9323
   713.5000     11.4688     32.4941     10.7660    133.5780
   713.7500     12.1476     32.6587     10.8569    132.7731
   714.0000     12.9349     32.8587     11.0065    132.6699
   714.2500     13.4924     33.0859     11.2097    133.2436
   714.5000     13.5835     33.3403     11.4559    134.8394
   714.7500     13.3368     33.6235     11.7276    136.1818
   715.0000     13.1006     33.9310     12.0035    137.8929
   715.2500     13.0679     34.2476     12.2614    138.2578
   715.5000     13.1977     34.5491     12.4818    136.8971
   715.7500     13.3747     34.8137     12.6496    134.6629
   716.0000     13.5435     35.0361     12.7553    129.8333
   716.2500     13.7510     35.2306     12.7963    126.0130
   716.5000     14.0902     35.4181     12.7792    119.8032
   716.7500     14.5930     35.6105     12.7200    115.4670
   717.0000     15.1855     35.8063     12.6415    109.0259
   717.2500     15.7233     35.9970     12.5676    105.3320
   717.5000     16.0143     36.1761     12.5160    102.5168
   717.7500     15.9212     36.3413     12.4903    113.9733
   718.0000     15.4919     36.4909     12.4765    121.1755
   718.2500     14.8819     36.6201     12.4469    128.2749
   718.5000     14.2142     36.7221     12.3717    138.4238
   718.7500     13.5676     36.7907     12.2321    155.7472
   719.0000     12.9729     36.8206     12.0247    157.1937
   719.2500     12.4138     36.8088     11.7583    154.7751
   719.5000     11.9077     36.7569     11.4478    148.1875
   719.7500     11.5454     36.6727     11.1112    155.2267
   720.0000     11.3865     36.5705     10.7689    148.7826
   720.2500     11.3494     36.4692     10.4398    146.3845
   720.5000     11.2992     36.3896     10.1381    145.5579
   720.7500     11.1971     36.3488      9.8707    156.9442
   721.0000     11.1004     36.3519      9.6391    155.9765
   721.2500     11.0737     36.3866      9.4409    154.2314
   721.5000     11.0793     36.4284      9.2714    151.7621
   721.7500     10.9803     36.4517      9.1231    151.3199
   722.0000     10.7162     36.4427      8.9855    152.5490
   722.2500     10.3828     36.4057      8.8476    153.8229
   722.5000     10.1009     36.3613      8.7016    154.8709
   722.7500      9.8907     36.3377      8.5461    154.4616
   723.0000      9.7131     36.3594      8.3856    152.3994
   723.2500      9.5710     36.4425      8.2260    150.9061
   723.5000      9.4941     36.5949      8.0712    150.3159
   723.7500      9.4665     36.8105      7.9217    151.5572
   724.0000      9.4132     37.0607      7.7757    155.2519
   724.2500      9.2884     37.2961      7.6312    157.8776
   724.5000      9.1621     37.4687      7.4884    160.0254
   724.7500      9.1287     37.5579      7.3487    159.6540
   725.0000      9.1819     37.5785      7.2139    157.2880
   725.2500      9.2408     37.5660      7.0844    155.8438
   725.5000      9.2047     37.5534      6.9591    155.6723
   725.7500      9.0200     37.5548      6.8358    156.9195
   726.0000      8.7825     37.5634      6.7120    159.6639
   726.2500      8.6406     37.5627      6.5859    161.4219
   726.5000      8.6008     37.5417      6.4582    163.5716
   726.7500      8.5926     37.5024      6.3339    164.7798
   727.0000      8.6168     37.4557      6.2215    166.5374
   727.2500      8.7049     37.4109      6.1306    167.7113
   727.5000      8.8141     37.3680      6.0681    169.3546
   727.7500      8.8278     37.3155      6.0380    170.4597
   728.0000      8.6783     37.2322      6.0418    172.6629
   728.2500      8.4634     37.0968      6.0808    174.5066
   728.5000      8.3673     36.9045      6.1564    176.5837
   728.7500      8.4501     36.6800      6.2693    176.5193
