~Version Information
VERS.                      2.0: CWLS Log ASCII Standard - VERSION 2.0
WRAP.                       NO: One line per depth step
~Well Information Block
STRT.FT               345.0000: 
STOP.FT              2167.7000: 
STEP.FT                 0.1000: 
NULL.                -999.2500: 
COMP.          Pioneer Natural Resources: COMPANY
WELL.          Hemisphere 32-24: WELL
FLD.           Purgatoire River: FIELD
LOC.           1850' FNL & 2284' FEL--: LOCATION
PROV.                 Colorado: PROVINCE
CNTY.               Las Animas: COUNTRY
SRVC.                Patterson: SERVICE COMPANY
DATE.          Mon Aug 15 07:19:13 2005: LOG DATE
UWI.           05 071 08440 00: UNIQUE WELL ID
~Curve Information Block
DEPT.FT            0 000 00 00: Depth
DCAL.in                       : CDL Caliper
RHOB.g/cc                     : CDL Bulk Density
RHOC.g/cc                     : CDL Density Correction
DPOR.pu                       : CDL Density Porosity
NPOR.pu                       : Neutron Porosity
GR.GAPI                       : Gamma Ray
~Parameter Information Block
~A  Depth       DCAL        RHOB        RHOC        DPOR        NPOR         GR     
# ...
   700.2000      8.1796      2.6103      0.0615      2.4040     22.6839    130.0061
   700.3000      8.1633      2.6487      0.0838      0.0807     23.1024    125.7617
   700.4000      8.1633      2.6699      0.0725     -1.2047     23.7595    126.7957
   700.5000      8.1419      2.6710      0.0593     -1.2717     24.3136    127.3680
   700.6000      8.1419      2.6587      0.0883     -0.5247     24.6037    123.4994
   700.7000      8.1419      2.6413      0.0745      0.5297     24.9522    117.6034
   700.8000      8.1260      2.6281      0.0283      1.3293     25.6304    113.2046
   700.9000      8.1260      2.6197      0.0198      1.8376     26.4857    111.0287
   701.0000      8.1144      2.6079      0.0183      2.5512     27.2218    108.2001
   701.1000      8.1144      2.5890      0.0323      3.6973     27.5206    107.3010
   701.2000      8.1144      2.5639      0.0293      5.2175     27.2624    110.7966
   701.3000      8.1068      2.5351     -0.0031      6.9649     26.6565    114.3383
   701.4000      8.1068      2.5087      0.0133      8.5664     25.9308    116.0950
   701.5000      8.1025      2.4964     -0.0574      9.3075     25.2611    117.6682
   701.6000      8.1025      2.5074     -0.0084      8.6447     24.9671    118.2261
   701.7000      8.1025      2.5353      0.0173      6.9521     25.0717    116.6213
   701.8000      8.1010      2.5740      0.0335      4.6034     25.1144    113.6950
   701.9000      8.1010      2.6200      0.0920      1.8188     24.9584    111.2147
   702.0000      8.1016      2.6611      0.0580     -0.6745     24.7932    110.9315
   702.1000      8.1016      2.6898      0.0717     -2.4101     24.5617    110.2933
   702.2000      8.1016      2.7104      0.0641     -3.6598     24.2882    105.1002
   702.3000      8.1027      2.7269      0.1032     -4.6621     24.2213     98.5969
   702.4000      8.1027      2.7286      0.0825     -4.7650     24.4014     97.7318
   702.5000      8.1019      2.7059      0.0583     -3.3899     24.7248     99.8848
   702.6000      8.1019      2.6676      0.0244     -1.0643     25.0040     96.2247
   702.7000      8.1019      2.6249     -0.0175      1.5186     25.1259     87.9263
   702.8000      8.0952      2.5847     -0.0263      3.9585     25.4051     82.2081
   702.9000      8.0952      2.5631     -0.1273      5.2665     25.7806     79.4715
   703.0000      8.0851      2.5754     -0.0492      4.5210     25.8847     76.1516
   703.1000      8.0851      2.6063     -0.0193      2.6486     25.7885     72.0242
   703.2000      8.0851      2.6230      0.0280      1.6387     25.8592     69.2435
   703.3000      8.0732      2.6085      0.0116      2.5148     26.3697     67.7434
   703.4000      8.0732      2.5714      0.0403      4.7660     27.0760     65.5287
   703.5000      8.0570      2.5277      0.0150      7.4134     27.5885     63.7714
   703.6000      8.0570      2.4846      0.0056     10.0229     28.0901     65.5948
   703.7000      8.0570      2.4423     -0.0408     12.5850     28.6502     73.0835
   703.8000      8.0456      2.4107     -0.0426     14.5027     28.8641     85.8477
   703.9000      8.0456      2.3991      0.0136     15.2073     28.6867     97.6318
   704.0000      8.0483      2.3942      0.0654     15.5039     28.0995    103.1025
   704.1000      8.0483      2.3810      0.0239     16.3053     26.9245    105.5085
   704.2000      8.0483      2.3734     -0.0129     16.7618     25.5945    108.6873
   704.3000      8.0613      2.3917      0.0653     15.6550     24.6049    111.8292
   704.4000      8.0613      2.4202      0.1540     13.9243     23.9097    115.8560
   704.5000      8.0797      2.4284      0.1162     13.4302     23.6443    122.0593
   704.6000      8.0797      2.4156      0.0635     14.2088     23.7757    130.5577
   704.7000      8.0797      2.4048      0.0467     14.8581     23.7373    137.2076
   704.8000      8.0960      2.4077      0.0763     14.6835     23.3519    137.9029
   704.9000      8.0960      2.4151      0.0516     14.2383     22.9567    136.3301
   705.0000      8.1038      2.4122      0.0665     14.4094     22.7884    134.8834
   705.1000      8.1038      2.3972      0.0457     15.3225     22.7964    131.9039
   705.2000      8.1038      2.3901     -0.0067     15.7522     22.8133    129.8859
   705.3000      8.1069      2.4011      0.0896     15.0853     22.7793    132.0496
   705.4000      8.1069      2.4116      0.0654     14.4466     22.6172    135.0801
   705.5000      8.1127      2.4086      0.0737     14.6313     22.2063    137.5424
   705.6000      8.1127      2.3916      0.0778     15.6584     21.8591    140.7088
   705.7000      8.1127      2.3676      0.0327     17.1146     21.7395    141.7654
   705.8000      8.1201      2.3516      0.0380     18.0852     21.4780    139.5850
   705.9000      8.1201      2.3480      0.0748     18.3016     20.9574    136.7974
   706.0000      8.1213      2.3445      0.0741     18.5156     20.2649    134.6817
   706.1000      8.1213      2.3322      0.0358     19.2622     19.3640    134.0195
   706.2000      8.1213      2.3200      0.0004     20.0013     18.4379    134.4009
   706.3000      8.1186      2.3215      0.0233     19.9089     17.8968    134.4434
   706.4000      8.1186      2.3343      0.0399     19.1331     17.9592    134.7115
   706.5000      8.1237      2.3537      0.0153     17.9596     18.3207    137.5213
   706.6000      8.1237      2.3838      0.0995     16.1346     18.5064    143.2952
   706.7000      8.1237      2.4158      0.1452     14.1970     18.3425    147.2977
   706.8000      8.1345      2.4379      0.1242     12.8572     18.0271    145.9688
   706.9000      8.1345      2.4564      0.1135     11.7352     17.9212    141.9373
   707.0000      8.1437      2.4787      0.1385     10.3848     18.1456    138.9114
   707.1000      8.1437      2.5000      0.1644      9.0882     18.5392    136.9062
   707.2000      8.1437      2.5114      0.1646      8.4003     18.8996    135.6490
   707.3000      8.1367      2.5054      0.1782      8.7653     19.3000    135.9305
   707.4000      8.1367      2.4895      0.0681      9.7244     19.9253    136.2263
   707.5000      8.1115      2.4907      0.0896      9.6554     20.7262    134.8239
   707.6000      8.1115      2.5145      0.1172      8.2130     21.6077    131.6861
   707.7000      8.1115      2.5317      0.1481      7.1725     22.4497    126.1510
   707.8000      8.0898      2.5261      0.0761      7.5075     23.3772    118.7756
   707.9000      8.0898      2.5142      0.0731      8.2277     24.5222    114.6411
   708.0000      8.0793      2.5090      0.0933      8.5483     25.4266    117.6797
   708.1000      8.0793      2.5073      0.0948      8.6472     25.9252    124.5336
   708.2000      8.0793      2.5054      0.0611      8.7616     26.3944    126.2441
   708.3000      8.0722      2.5065      0.0646      8.6987     26.8890    120.2864
   708.4000      8.0722      2.5104      0.0795      8.4585     27.1820    113.8440
   708.5000      8.0689      2.5104      0.0458      8.4617     26.9913    110.3157
   708.6000      8.0689      2.5059      0.0525      8.7361     26.3190    109.0912
   708.7000      8.0689      2.5052      0.0164      8.7745     25.6007    113.4566
   708.8000      8.0721      2.5132      0.0456      8.2903     25.0641    122.7594
   708.9000      8.0721      2.5238      0.0700      7.6466     24.8739    129.4773
   709.0000      8.0747      2.5324      0.0345      7.1282     25.0912    129.0114
   709.1000      8.0747      2.5358      0.0700      6.9198     25.3171    123.6516
   709.2000      8.0747      2.5257      0.0442      7.5348     25.2640    119.0065
   709.3000      8.0740      2.5027      0.0617      8.9293     25.0921    120.2954
   709.4000      8.0740      2.4830     -0.0099     10.1194     24.8608    128.8422
   709.5000      8.0754      2.4776      0.0171     10.4479     24.3747    137.2058
   709.6000      8.0754      2.4808     -0.0058     10.2518     23.7340    137.3559
   709.7000      8.0754      2.4888      0.0281      9.7726     23.2575    132.9837
