~Version Information
VERS.                      2.0: CWLS Log ASCII Standard - VERSION 2.0
WRAP.                       NO: One line per depth step
~Well Information Block
STRT.FT               460.0000: 
STOP.FT              2811.5000: 
STEP.FT                 0.1000: 
NULL.                -999.2500: 
COMP.          Pioneer Natural Resources: COMPANY
WELL.           Dolzanie 34-12: WELL
FLD.           Purgatoire River: FIELD
LOC.           1001' FSL & 1750' FEL--: LOCATION
PROV.                 Colorado: PROVINCE
CNTY.               Las Animas: COUNTRY
SRVC.                Patterson: SERVICE COMPANY
DATE.          Wed Jul 20 07:56:24 2005: LOG DATE
UWI.           05 071 08439 00: UNIQUE WELL ID
~Curve Information Block
DEPT.FT            0 000 00 00: Depth
DCAL.in                       : CDL Caliper
DPOR.pu                       : CDL Density Porosity
NPOR.pu                       : Neutron Porosity
RHOB.g/cc                     : CDL Bulk Density
RHOC.g/cc                     : CDL Density Correction
GR.GAPI                       : Gamma Ray
~Parameter Information Block
~A  Depth       DCAL        DPOR        NPOR        RHOB        RHOC         GR     
# ...
  1861.6000      8.0966      7.0828     27.2320      2.5331      0.0248    151.8874
  1861.7000      8.0966      6.7610     27.4284      2.5384      0.0136    152.5516
  1861.8000      8.0958      6.4665     27.9372      2.5433      0.0770    156.1640
  1861.9000      8.0958      6.1979     27.9554      2.5477      0.0311    153.8234
  1862.0000      8.0976      5.5845     27.5579      2.5579      0.0655    141.8631
  1862.1000      8.0976      4.2255     27.5709      2.5803      0.0223    130.0702
  1862.2000      8.0976      1.9140     27.6763      2.6184      0.1047    134.0831
  1862.3000      8.1025     -0.3954     27.2264      2.6565      0.2052    151.4701
  1862.4000      8.1025     -1.3170     26.5768      2.6717      0.2049    163.6451
  1862.5000      8.1108     -0.9888     26.3243      2.6663      0.1777    165.5752
  1862.6000      8.1108     -0.4173     26.6121      2.6569      0.1391    165.6858
  1862.7000      8.1108     -0.0117     27.1366      2.6502      0.1250    163.9988
  1862.8000      8.1361      0.1484     27.2993      2.6476      0.1177    158.9834
  1862.9000      8.1361      0.1703     27.1129      2.6472      0.1375    156.1945
  1863.0000      8.1609      0.7301     27.0731      2.6380      0.0850    154.1505
  1863.1000      8.1609      2.3844     27.2280      2.6107      0.0616    148.4759
  1863.2000      8.1609      4.7467     27.4364      2.5717      0.0364    140.6714
  1863.3000      8.1336      6.2486     27.7097      2.5469     -0.0152    135.1569
  1863.4000      8.1336      5.7721     27.8587      2.5548      0.0089    134.1160
  1863.5000      8.0819      4.1283     27.6860      2.5819      0.0177    134.6753
  1863.6000      8.0819      2.6671     27.4610      2.6060      0.0133    134.9121
  1863.7000      8.0819      2.5380     27.5094      2.6081      0.0552    137.3890
  1863.8000      8.0595      4.7039     27.7053      2.5724      0.0938    144.8756
  1863.9000      8.0595      8.6897     27.9601      2.5066      0.0487    154.0426
  1864.0000      8.0582     12.7353     28.3811      2.4399     -0.0050    159.1160
  1864.1000      8.0582     15.5167     28.6109      2.3940     -0.0346    159.0546
  1864.2000      8.0582     16.8660     28.2892      2.3717     -0.0018    156.8397
  1864.3000      8.0579     16.9027     28.0243      2.3711     -0.0599    155.8916
  1864.4000      8.0579     15.7110     28.6444      2.3908      0.0572    158.5321
  1864.5000      8.0613     14.0438     29.5743      2.4183      0.0862    164.4955
  1864.6000      8.0613     12.1911     30.0132      2.4488      0.0850    169.6039
  1864.7000      8.0613      9.7108     30.1683      2.4898      0.1419    171.5997
  1864.8000      8.0800      6.8930     30.3168      2.5363      0.2495    173.3468
  1864.9000      8.0800      4.8510     30.6313      2.5700      0.3167    174.3699
  1865.0000      8.1218      4.5054     31.2311      2.5757      0.3141    169.9035
  1865.1000      8.1218      5.7068     31.8078      2.5558      0.2635    160.8402
  1865.2000      8.1218      7.4491     32.0611      2.5271      0.2179    154.7178
  1865.3000      8.1505      8.8514     31.9213      2.5040      0.1604    156.3078
  1865.4000      8.1505      9.7742     31.4305      2.4887      0.1665    160.4781
  1865.5000      8.1286     10.8007     31.0836      2.4718      0.1485    159.1411
  1865.6000      8.1286     12.5000     31.3475      2.4437      0.0960    151.5539
  1865.7000      8.1286     15.0556     32.1578      2.4016      0.0936    141.6082
  1865.8000      8.0889     18.6468     33.0509      2.3423      0.0514    132.3293
  1865.9000      8.0889     23.3451     33.4445      2.2648      0.0216    127.3343
  1866.0000      8.0594     28.7377     33.4593      2.1758      0.0367    127.8336
  1866.1000      8.0594     34.6786     33.6746      2.0778      0.0304    130.0368
  1866.2000      8.0594     41.5072     34.1910      1.9651     -0.0277    129.7804
  1866.3000      8.0511     48.5946     34.6892      1.8482     -0.0768    125.1615
  1866.4000      8.0511     54.1264     34.9816      1.7569     -0.0800    116.4865
  1866.5000      8.0682     57.4651     35.0988      1.7018     -0.0177    104.9701
  1866.6000      8.0682     60.2040     35.0787      1.6566      0.0186     93.8444
  1866.7000      8.0682     63.0029     34.8268      1.6105     -0.0181     86.4657
  1866.8000      8.1186     64.1499     34.5166      1.5915      0.0272     81.7868
  1866.9000      8.1186     62.6834     34.3470      1.6157      0.1005     77.7231
  1867.0000      8.2202     59.5287     34.0304      1.6678      0.1322     74.0520
  1867.1000      8.2202     55.5478     33.2838      1.7335      0.1426     69.8662
  1867.2000      8.2202     50.8163     32.3256      1.8115      0.1656     65.7524
  1867.3000      8.3165     45.1480     31.6350      1.9051      0.1481     65.0047
  1867.4000      8.3165     38.5760     31.2684      2.0135      0.1515     71.1726
  1867.5000      8.3073     31.8864     30.8640      2.1239      0.1526     83.7454
  1867.6000      8.3073     25.9729     30.1730      2.2214      0.1576     95.6332
  1867.7000      8.3073     20.8771     29.0701      2.3055      0.1513    101.4169
  1867.8000      8.2480     16.5768     27.6568      2.3765      0.1257    106.6265
  1867.9000      8.2480     13.7280     26.6114      2.4235      0.1066    116.3534
  1868.0000      8.2286     12.4431     26.4293      2.4447      0.0760    126.6512
  1868.1000      8.2286     11.6120     26.6888      2.4584      0.0712    132.1208
  1868.2000      8.2286     10.2347     26.9509      2.4811      0.1138    132.0958
  1868.3000      8.2480      8.5601     27.1564      2.5088      0.1234    129.2561
  1868.4000      8.2480      7.0632     26.7000      2.5335      0.0590    124.7227
  1868.5000      8.2116      5.7856     25.2670      2.5545      0.0960    117.0205
  1868.6000      8.2116      5.1409     23.5617      2.5652      0.0909    106.9027
  1868.7000      8.2116      5.4817     22.3218      2.5596      0.1152     99.4752
  1868.8000      8.0978      6.4090     21.6451      2.5443      0.0936     95.2330
  1868.9000      8.0978      6.8187     21.2085      2.5375      0.0721     89.5325
  1869.0000      7.9978      5.9497     20.5959      2.5518      0.0478     81.4442
  1869.1000      7.9978      4.2000     19.7488      2.5807      0.0803     74.8572
  1869.2000      7.9978      2.5186     19.1021      2.6084      0.0858     71.9014
  1869.3000      7.9543      1.4210     18.8199      2.6266      0.0619     71.0530
  1869.4000      7.9543      0.7019     18.6710      2.6384      0.0720     70.3043
  1869.5000      7.9489     -0.0859     18.4284      2.6514      0.0848     68.7117
  1869.6000      7.9489     -0.6199     17.9346      2.6602      0.0850     67.3963
  1869.7000      7.9489     -0.0289     17.3504      2.6505      0.1012     67.2715
  1869.8000      7.9489      1.4344     17.0331      2.6263      0.0681     65.0505
  1869.9000      7.9489      2.6357     17.0793      2.6065      0.0629     58.5127
  1870.0000      7.9408      3.1400     17.1078      2.5982      0.0353     50.0666
  1870.1000      7.9408      3.1361     16.8165      2.5983      0.0686     44.6982
  1870.2000      7.9408      2.9470     16.5315      2.6014      0.0676     45.4674
  1870.3000      7.9351      2.7352     16.5736      2.6049      0.0460     50.3735
  1870.4000      7.9351      2.6719     16.7126      2.6059      0.0865     55.2772
  1870.5000      7.9352      3.2075     16.6454      2.5971      0.0528     58.1647
  1870.6000      7.9352      3.8989     16.7890      2.5857      0.0332     59.9097
  1870.7000      7.9352      3.7974     17.3452      2.5873      0.0566     60.2082
  1870.8000      7.9386      3.2533     17.6738      2.5963      0.0607     59.6958
  1870.9000      7.9386      3.1307     17.7697      2.5983      0.0622     62.8120
  1871.0000      7.9451      3.4972     18.0522      2.5923      0.0621     69.7039
  1871.1000      7.9451      3.8385     18.3962      2.5867      0.0580     75.0662
