~Version Information
VERS.                      2.0: CWLS Log ASCII Standard - VERSION 2.0
WRAP.                       NO: One line per depth step
~Well Information Block
STRT.FT                -8.0000: 
STOP.FT              1472.2500: 
STEP.FT                 0.2500: 
NULL.                -999.2500: 
COMP.          Pioneer Natural Resources: COMPANY
WELL.           Amore 32-09 Tr: WELL
FLD.           Purgatoire River: FIELD
LOC.           1941' FNL & 2297' FEL--: LOCATION
PROV.                       CO: PROVINCE
CNTY.               Las Animas: COUNTRY
SRVC.          Patterson Wireline: SERVICE COMPANY
DATE.          Tue Nov 22 11:37:00 2005: LOG DATE
UWI.           05 071 08584 00: UNIQUE WELL ID
~Curve Information Block
DEPT.FT            0 000 00 00: Depth
CCL.                          : Casing Collar Locator
TT3.usec                      : CBL 3' Travel Time
AMP3.mV                       : CBL 3' Amplitude
GR.GAPI                       : Gamma Ray
~Parameter Information Block
~A  Depth       CCL         TT3         AMP3         GR     
# ...
  1432.5000      0.0000    740.3458      7.0291    112.7417
  1432.7500      0.0000    741.5313      7.1711    115.6404
  1433.0000      0.0000    739.2089      7.3130    118.1831
  1433.2500      0.0000    736.3485      7.4038    118.7064
  1433.5000      0.0000    734.2568      7.4150    116.4996
  1433.7500      0.0000    732.7479      7.3504    111.9788
  1434.0000      0.0000    731.1519      7.2334    106.4919
  1434.2500      0.0000    729.2994      7.0883    101.7974
  1434.5000      0.0000    728.0335      6.9361     99.2295
  1434.7500      0.0000    728.6440      6.7988     99.0871
  1435.0000      0.0000    731.3809      6.7001    100.6552
  1435.2500      0.0000    734.5856      6.6508    102.8362
  1435.5000      0.0000    735.7841      6.6352    104.8378
  1435.7500      0.0000    733.8451      6.6203    106.2316
  1436.0000      0.0000    730.2068      6.5793    106.7520
  1436.2500      0.0000    728.3019      6.5024    106.5925
  1436.5000      0.0000    731.2569      6.4011    106.6192
  1436.7500      0.0000    739.1931      6.3193    107.5188
  1437.0000      0.0000    748.9228      6.3168    108.6385
  1437.2500      0.0000    757.3489      6.4163    108.2275
  1437.5000      0.0000    764.8632      6.5770    105.4333
  1437.7500     -2.0000    773.9399      6.7252    102.0001
  1438.0000      2.0000    784.4330      6.7895    101.3148
  1438.2500      0.0000    792.2047      6.7220    105.3716
  1438.5000      0.0000    793.2902      6.5323    113.1033
  1438.7500      0.0000    787.8311      6.3107    121.8877
  1439.0000      0.0000    778.8438      6.1876    129.9136
  1439.2500      0.0000    768.7322      6.2597    136.5196
  1439.5000      0.0000    758.5920      6.5549    141.0603
  1439.7500      0.0000    749.7192      7.0315    142.8544
  1440.0000      0.0000    743.6396      7.5806    142.4582
  1440.2500      0.0000    740.5508      8.0647    141.7832
  1440.5000      0.0000    739.0491      8.3992    142.0784
  1440.7500      0.0000    737.7440      8.5902    142.2841
  1441.0000      0.0000    736.3479      8.6837    140.1195
  1441.2500      0.0000    735.2010      8.7035    134.8685
  1441.5000      0.0000    734.4644      8.6535    128.7229
  1441.7500      0.0000    734.0156      8.5662    124.9877
  1442.0000      0.0000    733.7573      8.5190    125.1455
  1442.2500      0.0000    733.8246      8.5858    128.0043
  1442.5000      0.0000    734.6244      8.7733    131.3013
  1442.7500      0.0000    736.7213      9.0137    133.5086
  1443.0000      0.0000    740.4853      9.2174    134.4314
  1443.2500      0.0000    745.6801      9.3306    134.9062
  1443.5000      0.0000    751.4116      9.3537    136.1031
  1443.7500      0.0000    756.5950      9.3197    138.6196
  1444.0000      0.0000    760.5220      9.2556    141.8750
  1444.2500      0.0000    763.1113      9.1602    144.2726
  1444.5000      0.0000    764.5962      9.0156    143.9189
  1444.7500      0.0000    764.7433      8.8149    139.5186
  1445.0000      0.0000    762.5891      8.5763    131.1673
  1445.2500      0.0000    757.5062      8.3338    120.4215
  1445.5000      0.0000    750.4803      8.1258    109.3656
  1445.7500      0.0000    743.8276      7.9886     99.7676
  1446.0000      0.0000    739.6895      7.9435     93.1524
  1446.2500      0.0000    738.9839      7.9786     90.7577
  1446.5000      0.0000    741.3986      8.0498     92.6274
  1446.7500      0.0000    745.7454      8.1060     97.2169
  1447.0000      0.0000    750.4345      8.1132    102.5690
  1447.2500      0.0000    754.2080      8.0640    107.6568
  1447.5000      0.0000    756.5827      7.9672    112.2151
  1447.7500      0.0000    757.4044      7.8290    115.7944
  1448.0000      0.0000    756.1790      7.6518    117.7511
  1448.2500      0.0000    752.4277      7.4637    118.1243
  1448.5000      0.0000    746.7605      7.3319    117.8598
  1448.7500      0.0000    741.0059      7.3214    117.9022
  1449.0000      0.0000    737.0319      7.4415    118.3758
  1449.2500      0.0000    735.8727      7.6420    119.0106
  1449.5000      0.0000    738.0222      7.8557    120.1493
  1449.7500      0.0000    743.7972      8.0359    122.8178
  1450.0000      0.0000    752.7131      8.1645    127.6216
  1450.2500      0.0000    762.6241      8.2365    133.7856
  1450.5000      0.0000    770.2988      8.2437    139.3603
  1450.7500      0.0000    773.4609      8.1761    142.5458
  1451.0000      0.0000    772.2369      8.0348    143.2717
  1451.2500      0.0000    768.3953      7.8386    143.4457
  1451.5000      0.0000    763.5086      7.6249    145.1056
  1451.7500      0.0000    758.1708      7.4507    148.4211
  1452.0000      0.0000    752.5664      7.3753    151.8292
  1452.2500      0.0000    747.2215      7.4214    153.5486
  1452.5000      0.0000    743.1389      7.5556    152.3987
  1452.7500      0.0000    741.2394      7.7080    147.9259
  1453.0000      0.0000    741.5474      7.8102    140.7029
  1453.2500      0.0000    742.9017      7.8320    132.2789
  1453.5000      0.0000    743.7118      7.8012    124.2955
  1453.7500      0.0000    743.3896      7.7853    117.7907
  1454.0000      0.0000    742.9963      7.8385    113.3352
  1454.2500      0.0000    744.2333      7.9654    111.3146
  1454.5000      0.0000    747.8491      8.1355    111.8610
  1454.7500      0.0000    753.1166      8.3184    114.6516
  1455.0000      0.0000    758.4193      8.4980    118.7152
  1455.2500      0.0000    761.8478      8.6610    122.4030
  1455.5000      0.0000    761.6780      8.7847    124.0007
  1455.7500      0.0000    757.3121      8.8451    122.8873
  1456.0000      0.0000    749.8201      8.8405    120.0155
  1456.2500      0.0000    740.7893      8.8048    116.6967
  1456.5000      0.0000    730.2100      8.7945    112.8500
  1456.7500      0.0000    716.3969      8.8621    107.2176
  1457.0000      0.0000    699.5410      9.0311     99.6733
  1457.2500      0.0000    685.3198      9.2827     92.4259
  1457.5000      0.0000    682.1795      9.5625     88.2006
  1457.7500      0.0000    692.8943      9.8100     87.5739
  1458.0000      0.0000    710.7228      9.9892     88.1532
  1458.2500      0.0000    725.8564     10.0952     85.7042
  1458.5000      0.0000    733.7437     10.1384     76.4854
  1458.7500      0.0000    735.9818     10.1288     60.0092
  1459.0000      0.0000    735.9139     10.0765     40.0535
  1459.2500      0.0000    735.5630     10.0034     22.2135
  1459.5000      0.0000    735.5616      9.9437     10.0689
  1459.7500      0.0000    736.0986      9.9288      3.6866
  1460.0000      0.0000    737.5524      9.9675      1.0809
  1460.2500      0.0000    740.6545     10.0422      0.2519
  1460.5000      0.0000    745.9799     10.1212      0.0459
  1460.7500      0.0000    752.9584     10.1711      0.0057
  1461.0000      0.0000    759.3359     10.1615   -999.2500
  1461.2500      0.0000    762.2897     10.0637   -999.2500
  1461.5000      0.0000    760.6687      9.8556   -999.2500
  1461.7500      0.0000    756.0817      9.5395   -999.2500
  1462.0000      0.0000    751.2924      9.1684   -999.2500
  1462.2500      0.0000    747.2509      8.8527   -999.2500
  1462.5000      0.0000    742.0627      8.7212   -999.2500
  1462.7500      0.0000    733.0465      8.8395   -999.2500
  1463.0000      0.0000    718.3989      9.1324   -999.2500
  1463.2500      0.0000    693.7612      9.3563   -999.2500
  1463.5000      0.0000    647.0500      9.1525   -999.2500
  1463.7500      0.0000    562.7233      8.2115   -999.2500
  1464.0000      0.0000    437.9421      6.5083   -999.2500
  1464.2500      0.0000    293.8987      4.4142   -999.2500
  1464.5000      0.0000    165.2540      2.4983   -999.2500
  1464.7500      0.0000     76.2548      1.1579   -999.2500
  1465.0000      0.0000     28.4554      0.4334   -999.2500
  1465.2500      0.0000      8.4981      0.1297   -999.2500
  1465.5000      0.0000      2.0134      0.0308   -999.2500
  1465.7500      0.0000      0.3726      0.0057   -999.2500
