~Version Information
VERS.                      2.0: CWLS Log ASCII Standard - VERSION 2.0
WRAP.                       NO: One line per depth step
~Well Information Block
STRT.FT               570.0000: 
STOP.FT              2094.0000: 
STEP.FT                 0.2500: 
NULL.                -999.2500: 
COMP.          XTO Energy Inc.: COMPANY
WELL.          Golden Eagle 19-10: WELL
FLD.           Purgatoire River: FIELD
LOC.           2684' FSL & 1825' FEL: LOCATION
CNTY.               Las Animas: COUNTY
CTRY.                      USA: COUNTRY
API.               05 071 08697:  
SRVC.                Patterson: SERVICE COMPANY
DATE.          Sun Mar 05 02:13:24 2006: LOG DATE
UWI.           05 071 08697 00: UNIQUE WELL ID
STAT.                 Colorado: STATE
~Curve Information Block
DEPT.FT            0 000 00 00: Depth
SP.mV                         : DIL Spontaneous Potential
RILD.Ohm-m                    : DIL Deep Resistivity
RILM.Ohm-m                    : DIL Medium Resistivity
RLL3.Ohm-m                    : DIL Shallow Resistivity
GR.GAPI                       : Gamma Ray
~Parameter Information Block
~A  Depth        SP         RILD        RILM        RLL3         GR     
# ...
  1942.0000     54.1566      5.9099      6.1775      9.2822    128.1422
  1942.2500     54.0714      5.7990      5.9559      9.1482    130.9482
  1942.5000     54.0641      5.7291      5.7933      8.4150    133.6321
  1942.7500     54.1119      5.6957      5.6921      7.4841    133.3311
  1943.0000     54.1807      5.6958      5.6526      6.9447    129.1498
  1943.2500     54.2438      5.7274      5.6736      7.1181    124.5651
  1943.5000     54.2917      5.7887      5.7522      7.8584    117.5821
  1943.7500     54.3272      5.8793      5.8848      8.7365    114.4589
  1944.0000     54.3549      6.0019      6.0687      9.3725    113.2495
  1944.2500     54.3761      6.1639      6.3035      9.6316    114.1742
  1944.5000     54.3888      6.3751      6.5913      9.6239    115.9458
  1944.7500     54.3882      6.6436      6.9371      9.6249    116.2718
  1945.0000     54.3668      6.9698      7.3462     10.0188    114.8510
  1945.2500     54.3168      7.3423      7.8211     11.2440    112.9923
  1945.5000     54.2362      7.7383      8.3567     13.6531    110.0201
  1945.7500     54.1358      8.1287      8.9355     17.2534    108.5108
  1946.0000     54.0407      8.4872      9.5249     21.4752    107.3615
  1946.2500     53.9821      8.7982     10.0791     25.2266    107.2356
  1946.5000     53.9827      9.0597     10.5483     27.3325    107.7120
  1946.7500     54.0443      9.2797     10.8935     27.1123    108.4844
  1947.0000     54.1455      9.4690     11.0995     24.7155    110.5261
  1947.2500     54.2519      9.6333     11.1781     21.0066    112.3877
  1947.5000     54.3304      9.7691     11.1607     17.0967    115.1892
  1947.7500     54.3572      9.8637     11.0844     13.8565    116.3927
  1948.0000     54.3178      9.8992     10.9787     11.7464    115.9987
  1948.2500     54.2043      9.8596     10.8597     10.9633    113.8202
  1948.5000     54.0143      9.7391     10.7286     11.5627    107.9634
  1948.7500     53.7524      9.5485     10.5768     13.3139    103.2237
  1949.0000     53.4325      9.3135     10.3928     15.5114     97.1089
  1949.2500     53.0783      9.0655     10.1709     17.1418     94.9429
  1949.5000     52.7186      8.8327      9.9158     17.4239     95.7092
  1949.7500     52.3803      8.6346      9.6430     16.2619     98.6744
  1950.0000     52.0831      8.4819      9.3740     14.2175    105.0436
  1950.2500     51.8351      8.3772      9.1305     12.0930    109.2118
  1950.5000     51.6313      8.3153      8.9286     10.5058    113.4412
  1950.7500     51.4573      8.2837      8.7768      9.6875    114.3690
  1951.0000     51.2985      8.2645      8.6761      9.5080    113.1185
  1951.2500     51.1493      8.2406      8.6215      9.6678    111.1123
  1951.5000     51.0175      8.2016      8.6037      9.9506    107.5163
  1951.7500     50.9187      8.1486      8.6120     10.3439    105.3345
  1952.0000     50.8653      8.0932      8.6360     10.9301    103.3471
  1952.2500     50.8594      8.0512      8.6680     11.6847    103.2728
  1952.5000     50.8953      8.0360      8.7039     12.3901    104.8788
  1952.7500     50.9667      8.0548      8.7437     12.7483    106.5122
  1953.0000     51.0679      8.1090      8.7911     12.6031    108.8392
  1953.2500     51.1880      8.1970      8.8523     12.0844    110.2320
  1953.5000     51.3088      8.3167      8.9341     11.5241    112.7086
  1953.7500     51.4080      8.4642      9.0427     11.2062    114.9445
  1954.0000     51.4662      8.6321      9.1822     11.1822    119.0878
  1954.2500     51.4782      8.8079      9.3540     11.3110    122.0804
  1954.5000     51.4590      8.9765      9.5559     11.4785    126.3875
  1954.7500     51.4395      9.1247      9.7820     11.8142    128.8194
  1955.0000     51.4505      9.2473     10.0227     12.6817    131.3343
  1955.2500     51.5076      9.3480     10.2656     14.3438    132.2739
  1955.5000     51.6071      9.4360     10.4973     16.5344    133.2479
  1955.7500     51.7319      9.5204     10.7064     18.4022    134.0713
  1956.0000     51.8593      9.6054     10.8862     19.0342    135.9299
  1956.2500     51.9657      9.6904     11.0361     18.1491    137.4407
  1956.5000     52.0306      9.7724     11.1604     16.2973    139.3478
  1956.7500     52.0403      9.8498     11.2655     14.4016    139.8194
  1957.0000     51.9888      9.9226     11.3562     13.1548    138.8266
  1957.2500     51.8759      9.9907     11.4338     12.7969    137.3559
  1957.5000     51.7095     10.0518     11.4965     13.2149    135.5022
  1957.7500     51.5111     10.1021     11.5418     14.0305    135.3767
  1958.0000     51.3156     10.1401     11.5698     14.6732    136.6361
  1958.2500     51.1614     10.1698     11.5844     14.6663    137.0979
  1958.5000     51.0748     10.1977     11.5926     14.0028    134.5647
  1958.7500     51.0601     10.2282     11.6008     13.1792    130.2079
  1959.0000     51.0992     10.2570     11.6119     12.7976    121.0443
  1959.2500     51.1579     10.2720     11.6219     13.1617    114.5445
  1959.5000     51.1960     10.2575     11.6212     14.2009    106.2447
  1959.7500     51.1818     10.2038     11.5968     15.6065    102.5244
  1960.0000     51.1067     10.1134     11.5378     16.9651    100.2293
  1960.2500     50.9897     10.0017     11.4396     17.8635    100.4580
  1960.5000     50.8697      9.8904     11.3062     17.9968    101.8359
  1960.7500     50.7872      9.7976     11.1489     17.2577    102.6655
  1961.0000     50.7675      9.7311     10.9825     15.8067    103.2040
  1961.2500     50.8117      9.6869     10.8210     14.0880    102.9004
  1961.5000     50.8977      9.6531     10.6743     12.6606    101.0630
  1961.7500     50.9878      9.6162     10.5475     11.8675     98.9972
  1962.0000     51.0427      9.5661     10.4408     11.6384     95.7718
  1962.2500     51.0347      9.4997     10.3518     11.6433     94.4119
  1962.5000     50.9581      9.4202     10.2773     11.6218     94.2198
  1962.7500     50.8280      9.3353     10.2152     11.5473     95.0035
  1963.0000     50.6708      9.2541     10.1655     11.5233     96.3855
  1963.2500     50.5133      9.1850     10.1306     11.5970     96.8578
  1963.5000     50.3789      9.1334     10.1140     11.7105     96.3853
  1963.7500     50.2845      9.1006     10.1193     11.8159     95.2453
  1964.0000     50.2339      9.0843     10.1476     11.9770     92.6637
  1964.2500     50.2148      9.0797     10.1963     12.2888     90.8747
  1964.5000     50.2101      9.0802     10.2579     12.6921     89.3232
  1964.7500     50.2121      9.0775     10.3205     12.9473     89.6208
  1965.0000     50.2224      9.0612     10.3697     12.8553     91.9980
  1965.2500     50.2407      9.0206     10.3912     12.4681     94.0759
  1965.5000     50.2588      8.9481     10.3730     12.0423     96.0210
  1965.7500     50.2636      8.8438     10.3066     11.8463     95.8457
  1966.0000     50.2469      8.7155     10.1876     12.0495     93.8260
  1966.2500     50.2119      8.5761     10.0163     12.6817     92.3231
  1966.5000     50.1731      8.4387      9.7984     13.5460     91.5451
  1966.7500     50.1483      8.3137      9.5453     14.1941     92.4658
  1967.0000     50.1493      8.2080      9.2740     14.1561     95.9302
  1967.2500     50.1772      8.1259      9.0047     13.2908     99.3810
  1967.5000     50.2226      8.0686      8.7577     11.8834    105.7346
  1967.7500     50.2711      8.0338      8.5505     10.3998    110.3092
  1968.0000     50.3104      8.0136      8.3955      9.1962    116.5128
  1968.2500     50.3347      7.9958      8.2994      8.4424    119.3075
  1968.5000     50.3470      7.9681      8.2629      8.1935    120.1195
  1968.7500     50.3595      7.9239      8.2816      8.4261    118.2422
  1969.0000     50.3914      7.8667      8.3468      9.0191    112.9954
  1969.2500     50.4620      7.8083      8.4464      9.7978    109.0197
  1969.5000     50.5808      7.7625      8.5657     10.6644    103.8969
  1969.7500     50.7412      7.7389      8.6887     11.6400    101.4677
