~Version Information
VERS.                      2.0: CWLS Log ASCII Standard - VERSION 2.0
WRAP.                       NO: One line per depth step
~Well Information Block
STRT.FT               240.0000: 
STOP.FT              1185.5000: 
STEP.FT                 0.2500: 
NULL.                -999.2500: 
COMP.          Pioneer Natural Resources: COMPANY
WELL.          Whitecoat 14-36: WELL
FLD.           Purgatorie River: FIELD
LOC.           606' FSL & 260' FWL: LOCATION
PROV.                 Colorado: PROVINCE
CNTY.               Las Animas: COUNTRY
SRVC.                Patterson: SERVICE COMPANY
DATE.          Mon Dec 05 16:51:12 2005: LOG DATE
UWI.                          : UNIQUE WELL ID
~Curve Information Block
DEPT.FT            0 000 00 00: Depth
DIR.Ohm-m                     : IEL Induction Resistivity
GR.GAPI                       : Gamma Ray
~Parameter Information Block
~A  Depth       DIR          GR     
# ...
   909.0000     15.0123     87.0653
   909.2500     14.4568     91.7423
   909.5000     14.0392     98.3947
   909.7500     13.7618    102.0303
   910.0000     13.6155    105.8025
   910.2500     13.5855    107.2061
   910.5000     13.6596    108.0030
   910.7500     13.8281    107.9552
   911.0000     14.0755    107.4927
   911.2500     14.3697    107.1592
   911.5000     14.6632    106.9576
   911.7500     14.9117    107.1268
   912.0000     15.1021    107.6587
   912.2500     15.2667    107.8915
   912.5000     15.4694    107.5655
   912.7500     15.7706    106.7663
   913.0000     16.1923    104.5116
   913.2500     16.7016    102.1637
   913.5000     17.2284     97.5980
   913.7500     17.7129     94.4959
   914.0000     18.1418     91.2709
   914.2500     18.5312     90.7061
   914.5000     18.8646     92.3871
   914.7500     19.0586     94.7830
   915.0000     19.0034     99.0084
   915.2500     18.6563    101.3653
   915.5000     18.0877    103.1048
   915.7500     17.4341    103.0264
   916.0000     16.8159    102.0168
   916.2500     16.2953    101.4638
   916.5000     15.8795    101.3823
   916.7500     15.5415    101.6675
   917.0000     15.2396    102.0515
   917.2500     14.9342    102.1827
   917.5000     14.6010    102.5382
   917.7500     14.2376    103.0718
   918.0000     13.8607    104.1101
   918.2500     13.4978    104.6234
   918.5000     13.1766    104.7104
   918.7500     12.9171    104.2952
   919.0000     12.7270    103.1603
   919.2500     12.6014    102.2000
   919.5000     12.5266    100.6825
   919.7500     12.4867     99.7390
   920.0000     12.4695     98.5575
   920.2500     12.4714     97.9763
   920.5000     12.5005     97.5246
   920.7500     12.5739     97.5313
   921.0000     12.7091     97.8216
   921.2500     12.9136     98.0179
   921.5000     13.1793     98.1938
   921.7500     13.4855     98.3360
   922.0000     13.8065     98.8471
   922.2500     14.1187     99.4698
   922.5000     14.4032    100.8152
   922.7500     14.6501    101.8740
   923.0000     14.8675    103.3662
   923.2500     15.0912    104.1291
   923.5000     15.3824    104.8373
   923.7500     15.8070    105.0171
   924.0000     16.4050    104.8580
   924.2500     17.1646    104.5607
   924.5000     18.0160    104.2102
   924.7500     18.8563    104.2831
   925.0000     19.6030    105.0858
   925.2500     20.2468    106.0801
   925.5000     20.8612    107.9568
   925.7500     21.5525    109.0631
   926.0000     22.3878    109.6151
   926.2500     23.3441    108.8867
   926.5000     24.3178    106.1382
   926.7500     25.1912    103.4358
   927.0000     25.9137     98.4955
   927.2500     26.5321     94.8141
   927.5000     27.1487     89.1797
   927.7500     27.8388     85.7224
   928.0000     28.5750     81.4849
   928.2500     29.2135     79.3336
   928.5000     29.5884     76.9265
   928.7500     29.6630     75.8236
   929.0000     29.5806     75.0562
   929.2500     29.5436     75.1905
   929.5000     29.6480     76.1521
   929.7500     29.8214     77.0036
   930.0000     29.9069     78.0931
   930.2500     29.8260     78.5675
   930.5000     29.6706     78.8958
   930.7500     29.6276     78.8371
   931.0000     29.8178     78.3322
   931.2500     30.1819     77.8936
   931.5000     30.4895     77.5421
   931.7500     30.4680     77.5708
   932.0000     29.9673     77.5710
   932.2500     29.0192     77.2449
   932.5000     27.7524     76.2244
   932.7500     26.2908     75.4761
   933.0000     24.7319     75.0148
   933.2500     23.1797     75.5182
   933.5000     21.7576     77.4650
   933.7500     20.5789     79.0688
   934.0000     19.7051     80.8963
   934.2500     19.1266     81.4729
   934.5000     18.7739     81.7911
   934.7500     18.5519     82.1419
   935.0000     18.3779     83.5729
   935.2500     18.2085     85.2377
   935.5000     18.0422     88.4868
   935.7500     17.9037     90.8314
   936.0000     17.8214     94.1112
   936.2500     17.8112     95.9497
   936.5000     17.8709     98.0039
   936.7500     17.9870     98.8145
   937.0000     18.1476     99.1055
   937.2500     18.3521     98.7966
   937.5000     18.6076     98.1231
   937.7500     18.9177     97.9166
   938.0000     19.2716     98.3713
   938.2500     19.6433     99.0974
   938.5000     20.0005     99.9976
   938.7500     20.3170     99.7663
   939.0000     20.5789     97.3999
   939.2500     20.7805     94.7165
   939.5000     20.9170     90.7696
   939.7500     20.9812     89.5018
   940.0000     20.9676     90.9804
   940.2500     20.8780     94.0060
   940.5000     20.7260    100.0252
   940.7500     20.5401    104.0683
   941.0000     20.3656    109.1934
   941.2500     20.2599    111.7189
   941.5000     20.2738    113.9421
   941.7500     20.4289    114.3922
   942.0000     20.7059    113.8908
   942.2500     21.0526    113.0521
   942.5000     21.4088    111.0927
   942.7500     21.7278    109.0467
   943.0000     21.9819    104.4896
   943.2500     22.1559    100.6694
   943.5000     22.2431     94.8871
   943.7500     22.2492     91.7744
   944.0000     22.1922     89.1391
   944.2500     22.0928     88.9033
   944.5000     21.9639     90.5542
   944.7500     21.8065     92.5824
   945.0000     21.6151     96.0651
   945.2500     21.3792     98.1677
   945.5000     21.0832    100.6171
   945.7500     20.7087    101.9356
   946.0000     20.2517    103.9416
   946.2500     19.7452    105.3665
   946.5000     19.2694    107.0929
   946.7500     18.9304    107.4847
   947.0000     18.8184    106.4601
   947.2500     18.9702    104.7988
   947.5000     19.3545    101.4630
   947.7500     19.8881     99.1579
   948.0000     20.4742     96.3999
   948.2500     21.0366     95.3221
   948.5000     21.5296     94.5468
   948.7500     21.9324     93.9547
   949.0000     22.2538     91.9159
   949.2500     22.5364     89.7279
   949.5000     22.8362     86.1303
   949.7500     23.1789     84.2715
   950.0000     23.5331     83.0800
   950.2500     23.8233     83.2888
   950.5000     23.9740     84.2814
   950.7500     23.9461     84.8517
   951.0000     23.7398     85.1149
   951.2500     23.3770     84.8853
   951.5000     22.8914     83.9606
   951.7500     22.3354     82.9963
   952.0000     21.7822     81.4698
   952.2500     21.3035     80.8355
   952.5000     20.9352     80.9828
   952.7500     20.6575     81.8014
   953.0000     20.4084     83.6491
   953.2500     20.1236     84.9398
   953.5000     19.7820     86.4928
   953.7500     19.4218     87.1392
   954.0000     19.1180     87.5368
   954.2500     18.9364     87.5554
   954.5000     18.9042     87.5332
   954.7500     19.0105     87.5745
   955.0000     19.2266     87.6670
   955.2500     19.5230     87.7339
   955.5000     19.8724     87.8921
   955.7500     20.2510     87.9568
   956.0000     20.6484     87.7114
   956.2500     21.0723     87.3590
   956.5000     21.5347     87.1455
   956.7500     22.0314     87.4987
   957.0000     22.5412     88.4577
   957.2500     23.0428     88.8744
   957.5000     23.5296     88.5469
   957.7500     24.0040     87.7122
   958.0000     24.4627     86.1196
   958.2500     24.8859     85.3468
   958.5000     25.2391     85.3979
   958.7500     25.4776     86.3497
   959.0000     25.5528     88.5327
   959.2500     25.4288     89.8422
   959.5000     25.1188     90.6646
   959.7500     24.7186     90.2887
   960.0000     24.3897     88.6324
   960.2500     24.2841     87.0427
   960.5000     24.4626     84.1043
   960.7500     24.8611     81.7986
   961.0000     25.3241     78.1368
   961.2500     25.6884     76.0398
   961.5000     25.8641     74.4872
   961.7500     25.8534     74.9557
   962.0000     25.7080     77.8318
   962.2500     25.4784     80.6312
   962.5000     25.1938     84.7487
   962.7500     24.8693     86.7604
   963.0000     24.5228     88.3032
   963.2500     24.1799     88.5414
   963.5000     23.8686     88.0750
   963.7500     23.6073     87.1762
   964.0000     23.4014     84.7590
   964.2500     23.2444     82.6241
   964.5000     23.1234     79.5904
