~Version Information
VERS.                      2.0: CWLS Log ASCII Standard - VERSION 2.0
WRAP.                       NO: One line per depth step
~Well Information Block
STRT.FT                -5.2500: 
STOP.FT              1184.2500: 
STEP.FT                 0.2500: 
NULL.                -999.2500: 
COMP.          Pioneer Natural Resources: COMPANY
WELL.          Lucky Lady 42-29: WELL
FLD.           Purgatoire River: FIELD
LOC.           2482' FNL & 662' FEL: LOCATION
CNTY.               Las Animas: COUNTY
SRVC.                         : SERVICE COMPANY
DATE.          Tue Mar 14 14:47:22 2006: LOG DATE
UWI.           05 071 08659 00: UNIQUE WELL ID
STAT.                       CO: STATE
~Curve Information Block
DEPT.FT            0 000 00 00: Depth
GR.GAPI                       : Gamma Ray
CCL.                          : Casing Collar Locator
TT3.usec                      : CBL 3' Travel Time
AMP3.mV                       : CBL 3' Amplitude
~Parameter Information Block
~A  Depth        GR         CCL         TT3         AMP3    
# ...
   162.2500     78.2452      0.0000    813.1488     14.2174
   162.5000     83.1409      0.0000    815.7700     14.1504
   162.7500     88.4284      0.0000    823.5608     14.0452
   163.0000     91.7592      0.0000    832.9356     13.9024
   163.2500     92.4806      0.0000    840.6130     13.7078
   163.5000     91.1369      0.0000    845.5137     13.4525
   163.7500     88.6187      0.0000    847.9538     13.1737
   164.0000     86.1287      0.0000    848.7996     12.9499
   164.2500     85.1640      0.0000    849.0813     12.8379
   164.5000     86.4680      0.0000    848.8076     12.8193
   164.7500     89.0234      0.0000    845.8824     12.8224
   165.0000     90.8154      0.0000    837.1483     12.7966
   165.2500     90.6840      0.0000    821.3293     12.7447
   165.5000     88.9690      0.0000    801.3355     12.6754
   165.7500     86.4721      0.0000    783.6164     12.5610
   166.0000     83.6192      0.0000    774.5761     12.3755
   166.2500     80.8839      0.0000    776.6406     12.1583
   166.5000     79.1486      0.0000    787.1152     12.0000
   166.7500     78.8825      0.0000    800.5358     11.9537
   167.0000     79.4046      0.0000    812.2189     11.9821
   167.2500     79.5604      0.0000    820.2179     12.0098
   167.5000     78.8414      0.0000    824.9247     12.0099
   167.7500     77.5110      0.0000    827.5307     12.0128
   168.0000     75.8707      0.0000    828.8638     12.0398
   168.2500     73.6666      0.0000    829.1888     12.0665
   168.5000     70.2413      0.0000    828.5197     12.0643
   168.7500     65.3830      0.0000    827.0284     12.0489
   169.0000     60.0565      0.0000    825.3824     12.0709
   169.2500     56.0557      0.0000    824.7691     12.1699
   169.5000     54.8889      0.0000    826.1049     12.3467
   169.7500     57.0692      0.0000    829.0000     12.5608
   170.0000     62.0345      0.0000    832.0368     12.7401
   170.2500     68.1525      0.0000    834.3146     12.8030
   170.5000     73.0886      0.0000    835.9711     12.6978
   170.7500     75.0618      0.0000    836.8301     12.4404
   171.0000     74.2331      0.0000    835.6422     12.1140
   171.2500     72.6325      0.0000    831.6310     11.8123
   171.5000     72.4508      0.0000    826.1866     11.5724
   171.7500     74.4520      0.0000    822.0565     11.3717
   172.0000     78.0916      0.0000    820.9278     11.1864
   172.2500     82.6864      0.0000    822.2848     11.0357
   172.5000     87.9073      0.0000    824.4518     10.9668
   172.7500     93.2424      0.0000    826.1954     11.0049
   173.0000     97.6585      0.0000    827.2529     11.1190
   173.2500    100.0656      0.0000    827.9095     11.2312
   173.5000     99.8802      0.0000    828.6156     11.2677
   173.7500     97.2089      0.0000    830.2259     11.2097
   174.0000     92.8686      0.0000    834.5681     11.0931
   174.2500     88.1882      0.0000    844.2495     10.9683
   174.5000     84.3343      0.0000    860.3234     10.8708
   174.7500     81.6753      0.0000    878.5527     10.8207
   175.0000     80.0854      0.0000    888.8388     10.8296
   175.2500     79.8078      0.0000    881.5526     10.8952
   175.5000     81.4624      0.0000    856.1016     10.9880
   175.7500     84.9576      0.0000    822.0631     11.0493
   176.0000     88.8610      0.0000    791.4077     11.0200
   176.2500     91.2917      0.0000    770.7158     10.8838
   176.5000     91.3415      0.0000    760.1880     10.6849
   176.7500     89.3146      0.0000    757.1155     10.5029
   177.0000     85.8371      0.0000    758.7390     10.4184
   177.2500     81.3176      0.0000    763.0541     10.4906
   177.5000     76.4471      0.0000    768.6817     10.7312
   177.7500     72.7184      0.0000    774.5696     11.0834
   178.0000     71.7925      0.0000    779.7322     11.4433
   178.2500     74.1540      0.0000    783.1354     11.7218
   178.5000     78.6831      0.0000    784.1418     11.8800
   178.7500     83.6735      0.0000    783.5735     11.9112
   179.0000     87.9102      0.0000    783.9961     11.8209
   179.2500     90.5574      0.0000    787.9421     11.6403
   179.5000     90.7119      0.0000    795.4634     11.4247
   179.7500     88.0181      0.0000    803.8976     11.2142
   180.0000     83.6586      0.0000    810.1276     11.0112
   180.2500     79.9478      0.0000    812.7032     10.8135
   180.5000     78.6296      0.0000    812.1526     10.6544
   180.7500     79.8063      0.0000    810.2501     10.5843
   181.0000     82.4590      0.0000    809.2235     10.6148
   181.2500     85.5661      0.0000    811.1588     10.6948
   181.5000     88.6035      0.0000    817.3455     10.7518
   181.7500     91.2402      0.0000    826.8613     10.7496
   182.0000     92.8089      0.0000    835.1240     10.7020
   182.2500     92.3719      0.0000    835.6956     10.6427
   182.5000     89.6281      0.0000    825.7913     10.5952
   182.7500     85.6647      0.0000    809.3241     10.5638
   183.0000     82.3582      0.0000    793.1293     10.5387
   183.2500     80.8693      0.0000    781.2213     10.5050
   183.5000     80.8830      0.0000    773.6149     10.4504
   183.7500     81.2259      0.0000    769.0776     10.3650
   184.0000     80.9314      0.0000    767.1486     10.2468
   184.2500     79.7597      0.0000    767.6829     10.1149
   184.5000     78.0056      0.0000    769.8263     10.0117
   184.7500     75.9981      0.0000    772.1897      9.9852
   185.0000     73.7397      0.0000    773.6435     10.0675
   185.2500     71.0438      0.0000    773.5007     10.2639
   185.5000     68.0039      0.0000    771.1558     10.5481
   185.7500     65.0365      0.0000    766.2332     10.8648
   186.0000     62.4273      0.0000    759.4841     11.1469
   186.2500     60.2873      0.0000    753.2799     11.3451
   186.5000     59.0791      0.0000    750.4679     11.4492
   186.7500     59.7144      0.0000    752.1587     11.4798
   187.0000     62.9437      0.0000    756.7368     11.4598
   187.2500     68.9390      0.0000    761.4434     11.4003
   187.5000     77.3462      0.0000    764.9202     11.3091
   187.7500     87.1804      0.0000    767.9164     11.2044
   188.0000     96.7034      0.0000    771.6892     11.1198
   188.2500    104.0399      0.0000    776.3220     11.0918
   188.5000    108.0675      0.0000    780.6531     11.1309
   188.7500    108.4856      0.0000    783.3649     11.2041
   189.0000    105.4745      0.0000    784.2390     11.2629
   189.2500    100.0203      0.0000    784.7650     11.2965
   189.5000     94.1324      0.0000    787.1946     11.3433
   189.7500     89.7161      0.0000    792.6502     11.4398
   190.0000     87.1362      0.0000    800.5860     11.5712
   190.2500     85.3859      0.0000    809.8456     11.6862
   190.5000     83.6292      0.0000    819.0813     11.7538
   190.7500     82.1477      0.0000    826.0452     11.7884
   191.0000     81.7872      0.0000    827.7813     11.8133
   191.2500     82.9448      0.0000    822.5250     11.8193
   191.5000     85.3508      0.0000    811.6132     11.7734
   191.7500     88.4566      0.0000    799.3474     11.6560
   192.0000     91.5323      0.0000    791.0408     11.4807
   192.2500     93.4138      0.0000    791.9205     11.2818
   192.5000     92.7029      0.0000    806.6996     11.0914
   192.7500     88.7030      0.0000    835.8113     10.9295
   193.0000     82.3139      0.0000    869.3829     10.8086
   193.2500     75.9076      0.0000    887.9719     10.7421
   193.5000     71.9989      0.0000    874.2148     10.7444
   193.7500     71.5927      0.0000    825.6149     10.8236
   194.0000     73.6958      0.0000    755.2372     10.9714
   194.2500     76.5677      0.0000    680.1609     11.1598
   194.5000     79.3496      0.0000    610.4124     11.3507
   194.7500     82.3677      0.0000    547.7611     11.5138
   195.0000     86.1853      0.0000    491.1204     11.6346
   195.2500     90.7593      0.0000    440.8331     11.7075
   195.5000     95.4075      0.0000    399.2180     11.7273
