~Version Information
VERS.                      2.0: CWLS Log ASCII Standard - VERSION 2.0
WRAP.                       NO: One line per depth step
~Well Information Block
STRT.FT               340.0000: 
STOP.FT              2342.7500: 
STEP.FT                 0.2500: 
NULL.                -999.2500: 
COMP.          Pioneer Natural Resources: COMPANY
WELL.          Pinkerton 41-12: WELL
FLD.           Purgatoire River: FIELD
LOC.           1222' FNL & 670' FEL--: LOCATION
CNTY.               Las Animas: COUNTY
SRVC.                Patterson: SERVICE COMPANY
DATE.          Wed Mar 15 10:37:39 2006: LOG DATE
UWI.           05 071 08500 00: UNIQUE WELL ID
STAT.                 Colorado: STATE
~Curve Information Block
DEPT.FT            0 000 00 00: Depth
SN.Ohm-m                      : IEL Short Normal
SP.mV                         : IEL Spontaneous Potential
DIR.Ohm-m                     : IEL Induction Resistivity
GR.GAPI                       : Gamma Ray
~Parameter Information Block
~A  Depth        SN          SP         DIR          GR     
# ...
  2316.5000     22.4820     49.1904     21.9970   -999.2500
  2316.7500     22.4884     48.7921     22.0660   -999.2500
  2317.0000     22.5143     48.5135     22.2103   -999.2500
  2317.2500     22.5374     48.3800     22.4102   -999.2500
  2317.5000     22.5406     48.4050     22.6432   -999.2500
  2317.7500     22.5170     48.5854     22.8919   -999.2500
  2318.0000     22.4689     48.9003     23.1454   -999.2500
  2318.2500     22.4023     49.3122     23.3943   -999.2500
  2318.5000     22.3233     49.7731     23.6275   -999.2500
  2318.7500     22.2394     50.2325     23.8359   -999.2500
  2319.0000     22.1589     50.6452     24.0199   -999.2500
  2319.2500     22.0877     50.9786     24.1924   -999.2500
  2319.5000     22.0253     51.2153     24.3718   -999.2500
  2319.7500     21.9676     51.3520     24.5709   -999.2500
  2320.0000     21.9129     51.3961     24.7861   -999.2500
  2320.2500     21.8655     51.3605     24.9926   -999.2500
  2320.5000     21.8323     51.2599     25.1499   -999.2500
  2320.7500     21.8203     51.1079     25.2195   -999.2500
  2321.0000     21.8359     50.9174     25.1852   -999.2500
  2321.2500     21.8849     50.7017     25.0609   -999.2500
  2321.5000     21.9705     50.4750     24.8815   -999.2500
  2321.7500     22.0926     50.2538     24.6873   -999.2500
  2322.0000     22.2493     50.0556     24.5141   -999.2500
  2322.2500     22.4380     49.8973     24.3928   -999.2500
  2322.5000     22.6542     49.7932     24.3512   -999.2500
  2322.7500     22.8906     49.7521     24.4124   -999.2500
  2323.0000     23.1392     49.7751     24.5887   -999.2500
  2323.2500     23.3951     49.8531     24.8751   -999.2500
  2323.5000     23.6569     49.9656     25.2481   -999.2500
  2323.7500     23.9236     50.0807     25.6720   -999.2500
  2324.0000     24.1947     50.1577     26.1080   -999.2500
  2324.2500     24.4753     50.1518     26.5217   -999.2500
  2324.5000     24.7759     50.0202     26.8873   -999.2500
  2324.7500     25.1040     49.7292     27.1902   -999.2500
  2325.0000     25.4556     49.2591     27.4300   -999.2500
  2325.2500     25.8172     48.6063     27.6206   -999.2500
  2325.5000     26.1746     47.7821     27.7862   -999.2500
  2325.7500     26.5204     46.8077     27.9487   -999.2500
  2326.0000     26.8560     45.7088     28.1135   -999.2500
  2326.2500     27.1916     44.5099     28.2635   -999.2500
  2326.5000     27.5445     43.2315     28.3728   -999.2500
  2326.7500     27.9376     41.8890     28.4346   -999.2500
  2327.0000     28.3929     40.4945     28.4804   -999.2500
  2327.2500     28.9235     39.0592     28.5739   -999.2500
  2327.5000     29.5318     37.5962     28.7818   -999.2500
  2327.7500     30.2212     36.1218     29.1440   -999.2500
  2328.0000     31.0100     34.6553     29.6628   -999.2500
  2328.2500     31.9282     33.2178     30.3147   -999.2500
  2328.5000     32.9949     31.8298     31.0720   -999.2500
  2328.7500     34.1966     30.5092     31.9142   -999.2500
  2329.0000     35.4876     29.2696     32.8224   -999.2500
  2329.2500     36.8099     28.1196     33.7692   -999.2500
  2329.5000     38.1099     27.0633     34.7241   -999.2500
  2329.7500     39.3447     26.1019     35.9500   -999.2500
  2330.0000     40.4869     25.2354     36.9230   -999.2500
  2330.2500     41.5282     24.4633     37.9322   -999.2500
  2330.5000     42.4717     23.7861     38.9833   -999.2500
  2330.7500     43.3110     23.2050     40.0401   -999.2500
  2331.0000     44.0148     22.7217     41.0301   -999.2500
  2331.2500     44.5333     22.3386     41.8700   -999.2500
  2331.5000     44.8248     22.0595     42.4935   -999.2500
  2331.7500     44.8779     21.8907     42.8924   -999.2500
  2332.0000     44.7121     21.8434     43.1697   -999.2500
  2332.2500     44.3550     21.9349     43.5949   -999.2500
  2332.5000     43.8208     22.1857     44.6585   -999.2500
  2332.7500     43.1059     22.6213     47.1662   -999.2500
  2333.0000     42.2024     23.2635     52.4843   -999.2500
  2333.2500     41.1159     24.1238     62.2502   -999.2500
  2333.5000     39.8760     25.1936     83.8295   -999.2500
  2333.7500     38.5358     26.4326    134.0342   -999.2500
  2334.0000     37.1618     27.7557    297.4431   -999.2500
  2334.2500     35.8149     29.0206   5867.9004   -999.2500
  2334.5000     34.5327     30.0210 100000.0000   -999.2500
  2334.7500     33.3232     30.4913 100000.0000   -999.2500
  2335.0000     32.1735     30.1307 100000.0000   -999.2500
  2335.2500     31.0639     28.6499 100000.0000   -999.2500
  2335.5000     29.9791     25.8340 100000.0000   -999.2500
  2335.7500     28.9181     21.6071 100000.0000   -999.2500
  2336.0000     27.8991     16.0789 100000.0000   -999.2500
  2336.2500     26.9555      9.5511 100000.0000   -999.2500
  2336.5000     26.1211      2.4768 100000.0000   -999.2500
  2336.7500     25.4072     -4.6206 100000.0000   -999.2500
  2337.0000     24.7718    -11.2458 100000.0000   -999.2500
  2337.2500     24.0745    -17.0173 100000.0000   -999.2500
  2337.5000     23.0145    -21.7188 100000.0000   -999.2500
  2337.7500     21.1264    -25.3048 100000.0000   -999.2500
  2338.0000     17.9890    -27.8681 100000.0000   -999.2500
  2338.2500     13.6457    -29.5862 100000.0000   -999.2500
  2338.5000      8.8394    -30.6667 100000.0000   -999.2500
  2338.7500      4.6508    -31.3043 100000.0000   -999.2500
  2339.0000      1.7928    -31.6575 100000.0000   -999.2500
  2339.2500      0.2699    -31.8413 100000.0000   -999.2500
  2339.5000     -0.3631    -31.9311 100000.0000   -999.2500
  2339.7500     -0.5682    -31.9723 100000.0000   -999.2500
  2340.0000     -0.6200    -31.9901 100000.0000   -999.2500
  2340.2500     -0.6302    -31.9973 100000.0000   -999.2500
  2340.5000   -999.2500   -999.2500 100000.0000   -999.2500
  2340.7500   -999.2500   -999.2500 100000.0000   -999.2500
  2341.0000   -999.2500   -999.2500  11027.2148   -999.2500
  2341.2500   -999.2500   -999.2500   6529.9229   -999.2500
  2341.5000   -999.2500   -999.2500   5446.0918   -999.2500
  2341.7500   -999.2500   -999.2500   5094.7793   -999.2500
  2342.0000   -999.2500   -999.2500   4981.1064   -999.2500
  2342.2500   -999.2500   -999.2500   4947.8086   -999.2500
  2342.5000   -999.2500   -999.2500   4939.3223   -999.2500
  2342.7500   -999.2500   -999.2500 100000.0000   -999.2500
