~Version Information
VERS.                      2.0: CWLS Log ASCII Standard - VERSION 2.0
WRAP.                       NO: One line per depth step
~Well Information Block
STRT.FT               597.2500: 
STOP.FT              1567.2500: 
STEP.FT                 0.2500: 
NULL.                -999.2500: 
COMP.          Pioneer Natural Resources: COMPANY
WELL.           Butch 33-10 Tr: WELL
FLD.           Purgatoire River: FIELD
LOC.           2309' FSL & 1337' FEL--: LOCATION
PROV.                 Colorado: PROVINCE
CNTY.               Las Animas: COUNTRY
SRVC.                Patterson: SERVICE COMPANY
DATE.          Sat Jan 14 05:18:29 2006: LOG DATE
UWI.           05 071 08649 00: UNIQUE WELL ID
~Curve Information Block
DEPT.FT            0 000 00 00: Depth
SN.Ohm-m                      : IEL Short Normal
SP.mV                         : IEL Spontaneous Potential
DIR.Ohm-m                     : IEL Induction Resistivity
GR.GAPI                       : Gamma Ray
~Parameter Information Block
~A  Depth        SN          SP         DIR          GR     
# ...
  1099.7500     18.6664    -10.3667     14.8390    139.2264
  1100.0000     18.3511     -9.9919     14.6703    139.2496
  1100.2500     17.9947     -9.6269     14.4024    137.8602
  1100.5000     17.6439     -9.2981     14.0563    134.4078
  1100.7500     17.3347     -9.0112     13.6733    132.3722
  1101.0000     17.0812     -8.7525     13.3018    131.8662
  1101.2500     16.8774     -8.5016     12.9850    133.7365
  1101.5000     16.7113     -8.2515     12.7529    138.6819
  1101.7500     16.5815     -8.0261     12.6209    141.9150
  1102.0000     16.5060     -7.8880     12.5940    144.3340
  1102.2500     16.5215     -7.9300     12.6725    143.5887
  1102.5000     16.6834     -8.2500     12.8584    138.4442
  1102.7500     17.0694     -8.9186     13.1582    132.2771
  1103.0000     17.7710     -9.9488     13.5807    119.4226
  1103.2500     18.8516    -11.2797     14.1322    109.1425
  1103.5000     20.2882    -12.7813     14.8073     92.5947
  1103.7500     21.9595    -14.2781     15.5796     81.6800
  1104.0000     23.7016    -15.5864     16.3912     67.3417
  1104.2500     25.3656    -16.5528     17.1477     60.4402
  1104.5000     26.7992    -17.0827     17.7280     55.8790
  1104.7500     27.7878    -17.1534     18.0163     57.0982
  1105.0000     28.0693    -16.8078     17.9458     64.9257
  1105.2500     27.4612    -16.1366     17.5248     73.5178
  1105.5000     25.9967    -15.2530     16.8272     89.7926
  1105.7500     23.9420    -14.2689     15.9617    101.5105
  1106.0000     21.6775    -13.2789     15.0407    117.5603
  1106.2500     19.5423    -12.3514     14.1609    125.7909
  1106.5000     17.7496    -11.5277     13.3919    133.3186
  1106.7500     16.3909    -10.8269     12.7740    135.5315
  1107.0000     15.4767    -10.2517     12.3196    136.5888
  1107.2500     14.9643     -9.7947     12.0198    137.0728
  1107.5000     14.7706     -9.4431     11.8505    139.0183
  1107.7500     14.7895     -9.1821     11.7809    141.3256
  1108.0000     14.9234     -8.9962     11.7809    145.3563
  1108.2500     15.1100     -8.8708     11.8270    147.5326
  1108.5000     15.3241     -8.7925     11.9041    149.0307
  1108.7500     15.5563     -8.7498     12.0052    148.8253
  1109.0000     15.7947     -8.7337     12.1297    147.2406
  1109.2500     16.0245     -8.7370     12.2824    145.6294
  1109.5000     16.2376     -8.7547     12.4714    142.5496
  1109.7500     16.4347     -8.7825     12.7026    140.0379
  1110.0000     16.6201     -8.8166     12.9745    135.8369
  1110.2500     16.7972     -8.8530     13.2759    133.2788
  1110.5000     16.9697     -8.8873     13.5896    131.1606
  1110.7500     17.1402     -8.9152     13.8985    131.4955
  1111.0000     17.3098     -8.9327     14.1916    134.5573
  1111.2500     17.4775     -8.9369     14.4659    137.5992
  1111.5000     17.6436     -8.9258     14.7242    142.0446
  1111.7500     17.8102     -8.8992     14.9729    144.2813
  1112.0000     17.9765     -8.8577     15.2187    146.3566
  1112.2500     18.1344     -8.8027     15.4647    147.1197
  1112.5000     18.2682     -8.7364     15.7057    147.8804
  1112.7500     18.3620     -8.6609     15.9258    148.4582
  1113.0000     18.4083     -8.5786     16.1033    149.6383
  1113.2500     18.4155     -8.4925     16.2213    150.2809
  1113.5000     18.4087     -8.4067     16.2795    149.9245
  1113.7500     18.4212     -8.3273     16.2964    148.5569
  1114.0000     18.4806     -8.2641     16.3038    145.8700
  1114.2500     18.5973     -8.2309     16.3365    144.7455
  1114.5000     18.7650     -8.2456     16.4244    145.0776
  1114.7500     18.9696     -8.3295     16.5865    146.1158
  1115.0000     19.2018     -8.5038     16.8293    146.4606
  1115.2500     19.4679     -8.7839     17.1475    144.5431
  1115.5000     19.7921     -9.1731     17.5301    137.8721
  1115.7500     20.2099     -9.6550     17.9686    131.5447
  1116.0000     20.7586    -10.1885     18.4619    120.8176
  1116.2500     21.4708    -10.7077     19.0158    113.4781
  1116.5000     22.3642    -11.1291     19.6375    102.4136
  1116.7500     23.4254    -11.3662     20.3313     94.7934
  1117.0000     24.5993    -11.3504     21.0990     82.9360
  1117.2500     25.8022    -11.0522     21.9420     75.2902
  1117.5000     26.9516    -10.4962     22.8608     65.8418
  1117.7500     27.9924     -9.7647     23.8471     61.6103
  1118.0000     28.9040     -8.9853     24.8733     58.2865
  1118.2500     29.6942     -8.3050     25.8881     57.3917
  1118.5000     30.3880     -7.8585     26.8267     56.8034
  1118.7500     31.0179     -7.7374     27.6360     56.5480
  1119.0000     31.6158     -7.9728     28.3032     56.1143
  1119.2500     32.2082     -8.5334     28.8689     55.6622
  1119.5000     32.8161     -9.3397     29.4134     54.6781
  1119.7500     33.4565    -10.2883     30.0186     53.9758
  1120.0000     34.1390    -11.2773     30.7319     53.2639
  1120.2500     34.8601    -12.2255     31.5549     53.1674
  1120.5000     35.6035    -13.0814     32.4599     53.5844
  1120.7500     36.3484    -13.8221     33.4153     54.1061
  1121.0000     37.0750    -14.4447     34.3928     54.9249
  1121.2500     37.7657    -14.9564     35.3537     55.3424
  1121.5000     38.4088    -15.3662     36.2367     55.8025
  1121.7500     39.0047    -15.6804     36.9744     56.1757
  1122.0000     39.5652    -15.9021     37.5330     57.1163
  1122.2500     40.1064    -16.0337     37.9363     57.9829
  1122.5000     40.6413    -16.0805     38.2452     59.2551
  1122.7500     41.1763    -16.0517     38.5092     59.8015
  1123.0000     41.7106    -15.9621     38.7337     60.0887
  1123.2500     42.2351    -15.8309     38.8901     60.2525
  1123.5000     42.7323    -15.6791     38.9549     61.1983
  1123.7500     43.1774    -15.5277     38.9371     62.4403
  1124.0000     43.5415    -15.3943     38.8701     64.7417
  1124.2500     43.8005    -15.2917     38.7831     66.0425
  1124.5000     43.9487    -15.2258     38.6828     66.8330
  1124.7500     44.0037    -15.1954     38.5621     66.3539
  1125.0000     44.0001    -15.1924     38.4225     64.1814
  1125.2500     43.9737    -15.2033     38.2895     61.9455
  1125.5000     43.9500    -15.2112     38.2059     57.9548
  1125.7500     43.9425    -15.1989     38.2058     55.4095
  1126.0000     43.9576    -15.1513     38.2927     52.8538
  1126.2500     43.9991    -15.0587     38.4362     52.3768
  1126.5000     44.0661    -14.9174     38.5884     53.5360
  1126.7500     44.1459    -14.7314     38.7019     55.4360
  1127.0000     44.2115    -14.5117     38.7406     59.7053
  1127.2500     44.2322    -14.2745     38.6876     63.1209
  1127.5000     44.1951    -14.0398     38.5562     67.7670
  1127.7500     44.1206    -13.8278     38.3916     69.4447
  1128.0000     44.0605    -13.6564     38.2551     68.2678
  1128.2500     44.0772    -13.5383     38.2017     65.0453
  1128.5000     44.2155    -13.4796     38.2699     58.6413
  1128.7500     44.4825    -13.4788     38.4884     54.9872
  1129.0000     44.8479    -13.5279     38.8834     52.0502
  1129.2500     45.2618    -13.6136     39.4692     51.6402
  1129.5000     45.6774    -13.7197     40.2171     52.0721
  1129.7500     46.0667    -13.8302     41.0236     52.3479
  1130.0000     46.4235    -13.9315     41.7131     52.0002
  1130.2500     46.7536    -14.0152     42.1013     51.0835
  1130.5000     47.0603    -14.0789     42.0933     48.9949
  1130.7500     47.3390    -14.1266     41.7396     47.7428
  1131.0000     47.5822    -14.1676     41.1999     47.4132
  1131.2500     47.7859    -14.2137     40.6528     48.7314
  1131.5000     47.9482    -14.2758     40.2242     52.8641
  1131.7500     48.0607    -14.3595     39.9672     56.4059
  1132.0000     48.0970    -14.4625     39.8753     61.4030
  1132.2500     48.0037    -14.5721     39.9019     63.7441
  1132.5000     47.6979    -14.6655     39.9688     64.8264
  1132.7500     47.0780    -14.7132     39.9675     63.7574
  1133.0000     46.0499    -14.6827     39.7644     60.3229
