~Version Information
VERS.                      2.0: CWLS Log ASCII Standard - VERSION 2.0
WRAP.                       NO: One line per depth step
~Well Information Block
STRT.FT               545.0000: 
STOP.FT              2200.7000: 
STEP.FT                 0.1000: 
NULL.                -999.2500: 
COMP.          Pioneer Natural Resources: COMPANY
WELL.               Erin 21-15: WELL
FLD.           Purgatoire River: FIELD
LOC.           1217' FNL & 2284' FWL--: LOCATION
CNTY.               Las Animas: COUNTY
SRVC.                Patterson: SERVICE COMPANY
DATE.          Thu Mar 02 09:55:43 2006: LOG DATE
UWI.           05 071 08713 00: UNIQUE WELL ID
STAT.                 Colorado: STATE
~Curve Information Block
DEPT.FT            0 000 00 00: Depth
DCAL.in                       : CDL Caliper
RHOB.g/cc                     : CDL Bulk Density
RHOC.g/cc                     : CDL Density Correction
DPOR.pu                       : CDL Density Porosity
NPOR.pu                       : Neutron Porosity
GR.GAPI                       : Gamma Ray
~Parameter Information Block
~A  Depth       DCAL        RHOB        RHOC        DPOR        NPOR         GR     
# ...
  2167.4000      7.6682      2.5661      0.0348      5.0848     19.3348     81.3053
  2167.5000      7.6678      2.5753      0.0574      4.5261     19.0291     89.6428
  2167.6000      7.6678      2.5781      0.0759      4.3598     18.7349     94.3049
  2167.7000      7.6678      2.5750      0.0355      4.5450     18.3466     94.9608
  2167.8000      7.6670      2.5649      0.0390      5.1551     17.9730     97.6254
  2167.9000      7.6670      2.5502      0.0160      6.0504     17.6223    102.9436
  2168.0000      7.6670      2.5427     -0.0070      6.5013     17.2864    101.8525
  2168.1000      7.6670      2.5530     -0.0088      5.8777     17.1088     91.6810
  2168.2000      7.6670      2.5738      0.0562      4.6190     17.0312     82.9149
  2168.3000      7.6671      2.5940      0.0304      3.3935     17.0588     81.1413
  2168.4000      7.6671      2.6128      0.0476      2.2566     17.3602     78.3172
  2168.5000      7.6666      2.6304      0.0495      1.1890     17.7997     61.6090
  2168.6000      7.6666      2.6367      0.0766      0.8057     18.2172     33.1075
  2168.7000      7.6666      2.6176      0.0641      1.9649     18.6478     10.8097
  2168.8000      7.6652      2.5777      0.0538      4.3794     18.8127      2.0064
  2168.9000      7.6652      2.5405      0.0097      6.6386     18.5564      0.2041
  2169.0000      7.6644      2.5228      0.0085      7.7094     18.2806      0.0109
  2169.1000      7.6644      2.5202      0.0393      7.8671     18.3782      0.0000
  2169.2000      7.6644      2.5217      0.0142      7.7737     18.8690   -999.2500
  2169.3000      7.6636      2.5275      0.0204      7.4216     19.6060   -999.2500
  2169.4000      7.6636      2.5341      0.0567      7.0251     20.3058   -999.2500
  2169.5000      7.6633      2.5306      0.0003      7.2384     20.4578   -999.2500
  2169.6000      7.6633      2.5213     -0.0446      7.7988     20.0646   -999.2500
  2169.7000      7.6633      2.5182     -0.0007      7.9883     19.9215   -999.2500
  2169.8000      7.6648      2.5206      0.0253      7.8452     20.2706   -999.2500
  2169.9000      7.6648      2.5210      0.0656      7.8163     20.5280   -999.2500
  2170.0000      7.6669      2.5233      0.0212      7.6782     20.5617   -999.2500
  2170.1000      7.6669      2.5369      0.0387      6.8542     20.7354   -999.2500
  2170.2000      7.6669      2.5519      0.0383      5.9444     20.8608   -999.2500
  2170.3000      7.6690      2.5529      0.0336      5.8825     20.5533   -999.2500
  2170.4000      7.6690      2.5455      0.0348      6.3325     19.9711   -999.2500
  2170.5000      7.6706      2.5453      0.0271      6.3457     19.5538   -999.2500
  2170.6000      7.6706      2.5522      0.0618      5.9295     19.3379   -999.2500
  2170.7000      7.6706      2.5523      0.0709      5.9222     19.2370   -999.2500
  2170.8000      7.6662      2.5418      0.0263      6.5592     19.4379   -999.2500
  2170.9000      7.6662      2.5309      0.0093      7.2192     19.8605   -999.2500
  2171.0000      7.6564      2.5323      0.0040      7.1331     19.9402   -999.2500
  2171.1000      7.6564      2.5454      0.0363      6.3386     19.4707   -999.2500
  2171.2000      7.6564      2.5592      0.0217      5.5035     18.9225   -999.2500
  2171.3000      7.6508      2.5666      0.0462      5.0516     18.4794   -999.2500
  2171.4000      7.6508      2.5648      0.0418      5.1623     18.0791   -999.2500
  2171.5000      7.6513      2.5592      0.0306      5.5006     18.0387   -999.2500
  2171.6000      7.6513      2.5567      0.0428      5.6546     18.4283   -999.2500
  2171.7000      7.6513      2.5570      0.0230      5.6388     18.7843   -999.2500
  2171.8000      7.6518      2.5574      0.0429      5.6111     18.8628   -999.2500
  2171.9000      7.6518      2.5579     -0.0070      5.5792     18.8359   -999.2500
  2172.0000      7.6500      2.5619      0.0234      5.3382     18.9635   -999.2500
  2172.1000      7.6500      2.5690      0.0378      4.9091     19.3020   -999.2500
  2172.2000      7.6500      2.5745      0.0471      4.5756     19.7189   -999.2500
  2172.3000      7.6491      2.5732      0.0403      4.6520     20.0670   -999.2500
  2172.4000      7.6491      2.5623      0.0426      5.3172     20.4385   -999.2500
  2172.5000      7.6507      2.5501     -0.0039      6.0544     21.0559   -999.2500
  2172.6000      7.6507      2.5503      0.0166      6.0425     21.7390   -999.2500
  2172.7000      7.6507      2.5575      0.0486      5.6054     22.1840   -999.2500
  2172.8000      7.6515      2.5620      0.0390      5.3342     22.2624   -999.2500
  2172.9000      7.6515      2.5671      0.0347      5.0238     21.6639   -999.2500
  2173.0000      7.6487      2.5782      0.0107      4.3538     20.5674   -999.2500
  2173.1000      7.6487      2.5940      0.0377      3.3943     19.6878   -999.2500
  2173.2000      7.6487      2.6040      0.0856      2.7906     19.3496   -999.2500
  2173.3000      7.6449      2.6004      0.0513      3.0048     19.4195   -999.2500
  2173.4000      7.6449      2.5868      0.0871      3.8317     19.5442   -999.2500
  2173.5000      7.6451      2.5695      0.0335      4.8802     19.4284   -999.2500
  2173.6000      7.6451      2.5546      0.0485      5.7831     19.2100   -999.2500
  2173.7000      7.6451      2.5441     -0.0020      6.4155     19.1918   -999.2500
  2173.8000      7.6481      2.5396      0.0160      6.6931     19.5919   -999.2500
  2173.9000      7.6481      2.5388     -0.0071      6.7391     21.9094   -999.2500
  2174.0000      7.6482      2.5364      0.0154      6.8872     28.7797   -999.2500
  2174.1000      7.6482      2.5299      0.0367      7.2800     38.8402   -999.2500
  2174.2000      7.6482      2.5264      0.0126      7.4939     46.0785   -999.2500
  2174.3000      7.6450      2.5330     -0.0219      7.0931     48.7576   -999.2500
  2174.4000      7.6450      2.5400      0.0448      6.6655     49.2893   -999.2500
  2174.5000      7.6415      2.5371      0.0023      6.8429     49.3457   -999.2500
  2174.6000      7.6415      2.5361      0.0469      6.9057     49.3489   -999.2500
  2174.7000      7.6415      2.5454      0.0317      6.3418   -999.2500   -999.2500
  2174.8000      7.6398      2.5480      0.0714      6.1844   -999.2500   -999.2500
  2174.9000      7.6398      2.5340      0.0008      7.0304   -999.2500   -999.2500
  2175.0000      7.6420      2.5237      0.0132      7.6527   -999.2500   -999.2500
  2175.1000      7.6420      2.5312      0.0290      7.2025   -999.2500   -999.2500
  2175.2000      7.6420      2.5478      0.0584      6.1945   -999.2500   -999.2500
  2175.3000      7.6454      2.5576      0.0526      5.5983   -999.2500   -999.2500
  2175.4000      7.6454      2.5538      0.0623      5.8313   -999.2500   -999.2500
  2175.5000      7.6431      2.5498      0.0300      6.0719   -999.2500   -999.2500
  2175.6000      7.6431      2.5627      0.0568      5.2928   -999.2500   -999.2500
  2175.7000      7.6431      2.5851      0.0765      3.9355   -999.2500   -999.2500
  2175.8000      7.6359      2.6027      0.0641      2.8646   -999.2500   -999.2500
  2175.9000      7.6359      2.6152      0.1052      2.1103   -999.2500   -999.2500
  2176.0000      7.6297      2.6148      0.0976      2.1335   -999.2500   -999.2500
  2176.1000      7.6297      2.5915      0.0522      3.5441   -999.2500   -999.2500
  2176.2000      7.6297      2.5633     -0.0025      5.2562   -999.2500   -999.2500
  2176.3000      7.6295      2.5498      0.0780      6.0738   -999.2500   -999.2500
  2176.4000      7.6295      2.5463      0.0135      6.2841   -999.2500   -999.2500
  2176.5000      7.6344      2.5471     -0.0016      6.2335   -999.2500   -999.2500
  2176.6000      7.6344      2.5479      0.0167      6.1889   -999.2500   -999.2500
  2176.7000      7.6344      2.5494     -0.0318      6.0982   -999.2500   -999.2500
  2176.8000      7.6378      2.5587      0.0122      5.5343   -999.2500   -999.2500
  2176.9000      7.6378      2.5699      0.0338      4.8537   -999.2500   -999.2500
