~Version Information
VERS.                      2.0: CWLS Log ASCII Standard - VERSION 2.0
WRAP.                       NO: One line per depth step
~Well Information Block
STRT.FT                -8.2500: 
STOP.FT              1580.5000: 
STEP.FT                 0.2500: 
NULL.                -999.2500: 
COMP.          Pioneer Natural Resources: COMPANY
WELL.          Daytona 31-14 Tr: WELL
FLD.           Purgatorie River: FIELD
LOC.           683' FNL & 1943' FEL--: LOCATION
CNTY.               Las Animas: COUNTY
SRVC.          Patterson Wireline: SERVICE COMPANY
DATE.          Thu Feb 02 08:47:22 2006: LOG DATE
UWI.           05 071 08681 00: UNIQUE WELL ID
STAT.                       CO: STATE
~Curve Information Block
DEPT.FT            0 000 00 00: Depth
CCL.                          : Casing Collar Locator
TT3.usec                      : CBL 3' Travel Time
AMP3.mV                       : CBL 3' Amplitude
GR.GAPI                       : Gamma Ray
~Parameter Information Block
~A  Depth       CCL         TT3         AMP3         GR     
# ...
  1532.7500      0.0000    623.1214      3.7394    147.8980
  1533.0000      0.0000    603.3831      3.7403    143.2414
  1533.2500      0.0000    584.3646      3.7057    141.0092
  1533.5000      0.0000    572.9932      3.6359    141.2579
  1533.7500      0.0000    566.9634      3.5476    143.4927
  1534.0000      0.0000    557.6720      3.4723    146.5629
  1534.2500      0.0000    541.3555      3.4422    149.2506
  1534.5000      0.0000    521.4496      3.4726    151.5211
  1534.7500      0.0000    501.4289      3.5523    154.8313
  1535.0000      0.0000    481.8166      3.6491    160.6767
  1535.2500      0.0000    463.8621      3.7287    168.7299
  1535.5000      0.0000    450.9652      3.7726    176.4380
  1535.7500      0.0000    445.7697      3.7830    180.3289
  1536.0000      0.0000    448.6055      3.7735    178.0733
  1536.2500      0.0000    458.3766      3.7579    170.1767
  1536.5000      0.0000    472.2979      3.7427    160.0842
  1536.7500      0.0000    484.3219      3.7296    152.0471
  1537.0000      0.0000    486.6814      3.7219    148.2840
  1537.2500      0.0000    475.7640      3.7266    148.0270
  1537.5000      0.0000    456.0370      3.7485    148.8511
  1537.7500      0.0000    436.5865      3.7825    148.3938
  1538.0000      0.0000    423.9276      3.8134    145.2217
  1538.2500      0.0000    418.5588      3.8263    139.0659
  1538.5000      0.0000    416.9342      3.8155    130.8312
  1538.7500      0.0000    415.2918      3.7857    122.3982
  1539.0000      0.0000    412.4385      3.7439    116.0832
  1539.2500      0.0000    411.2702      3.6948    113.7046
  1539.5000      0.0000    418.6752      3.6439    115.7133
  1539.7500      0.0000    441.7862      3.6041    121.1653
  1540.0000      0.0000    480.7471      3.5955    128.5222
  1540.2500      0.0000    524.3045      3.6315    136.2810
  1540.5000      0.0000    556.1575      3.7021    143.0361
  1540.7500      0.0000    569.2407      3.7712    147.8124
  1541.0000      0.0000    572.8085      3.7962    150.8202
  1541.2500      0.0000    582.7795      3.7554    153.2004
  1541.5000      0.0000    605.9945      3.6608    155.4670
  1541.7500      0.0000    636.0233      3.5479    156.8899
  1542.0000      0.0000    662.0433      3.4520    157.0280
  1542.2500      0.0000    677.9302      3.3913    157.1449
  1542.5000      0.0000    683.8228      3.3659    159.0991
  1542.7500      0.0000    683.2475      3.3694    163.0263
  1543.0000      0.0000    680.2859      3.4005    166.8895
  1543.2500      0.0000    677.9595      3.4621    168.4292
  1543.5000      0.0000    677.6788      3.5498    167.2675
  1543.7500      0.0000    679.4535      3.6441    165.1668
  1544.0000      0.0000    682.3936      3.7182    164.2211
  1544.2500      0.0000    685.4372      3.7582    164.7567
  1544.5000      0.0000    688.1158      3.7733    165.2765
  1544.7500      0.0000    690.3635      3.7824    164.4022
  1545.0000      0.0000    691.3068      3.7914    162.1131
  1545.2500      0.0000    688.8961      3.7862    158.7674
  1545.5000      0.0000    681.4911      3.7470    153.8835
  1545.7500      0.0000    669.4060      3.6693    146.7922
  1546.0000      0.0000    653.4546      3.5708    138.0426
  1546.2500      0.0000    631.5478      3.4843    129.3758
  1546.5000      0.0000    598.8477      3.4410    122.4453
  1546.7500      0.0000    553.8691      3.4516    118.1147
  1547.0000      0.0000    503.6898      3.4997    116.7341
  1547.2500      0.0000    460.3212      3.5560    118.1815
  1547.5000      0.0000    431.6146      3.6018    121.2824
  1547.7500      0.0000    417.0755      3.6372    123.8530
  1548.0000      0.0000    411.3697      3.6677    124.0558
  1548.2500      0.0000    409.6307      3.6899    121.5906
  1548.5000      0.0000    409.8312      3.6904    117.0862
  1548.7500      0.0000    412.6809      3.6546    110.7413
  1549.0000      0.0000    420.4424      3.5824    102.4867
  1549.2500      0.0000    434.6423      3.5016     93.4195
  1549.5000      0.0000    453.8304      3.4661     85.9714
  1549.7500      0.0000    474.4955      3.5232     82.1411
  1550.0000      0.0000    494.0638      3.6632     82.0364
  1550.2500      0.0000    510.2574      3.8044     84.3783
  1550.5000      0.0000    518.0128      3.8579     87.9054
  1550.7500      0.0000    513.2161      3.8208     92.0085
  1551.0000      0.0000    501.2620      3.7843     96.5327
  1551.2500      0.0000    495.0866      3.8404    101.5420
  1551.5000      0.0000    500.7301      3.9919    107.3841
  1551.7500      2.0000    509.7080      4.1553    114.7053
  1552.0000      0.0000    510.4412      4.2328    123.8518
  1552.2500      0.0000    504.4666      4.1818    133.8352
  1552.5000      0.0000    505.7775      4.0387    142.1654
  1552.7500      0.0000    523.7598      3.8882    146.2981
  1553.0000      0.0000    550.6135      3.7946    145.5013
  1553.2500      0.0000    567.8114      3.7528    141.1499
  1553.5000      0.0000    563.4013      3.7109    135.3302
  1553.7500      0.0000    540.7417      3.6411    129.6993
  1554.0000      0.0000    511.4239      3.5734    125.7077
  1554.2500      0.0000    484.4674      3.5559    125.1086
  1554.5000      0.0000    464.6569      3.6045    129.4982
  1554.7500      0.0000    456.0618      3.6982    139.1230
  1555.0000      0.0000    460.4610      3.8063    152.0314
  1555.2500      0.0000    472.8882      3.9096    164.4426
  1555.5000      0.0000    484.2284      4.0044    172.6062
  1555.7500      0.0000    490.7842      4.0930    175.1617
  1556.0000      0.0000    499.2920      4.1709    174.0072
  1556.2500      0.0000    519.8411      4.2209    172.7772
  1556.5000      0.0000    553.9236      4.2241    174.2657
  1556.7500      0.0000    591.1868      4.1767    178.7895
  1557.0000      0.0000    617.9347      4.0959    184.3880
  1557.2500      0.0000    626.2544      4.0087    188.3604
  1557.5000      0.0000    614.4512      3.9376    188.8679
  1557.7500      0.0000    584.1596      3.8937    185.6632
  1558.0000      0.0000    541.5945      3.8792    179.9454
  1558.2500      0.0000    498.5112      3.8905    173.5163
  1558.5000      0.0000    467.6458      3.9158    167.4323
  1558.7500      0.0000    456.8754      3.9335    161.1770
  1559.0000      0.0000    467.2418      3.9212    153.4531
  1559.2500      0.0000    493.7777      3.8719    143.8611
  1559.5000      0.0000    526.7842      3.8002    133.6378
  1559.7500      0.0000    553.8280      3.7327    124.7900
  1560.0000      0.0000    563.9875      3.6918    118.8432
  1560.2500      0.0000    555.0057      3.6879    116.4354
  1560.5000      0.0000    538.2598      3.7223    117.3663
  1560.7500      0.0000    532.3242      3.7920    120.4936
  1561.0000      0.0000    546.2445      3.8876    124.3068
  1561.2500      0.0000    569.1252      3.9889    128.3857
  1561.5000      0.0000    578.9918      4.0677    133.6542
  1561.7500      0.0000    562.6060      4.0987    140.5675
  1562.0000      0.0000    525.7534      4.0711    147.8337
  1562.2500      0.0000    485.1307      3.9946    153.5326
  1562.5000      0.0000    453.2592      3.8978    156.7639
  1562.7500      0.0000    432.1898      3.8158    157.8110
  1563.0000      0.0000    418.2715      3.7712    157.5180
  1563.2500      0.0000    408.7563      3.7632    156.9399
  1563.5000      0.0000    403.5569      3.7738    156.8721
  1563.7500      0.0000    403.3161      3.7880    157.0972
  1564.0000      0.0000    407.3980      3.8051    156.4214
  1564.2500      0.0000    413.5408      3.8329    153.8270
  1564.5000      0.0000    418.8737      3.8742    149.6101
  1564.7500      0.0000    421.4174      3.9215    145.3072
  1565.0000      0.0000    421.1097      3.9635    142.4806
  1565.2500      0.0000    419.7164      3.9928    141.3123
  1565.5000      0.0000    419.4554      4.0101    140.0967
  1565.7500      0.0000    421.1740      4.0195    135.9099
  1566.0000      0.0000    423.8391      4.0238    125.7806
