~Version Information
VERS.                      2.0: CWLS Log ASCII Standard - VERSION 2.0
WRAP.                       NO: One line per depth step
~Well Information Block
STRT.FT                -6.7500: 
STOP.FT              2256.0000: 
STEP.FT                 0.2500: 
NULL.                -999.2500: 
COMP.          Pioneer Natural Resources: COMPANY
WELL.               Relay 12-7: WELL
FLD.           Purgatorie River: FIELD
LOC.           1999' FNL & 848' FWL--: LOCATION
PROV.                       CO: PROVINCE
CNTY.               Las Animas: COUNTRY
SRVC.          Patterson Wireline: SERVICE COMPANY
DATE.          Thu Dec 22 09:06:31 2005: LOG DATE
UWI.           05 071 08453 00: UNIQUE WELL ID
~Curve Information Block
DEPT.FT            0 000 00 00: Depth
CCL.                          : Casing Collar Locator
TT3.usec                      : CBL 3' Travel Time
AMP3.mV                       : CBL 3' Amplitude
GR.GAPI                       : Gamma Ray
~Parameter Information Block
~A  Depth       CCL         TT3         AMP3         GR     
# ...
  1333.2500      0.0000    731.2996      6.7811    111.6999
  1333.5000      0.0000    729.5988      6.7976    107.4016
  1333.7500      0.0000    728.2527      6.8028    102.9325
  1334.0000      0.0000    725.7233      6.7997     99.3980
  1334.2500      0.0000    721.4979      6.8011     96.7330
  1334.5000      0.0000    716.8409      6.8185     94.3623
  1334.7500      0.0000    713.7165      6.8541     92.6656
  1335.0000      0.0000    713.5292      6.9001     92.9134
  1335.2500      0.0000    716.6989      6.9444     95.4782
  1335.5000      0.0000    722.5715      6.9793     98.9853
  1335.7500      0.0000    729.4230      7.0077    101.9593
  1336.0000      0.0000    735.0693      7.0387    104.6504
  1336.2500      0.0000    737.9939      7.0776    108.3031
  1336.5000      0.0000    738.0706      7.1197    113.0890
  1336.7500      0.0000    736.2809      7.1556    117.7722
  1337.0000      0.0000    733.7094      7.1788    121.2795
  1337.2500      0.0000    730.7243      7.1879    123.6463
  1337.5000      0.0000    727.3065      7.1832    125.2051
  1337.7500      0.0000    724.1545      7.1663    125.4411
  1338.0000      0.0000    722.8113      7.1423    123.1790
  1338.2500      0.0000    724.1580      7.1193    117.9169
  1338.5000      0.0000    727.1116      7.1024    110.7842
  1338.7500      0.0000    729.3595      7.0911    104.1963
  1339.0000      0.0000    729.3646      7.0808    100.4619
  1339.2500      0.0000    727.4617      7.0663    100.2885
  1339.5000      0.0000    725.2883      7.0445    102.3702
  1339.7500      0.0000    724.5722      7.0142    104.5571
  1340.0000      0.0000    726.1830      6.9737    105.5387
  1340.2500      0.0000    729.6927      6.9215    105.5248
  1340.5000      0.0000    733.7153      6.8600    105.6175
  1340.7500      0.0000    736.9141      6.7977    106.6220
  1341.0000      0.0000    738.7721      6.7452    108.2098
  1341.2500      0.0000    739.5119      6.7074    109.1613
  1341.5000      0.0000    739.5865      6.6836    108.6426
  1341.7500      0.0000    739.3255      6.6716    107.2820
  1342.0000      0.0000    738.8409      6.6688    106.5963
  1342.2500      0.0000    738.0124      6.6685    107.2641
  1342.5000      0.0000    736.5875      6.6597    108.4251
  1342.7500      0.0000    734.5121      6.6367    108.8292
  1343.0000      0.0000    732.2758      6.6069    108.2398
  1343.2500      0.0000    730.6791      6.5854    107.4176
  1343.5000      0.0000    730.0516      6.5816    106.9718
  1343.7500      0.0000    730.0178      6.5925    106.5625
  1344.0000      0.0000    730.2866      6.6109    105.4498
  1344.2500      0.0000    731.2678      6.6352    103.7926
  1344.5000      0.0000    733.4737      6.6675    102.9157
  1344.7500      0.0000    736.7504      6.7040    103.7730
  1345.0000      0.0000    740.4633      6.7322    105.5148
  1345.2500      0.0000    743.8594      6.7403    106.3341
  1345.5000      0.0000    745.8303      6.7246    105.4582
  1345.7500      0.0000    745.4661      6.6908    103.6172
  1346.0000      0.0000    744.0880      6.6496    101.9500
  1346.2500      0.0000    745.7279      6.6119    101.3033
  1346.5000      0.0000    753.7496      6.5861    102.2668
  1346.7500      0.0000    767.1566      6.5773    104.9991
  1347.0000      0.0000    781.4465      6.5869    108.7455
  1347.2500      0.0000    792.8539      6.6114    111.8517
  1347.5000      0.0000    800.8989      6.6409    112.7014
  1347.7500      0.0000    807.1495      6.6619    110.9537
  1348.0000      0.0000    812.4982      6.6627    107.9545
  1348.2500      0.0000    816.0217      6.6367    105.7765
  1348.5000      0.0000    816.2611      6.5836    105.7351
  1348.7500      0.0000    813.2126      6.5123    107.6768
  1349.0000      0.0000    808.5779      6.4417    110.5050
  1349.2500      0.0000    804.1412      6.3919    113.4994
  1349.5000      0.0000    800.3015      6.3716    117.2896
  1349.7500      0.0000    796.2945      6.3730    123.0199
  1350.0000      0.0000    791.6490      6.3785    130.0386
  1350.2500      0.0000    787.3414      6.3709    135.1262
  1350.5000      0.0000    785.3071      6.3419    135.1215
  1350.7500      0.0000    786.5751      6.2961    130.4448
  1351.0000      0.0000    790.1414      6.2502    125.2272
  1351.2500      0.0000    793.9559      6.2214    123.8382
  1351.5000      0.0000    796.6555      6.2130    127.7970
  1351.7500      0.0000    798.1047      6.2122    135.4960
  1352.0000      0.0000    798.7267      6.2030    143.5234
  1352.2500      0.0000    798.7338      6.1803    148.4889
  1352.5000      0.0000    797.8195      6.1510    149.1864
  1352.7500      0.0000    795.3594      6.1238    147.2823
  1353.0000      0.0000    791.1143      6.1009    145.2021
  1353.2500      0.0000    785.9177      6.0779    143.6186
  1353.5000      0.0000    781.3833      6.0496    141.5440
  1353.7500      0.0000    778.7841      6.0150    138.4250
  1354.0000      0.0000    778.5641      5.9768    135.4060
  1354.2500      0.0000    780.7663      5.9406    134.3638
  1354.5000      0.0000    785.0156      5.9148    135.9704
  1354.7500      0.0000    790.0602      5.9055    139.0660
  1355.0000      0.0000    794.2476      5.9086    141.9889
  1355.2500      0.0000    796.6792      5.9096    144.1254
  1355.5000      0.0000    797.5629      5.8950    145.6863
  1355.7500      0.0000    797.6136      5.8634    146.5063
  1356.0000      0.0000    797.4382      5.8246    146.2343
  1356.2500      0.0000    797.3574      5.7883    145.7705
  1356.5000      0.0000    797.4626      5.7544    147.3101
  1356.7500      0.0000    797.7084      5.7121    151.9784
  1357.0000      0.0000    798.0203      5.6495    157.6261
  1357.2500      0.0000    798.4128      5.5673    159.8513
  1357.5000      0.0000    799.1142      5.4835    155.6505
  1357.7500      0.0000    800.4368      5.4226    145.7248
  1358.0000      0.0000    802.2090      5.3957    133.0076
  1358.2500      0.0000    803.1626      5.3945    119.6183
  1358.5000      0.0000    801.3936      5.4012    105.9904
  1358.7500      0.0000    796.2659      5.4010     92.4594
  1359.0000      0.0000    790.0275      5.3870     80.5037
  1359.2500      0.0000    786.7937      5.3603     71.9434
  1359.5000      0.0000    789.2533      5.3273     67.4124
  1359.7500      0.0000    795.8813      5.2924     66.2519
  1360.0000      0.0000    800.7114      5.2516     67.6665
  1360.2500      0.0000    796.1512      5.1898     71.1072
  1360.5000      0.0000    778.2797      5.0872     75.5537
  1360.7500      0.0000    751.0670      4.9350     79.4878
  1361.0000      0.0000    724.0671      4.7462     82.0880
  1361.2500      0.0000    704.4044      4.5478     83.8290
  1361.5000      0.0000    691.5309      4.3611     85.5037
  1361.7500      0.0000    679.9233      4.1956     87.1750
  1362.0000      0.0000    665.3631      4.0589     88.3730
  1362.2500      0.0000    648.3970      3.9664     88.8097
  1362.5000      0.0000    633.9379      3.9359     88.5624
  1362.7500      0.0000    628.5468      3.9753     87.8471
  1363.0000      0.0000    636.1547      4.0762     86.7691
  1363.2500      0.0000    654.6535      4.2177     85.0557
  1363.5000      0.0000    677.0825      4.3747     82.1701
  1363.7500      0.0000    696.7914      4.5284     78.1604
  1364.0000      0.0000    711.4214      4.6745     74.2429
  1364.2500      0.0000    722.5040      4.8228     72.0451
  1364.5000      0.0000    732.4592      4.9849     72.2052
  1364.7500      0.0000    742.0873      5.1577     73.8318
  1365.0000      0.0000    749.7059      5.3192     75.2271
  1365.2500      0.0000    752.1944      5.4475     75.0880
  1365.5000      0.0000    748.1119      5.5478     73.2893
  1365.7500      0.0000    740.8908      5.6475     70.7747
  1366.0000      0.0000    738.1649      5.7425     68.6750
  1366.2500      0.0000    746.3043      5.7630     67.4007
  1366.5000      0.0000    764.8934      5.6351     66.6528
