~Version Information
VERS.                      2.0: CWLS Log ASCII Standard - VERSION 2.0
WRAP.                       NO: One line per depth step
~Well Information Block
STRT.FT                -1.5000: 
STOP.FT              2143.7500: 
STEP.FT                 0.2500: 
NULL.                -999.2500: 
COMP.          Pioneer Natural Resources: COMPANY
WELL.              Kermit 32-7: WELL
FLD.           Purgatoire River: FIELD
LOC.           2002' FNL & 2103' FEL: LOCATION
PROV.                 Colorado: PROVINCE
CNTY.               Las Animas: COUNTRY
SRVC.                Patterson: SERVICE COMPANY
DATE.          Wed Jan 18 14:17:49 2006: LOG DATE
UWI.           05 071 08647 00: UNIQUE WELL ID
~Curve Information Block
DEPT.FT            0 000 00 00: Depth
GR.GAPI                       : Gamma Ray
CCL.                          : Casing Collar Locator
TT3.usec                      : CBL 3' Travel Time
AMP3.mV                       : CBL 3' Amplitude
~Parameter Information Block
~A  Depth        GR         CCL         TT3         AMP3    
# ...
  1405.5000     60.3204      0.0000    734.4825      8.1414
  1405.7500     64.4722      0.0000    718.8846      8.2074
  1406.0000     70.8648      0.0000    696.7970      8.2112
  1406.2500     78.3439      0.0000    675.3092      8.1057
  1406.5000     85.8988      0.0000    663.2251      7.9004
  1406.7500     92.9641      0.0000    663.7037      7.6770
  1407.0000     98.8857      0.0000    670.7346      7.5594
  1407.2500    102.7202      0.0000    674.2361      7.6382
  1407.5000    104.1635      0.0000    669.1954      7.9138
  1407.7500    104.2403      0.0000    659.9570      8.3048
  1408.0000    104.5012     -3.0000    655.8378      8.7002
  1408.2500    105.7207     -3.0000    662.1249      9.0272
  1408.5000    107.5228      0.0000    674.6205      9.3144
  1408.7500    108.8894      0.0000    682.9303      9.6883
  1409.0000    108.8700      0.0000    679.2156     10.2441
  1409.2500    107.1567      0.0000    663.6498     10.8836
  1409.5000    104.1744      0.0000    641.4822     11.3405
  1409.7500    100.5305      0.0000    615.7027     11.4180
  1410.0000     96.5487      0.0000    584.3260     11.1638
  1410.2500     92.6760      0.0000    546.7516     10.7851
  1410.5000     90.1257      0.0000    511.3085     10.4542
  1410.7500     90.4167      0.0000    492.3346     10.2275
  1411.0000     93.9298      0.0000    498.4312     10.0874
  1411.2500     99.1610      0.0000    525.9762     10.0002
  1411.5000    103.6349      0.0000    563.7430      9.9391
  1411.7500    105.5496      0.0000    600.0351      9.8877
  1412.0000    104.7263      0.0000    625.5292      9.8395
  1412.2500    102.4270      0.0000    634.8601      9.7935
  1412.5000    100.4192      0.0000    629.6039      9.7473
  1412.7500     99.8969      0.0000    619.1501      9.6923
  1413.0000    100.9083      0.0000    615.5447      9.6214
  1413.2500    102.5953      0.0000    624.9561      9.5403
  1413.5000    104.0261      0.0000    644.0322      9.4657
  1413.7500    104.9971      0.0000    664.5281      9.4074
  1414.0000    106.0976      0.0000    679.4609      9.3577
  1414.2500    107.8826      0.0000    684.8631      9.3018
  1414.5000    110.0010      0.0000    679.1112      9.2344
  1414.7500    111.4203      0.0000    663.2104      9.1641
  1415.0000    111.6478      0.0000    641.1917      9.1033
  1415.2500    111.4510      0.0000    619.1132      9.0569
  1415.5000    111.9777      0.0000    603.0284      9.0172
  1415.7500    113.2472      0.0000    597.1046      8.9718
  1416.0000    113.9883      0.0000    602.4793      8.9177
  1416.2500    113.0985      0.0000    616.5516      8.8669
  1416.5000    110.8358      0.0000    632.7217      8.8350
  1416.7500    108.3596      0.0000    642.3535      8.8267
  1417.0000    106.5801      0.0000    639.7127      8.8353
  1417.2500    105.7530      0.0000    626.3328      8.8532
  1417.5000    105.8327      0.0000    609.9685      8.8794
  1417.7500    106.8169      0.0000    598.5579      8.9146
  1418.0000    108.6660      0.0000    594.8760      8.9506
  1418.2500    110.7933      0.0000    596.0091      8.9658
  1418.5000    111.8962      0.0000    597.0002      8.9369
  1418.7500    110.9017      0.0000    595.3569      8.8588
  1419.0000    108.0911      0.0000    593.0402      8.7569
  1419.2500    104.8095      0.0000    594.6958      8.6803
  1419.5000    102.0745      0.0000    604.0446      8.6748
  1419.7500     99.9276      0.0000    621.0708      8.7567
  1420.0000     98.0445      0.0000    641.3149      8.9103
  1420.2500     96.4385      0.0000    657.7144      9.1088
  1420.5000     95.4574      0.0000    663.9899      9.3335
  1420.7500     95.3950      0.0000    657.5064      9.5706
  1421.0000     96.3019      0.0000    641.0293      9.7954
  1421.2500     98.1411      0.0000    623.4714      9.9679
  1421.5000    101.0085      0.0000    616.9708     10.0518
  1421.7500    105.0345      0.0000    628.8054     10.0406
  1422.0000    109.9724      0.0000    655.0089      9.9635
  1422.2500    114.9010      0.0000    683.8474      9.8637
  1422.5000    118.5542      0.0000    705.6160      9.7744
  1422.7500    120.0927      0.0000    717.5942      9.7119
  1423.0000    119.4222      0.0000    720.6148      9.6845
  1423.2500    116.6817      0.0000    714.4029      9.6988
  1423.5000    111.7767      0.0000    698.4395      9.7574
  1423.7500    104.8063      0.0000    676.4180      9.8499
  1424.0000     96.7623      0.0000    656.8830      9.9447
  1424.2500     89.4157      0.0000    647.1416      9.9933
  1424.5000     84.4544      0.0000    646.2368      9.9547
  1424.7500     82.9032      0.0000    645.2878      9.8229
  1425.0000     85.3238      0.0000    635.9009      9.6342
  1425.2500     92.0711      0.0000    618.7939      9.4467
  1425.5000    102.7446      0.0000    604.1384      9.3082
  1425.7500    115.2966      0.0000    602.0876      9.2380
  1426.0000    126.1709      0.0000    612.0414      9.2321
  1426.2500    131.7698      0.0000    622.1340      9.2864
  1426.5000    130.1166      0.0000    620.1347      9.4048
  1426.7500    121.5289      0.0000    604.6573      9.5802
  1427.0000    108.3007      0.0000    586.2952      9.7715
  1427.2500     93.9304      0.0000    578.0660      9.9226
  1427.5000     82.0221      0.0000    583.9587     10.0100
  1427.7500     74.9475      0.0000    597.1935     10.0535
  1428.0000     73.0257      0.0000    610.0131     10.0745
  1428.2500     74.7988      0.0000    622.5206     10.0701
  1428.5000     78.0660      0.0000    639.3405     10.0400
  1428.7500     81.0736      0.0000    660.2517     10.0168
  1429.0000     83.3034      0.0000    678.3108     10.0472
  1429.2500     85.3179      0.0000    686.8533     10.1466
  1429.5000     87.8385      0.0000    685.5544     10.2785
  1429.7500     91.0116      0.0000    679.4413     10.3737
  1430.0000     94.3563      0.0000    673.7217     10.3780
  1430.2500     97.1071      0.0000    670.1412     10.2903
  1430.5000     98.6729      0.0000    667.7968     10.1568
  1430.7500     98.9593      0.0000    666.0700     10.0254
  1431.0000     98.2741      0.0000    665.4954      9.9078
  1431.2500     96.9611      0.0000    666.3083      9.7895
  1431.5000     95.2508      0.0000    667.7698      9.6628
  1431.7500     93.4421      0.0000    668.9836      9.5395
  1432.0000     92.1243      0.0000    669.5040      9.4329
  1432.2500     92.1262      0.0000    669.0854      9.3409
  1432.5000     94.0904      0.0000    667.4570      9.2502
  1432.7500     97.9748      0.0000    664.7200      9.1514
  1433.0000    103.1943      0.0000    661.8304      9.0500
  1433.2500    109.4034      0.0000    660.2651      8.9624
  1433.5000    116.6382      0.0000    660.8173      8.9020
  1433.7500    124.2693      0.0000    662.8714      8.8670
  1434.0000    130.4461      0.0000    665.0147      8.8413
  1434.2500    133.4408      0.0000    666.0396      8.8032
  1434.5000    133.4597      0.0000    665.1155      8.7339
  1434.7500    132.6013      0.0000    661.5159      8.6224
  1435.0000    132.9619      0.0000    654.9999      8.4718
  1435.2500    135.0496      0.0000    646.6363      8.3047
  1435.5000    138.0385      0.0000    638.7473      8.1548
  1435.7500    140.9328      0.0000    633.7652      8.0453
  1436.0000    142.9173      0.0000    633.3233      7.9770
  1436.2500    142.9730      0.0000    637.8908      7.9376
  1436.5000    140.1018      0.0000    646.2334      7.9147
  1436.7500    134.2924      0.0000    655.4647      7.8940
  1437.0000    127.0044      0.0000    662.7006      7.8593
  1437.2500    120.4450      0.0000    666.8306      7.8035
  1437.5000    116.2159      0.0000    668.5414      7.7345
  1437.7500    114.3911      0.0000    669.1293      7.6651
  1438.0000    113.6468      0.0000    669.6286      7.6035
  1438.2500    112.3180      0.0000    670.5789      7.5569
  1438.5000    109.6315      0.0000    671.8705      7.5378
  1438.7500    106.1764      0.0000    672.5599      7.5587
