~Version Information
VERS.                      2.0: CWLS Log ASCII Standard - VERSION 2.0
WRAP.                       NO: One line per depth step
~Well Information Block
STRT.FT                 0.0000: 
STOP.FT               988.7500: 
STEP.FT                 0.2500: 
NULL.                -999.2500: 
COMP.          Pioneer Natural Resources: COMPANY
WELL.             Quartz 13-22: WELL
FLD.           Purgatoire River: FIELD
LOC.           1933' FSL & 675' FWL --------: LOCATION
PROV.                 Colorado: PROVINCE
CNTY.               Las Animas: COUNTRY
SRVC.                         : SERVICE COMPANY
DATE.          Thu Dec 22 09:29:32 2005: LOG DATE
UWI.                          : UNIQUE WELL ID
~Curve Information Block
DEPT.FT            0 000 00 00: Depth
CCL.                          : Casing Collar Locator
TT3.usec                      : CBL 3' Travel Time
AMP3.mV                       : CBL 3' Amplitude
AMP5.mV                       : CBL 5' Amplitude
GR.GAPI                       : Gamma Ray
~Parameter Information Block
~A  Depth       CCL         TT3         AMP3        AMP5         GR     
# ...
   896.0000      0.0000    731.5037      9.8601      1.7571     96.5572
   896.2500      0.0000    730.7273      9.5217      1.7005     92.5751
   896.5000      0.0000    730.4724      9.2191      1.6299     90.5811
   896.7500      0.0000    732.3049      8.9469      1.5983     89.8331
   897.0000      0.0000    739.3212      8.6970      1.6334     89.1096
   897.2500      0.0000    751.6697      8.4749      1.7260     87.2972
   897.5000      0.0000    765.1196      8.2995      1.8325     83.9625
   897.7500      0.0000    774.3920      8.1888      1.9078     79.5718
   898.0000      0.0000    776.7227      8.1467      1.9473     75.0721
   898.2500      0.0000    772.6801      8.1579      1.9785     71.1859
   898.5000      0.0000    765.4899      8.1939      2.0148     68.0853
   898.7500      0.0000    759.7295      8.2339      2.0352     65.6220
   899.0000      0.0000    758.6650      8.2774      2.0071     63.6162
   899.2500      0.0000    761.8331      8.3309      1.9275     61.8365
   899.5000      0.0000    766.1608      8.3861      1.8444     59.9929
   899.7500      0.0000    769.8406      8.4195      1.8175     58.0201
   900.0000      0.0000    773.9406      8.4125      1.8514     56.2653
   900.2500      0.0000    779.4888      8.3672      1.8985     55.2275
   900.5000      0.0000    784.0085      8.3064      1.9283     55.2155
   900.7500      0.0000    782.4152      8.2574      1.9460     56.3185
   901.0000      0.0000    771.8403      8.2367      1.9450     58.4890
   901.2500      0.0000    755.1835      8.2474      1.8976     61.4466
   901.5000      0.0000    739.5748      8.2835      1.8085     64.5371
   901.7500      0.0000    731.5518      8.3297      1.7267     66.7999
   902.0000      0.0000    733.5282      8.3646      1.6827     67.3334
   902.2500      0.0000    743.3304      8.3747      1.6516     65.8498
   902.5000      0.0000    755.5704      8.3646      1.6015     62.9622
   902.7500      0.0000    764.0429      8.3442      1.5457     59.7467
   903.0000      0.0000    764.7919      8.3121      1.5188     56.9736
   903.2500      0.0000    758.4327      8.2601      1.5152     54.9288
   903.5000      0.0000    749.7963      8.1883      1.4885     53.8483
   903.7500      0.0000    744.3805      8.1073      1.4104     53.9706
   904.0000      0.0000    743.9141      8.0279      1.3051     55.0234
   904.2500      0.0000    745.1847      7.9570      1.2174     56.1105
   904.5000      0.0000    743.7533      7.9023      1.1720     56.3756
   904.7500      0.0000    738.7199      7.8713      1.1708     55.6631
   905.0000      0.0000    733.2253      7.8589      1.2019     54.5685
   905.2500      0.0000    730.5007      7.8445      1.2377     53.9844
   905.5000      0.0000    730.3688      7.8103      1.2516     54.4266
   905.7500      0.0000    729.9129      7.7579      1.2468     55.6084
   906.0000      0.0000    726.9224      7.6981      1.2507     56.7854
   906.2500      0.0000    721.9476      7.6289      1.2709     57.5696
   906.5000      0.0000    717.1155      7.5388      1.2762     58.2185
   906.7500      0.0000    713.8703      7.4271      1.2389     59.1361
   907.0000      0.0000    712.2252      7.3055      1.1807     60.3048
   907.2500      0.0000    711.4763      7.1814      1.1591     61.2215
   907.5000      0.0000    710.9041      7.0509      1.2110     61.3442
   907.7500      0.0000    709.8096      6.9096      1.3251     60.7446
   908.0000      0.0000    707.3625      6.7668      1.4624     60.2770
   908.2500      0.0000    702.9385      6.6451      1.5867     60.7952
   908.5000      0.0000    696.9934      6.5667      1.6657     62.1886
   908.7500      0.0000    691.5511      6.5363      1.6625     63.3831
   909.0000      0.0000    689.1916      6.5402      1.5604     63.2058
   909.2500      0.0000    690.9453      6.5594      1.4041     61.2687
   909.5000      0.0000    695.0144      6.5798      1.2887     58.4141
   909.7500      0.0000    697.6235      6.5918      1.2828     56.4926
   910.0000      0.0000    695.2849      6.5934      1.3682     57.2236
   910.2500      0.0000    686.8306      6.5954      1.4642     60.8154
   910.5000      0.0000    674.1067      6.6151      1.5081     65.7924
   910.7500      0.0000    661.0117      6.6616      1.5042     70.3806
   911.0000      0.0000    651.5419      6.7340      1.4917     73.8955
   911.2500      0.0000    648.3326      6.8304      1.4849     76.6702
   911.5000      0.0000    652.4370      6.9518      1.4657     79.0605
   911.7500      0.0000    663.3759      7.0872      1.4264     80.9775
   912.0000      0.0000    678.5670      7.2008      1.3850     82.0989
   912.2500      0.0000    693.2975      7.2421      1.3558     82.0835
   912.5000      0.0000    702.8423      7.1700      1.3306     80.7696
   912.7500      0.0000    705.5900      6.9613      1.2970     78.5587
   913.0000      0.0000    703.9418      6.6031      1.2560     76.4456
   913.2500      0.0000    701.8720      6.0985      1.2183     75.3021
   913.5000      0.0000    701.8782      5.4907      1.1952     75.0926
   913.7500      0.0000    704.2397      4.8750      1.1919     75.0011
   914.0000      0.0000    708.4455      4.3807      1.1989     74.2920
   914.2500      0.0000    714.4907      4.1296      1.1928     72.8161
   914.5000      0.0000    722.6667      4.1769      1.1620     70.7942
   914.7500      0.0000    732.5121      4.4624      1.1267     68.6386
   915.0000     -2.0000    742.2781      4.8320      1.1199     67.0340
   915.2500      0.0000    749.4006      5.1398      1.1492     66.6382
   915.5000      0.0000    751.6973      5.3419      1.1927     67.3513
   915.7500      0.0000    748.6132      5.5031      1.2333     68.2036
   916.0000      0.0000    741.8429      5.7303      1.2760     68.3866
   916.2500      0.0000    734.8392      6.0825      1.3247     68.3255
   916.5000      0.0000    730.8151      6.4993      1.3635     69.2344
   916.7500      0.0000    730.2125      6.8213      1.3756     71.4779
   917.0000      0.0000    730.3939      6.9320      1.3678     73.8379
   917.2500      0.0000    728.3989      6.8844      1.3655     74.7485
   917.5000      0.0000    723.7701      6.8495      1.3926     73.9542
   917.7500      0.0000    718.5286      6.9460      1.4556     72.5414
   918.0000      0.0000    714.9450      7.1539      1.5384     71.5343
   918.2500      0.0000    713.6552      7.3750      1.6024     71.0940
   918.5000      0.0000    713.5486      7.5312      1.5991     71.1609
   918.7500      0.0000    712.6799      7.5992      1.5047     72.0591
   919.0000      0.0000    708.9745      7.5880      1.3562     73.9142
   919.2500      0.0000    700.8647      7.5182      1.2449     75.9125
   919.5000      0.0000    688.5904      7.4166      1.2528     76.8128
   919.7500      0.0000    675.2294      7.3141      1.3807     76.1819
   920.0000      0.0000    665.3820      7.2363      1.5398     74.7631
   920.2500      0.0000    661.8575      7.1965      1.6276     73.7620
   920.5000      0.0000    663.8977      7.1949      1.6189     74.1600
   920.7500      0.0000    668.7246      7.2220      1.5690     76.4447
   921.0000      0.0000    673.8796      7.2641      1.5282     80.3527
   921.2500      0.0000    677.7368      7.3066      1.4789     84.7787
   921.5000      0.0000    679.1302      7.3360      1.3774     88.2847
   921.7500      0.0000    677.7831      7.3429      1.2382     89.9209
   922.0000      0.0000    674.8078      7.3279      1.1446     89.6411
   922.2500      0.0000    672.0263      7.3025      1.1692     88.0172
   922.5000      0.0000    670.8454      7.2870      1.3048     85.6572
   922.7500      0.0000    672.0511      7.3020      1.4699     82.9387
   923.0000      0.0000    676.1704      7.3558      1.5649     80.1526
   923.2500      0.0000    683.1190      7.4313      1.5282     77.5717
   923.5000      0.0000    691.1943      7.4880      1.3678     75.2716
   923.7500      0.0000    697.3516      7.4850      1.1583     73.0743
