~Version Information
 VERS.                                  2.0 : CWLS LAS VERSION
 WRAP.                                   NO : WRAPING MODE
 SWARE .                 MController 2.5.0N : SOFTWARE VERSION
~Well Information
 WELL.                          AMX 13-13TR : WELL
 COMP.       Pioneer Natural Resources, USA : COMPANY
 FLD.                       Purgatory River : FIELD
 LOC.                NW/SW Sec 13 T32S R67W : LOCATION
 DATE.                             12/21/05 : DATE(S) LOGGED
 SRVC.      Blanco Geological Services, LLC : SERVICE COMPANY
 STAT.                             Colorado : STATE
 CNTY.                           Las Animas : COUNTY
 CTRY.                                  USA : COUNTRY
 API.                       05-071-08631-00 : API NUMBER
 STRT.FT                             395.00 : START DEPTH
 STOP.FT                            2187.00 : STOP DEPTH
 STEP.FT                               1.00 : DEPTH INCREMENT
 NULL.                                -9999 : NULL VALUE
~Curve information
 DEPTH.FT                                   :
 ROP.MIN/FT                                 :
 GAS.UNITS                                  :
~ASCII Log data
# ...
      1195.0         0.17         58.8 
      1196.0         1.92        214.3 
      1197.0         0.50        176.7 
      1198.0         0.50        123.0 
      1199.0         0.37         87.2 
      1200.0         0.27         73.0 
      1201.0         0.23         66.5 
      1202.0         0.37         62.5 
      1203.0         0.23         57.8 
      1204.0         0.32         55.0 
      1205.0         0.27         56.8 
      1206.0         0.20         58.7 
      1207.0         0.20         59.8 
      1208.0         0.20         60.1 
      1209.0         0.17         60.2 
      1210.0         0.20         60.2 
      1211.0         0.23         59.9 
      1212.0         0.20         59.2 
      1213.0         0.20         58.4 
      1214.0         0.17         57.5 
      1215.0         0.20         56.7 
      1216.0         0.20         55.8 
      1217.0         0.20         54.9 
      1218.0         0.17         53.9 
      1219.0         0.17         53.1 
      1220.0         0.22         52.3 
      1221.0         0.20         49.5 
      1222.0         0.23         45.6 
      1223.0         0.20         43.9 
      1224.0         0.20         49.1 
      1225.0         0.20         59.6 
      1226.0         2.25        169.1 
      1227.0         0.40         83.9 
      1228.0         0.20         66.1 
      1229.0         0.17         60.6 
      1230.0         0.17         56.8 
      1231.0         0.20         53.8 
      1232.0         0.23         51.6 
      1233.0         0.17         49.5 
      1234.0         0.20         48.3 
      1235.0         0.20         47.3 
      1236.0         0.20         46.3 
      1237.0         0.13         45.5 
      1238.0         0.17         45.0 
      1239.0         0.20         44.3 
      1240.0         0.20         43.5 
      1241.0         0.20         43.0 
      1242.0         0.20         43.1 
      1243.0         0.18         43.3 
      1244.0         0.30         43.2 
      1245.0         0.17         42.8 
      1246.0         0.20         42.3 
      1247.0         0.17         41.7 
      1248.0         0.17         41.3 
      1249.0         0.17         40.7 
      1250.0         0.27         39.8 
      1251.0         0.27         35.8 
      1252.0         0.20         34.1 
      1253.0         0.20         38.3 
      1254.0         0.23         48.7 
      1255.0         0.33         70.9 
      1256.0         2.02        148.5 
      1257.0         0.33         81.6 
      1258.0         0.33         67.7 
      1259.0         0.27         57.4 
      1260.0         0.30         51.9 
      1261.0         0.23         47.9 
      1262.0         0.23         45.8 
      1263.0         0.28         44.1 
      1264.0         0.20         42.4 
      1265.0         0.17         41.6 
      1266.0         0.20         41.1 
      1267.0         0.20         40.4 
      1268.0         0.17         39.9 
      1269.0         0.20         39.6 
      1270.0         0.20         39.2 
      1271.0         0.20         39.1 
      1272.0         0.17         39.6 
      1273.0         0.20         40.3 
      1274.0         0.20         40.7 
      1275.0         0.17         40.9 
      1276.0         0.17         40.9 
      1277.0         0.13         40.8 
      1278.0         0.20         40.7 
      1279.0         0.20         40.3 
      1280.0         0.20         40.0 
      1281.0         0.32         39.0 
      1282.0         0.33         34.2 
      1283.0         0.23         33.7 
      1284.0         0.20         39.4 
      1285.0         0.27         51.4 
      1286.0         2.15        185.5 
      1287.0         0.33         97.6 
      1288.0         0.27         73.9 
      1289.0         0.20         61.5 
      1290.0         0.27         55.2 
      1291.0         0.20         48.7 
      1292.0         0.17         45.9 
      1293.0         0.20         43.8 
      1294.0         0.20         43.8 
      1295.0         0.17         45.2 
      1296.0         0.20         46.8 
      1297.0         0.17         47.9 
      1298.0         0.17         48.3 
      1299.0         0.13         48.3 
      1300.0         0.13         48.1 
      1301.0         0.17         47.8 
      1302.0         0.20         47.3 
      1303.0         0.15         46.5 
      1304.0         0.17         45.8 
      1305.0         0.17         45.2 
      1306.0         0.20         44.4 
      1307.0         0.17         43.7 
      1308.0         0.17         43.2 
      1309.0         0.17         42.4 
      1310.0         0.20         40.5 
      1311.0         0.17         37.8 
      1312.0         0.20         35.9 
      1313.0         0.17         36.6 
      1314.0         0.27         44.7 
      1315.0         0.50         79.5 
      1316.0         1.75        172.1 
      1317.0         0.27         96.0 
      1318.0         0.17         79.1 
      1319.0         0.23         69.9 
      1320.0         0.17         60.2 
      1321.0         0.17         55.3 
      1322.0         0.17         51.6 
      1323.0         0.17         48.7 
      1324.0         0.13         46.4 
      1325.0         0.17         44.7 
      1326.0         0.17         43.0 
      1327.0         0.13         41.6 
      1328.0         0.13         40.8 
      1329.0         0.13         40.0 
      1330.0         0.13         39.3 
      1331.0         0.22         38.7 
      1332.0         0.20         37.9 
      1333.0         0.20         37.6 
      1334.0         0.20         37.6 
      1335.0         0.23         37.3 
      1336.0         0.20         37.2 
      1337.0         0.20         37.6 
      1338.0         0.20         37.7 
      1339.0         0.20         37.6 
      1340.0         0.20         36.8 
      1341.0         0.20         34.8 
      1342.0         0.17         31.7 
      1343.0         0.20         29.9 
      1344.0         0.17         31.2 
      1345.0         0.23         37.5 
      1346.0         1.82        143.8 
      1347.0         0.37        116.7 
      1348.0         0.30         88.0 
      1349.0         0.23         68.4 
      1350.0         0.33         58.7 
      1351.0         0.37         60.4 
      1352.0         0.23         65.5 
      1353.0         0.15         66.9 
      1354.0         0.13         67.1 
      1355.0         0.10         66.8 
      1356.0         0.13         66.3 
      1357.0         0.10         65.1 
      1358.0         0.20         64.0 
      1359.0         0.20         62.0 
      1360.0         0.17         60.6 
      1361.0         0.17         59.8 
      1362.0         0.20         59.2 
      1363.0         0.20         58.0 
      1364.0         0.20         56.3 
      1365.0         0.17         54.7 
      1366.0         0.17         53.3 
      1367.0         0.17         51.6 
      1368.0         0.17         50.2 
      1369.0         0.17         49.2 
      1370.0         0.20         47.7 
      1371.0         0.20         43.5 
      1372.0         0.20         38.9 
      1373.0         0.22         38.0 
      1374.0         0.17         41.9 
      1375.0         0.20         50.1 
      1376.0         2.47        183.8 
      1377.0         0.35        118.9 
      1378.0         0.17        121.6 
      1379.0         0.07        122.3 
      1380.0         0.13        122.7 
      1381.0         0.27        122.3 
      1382.0         0.13        117.8 
      1383.0         0.10        114.3 
      1384.0         0.23        111.5 
      1385.0         0.23        105.8 
      1386.0         0.27         99.7 
      1387.0         0.33         93.3 
      1388.0         0.27         86.5 
      1389.0         0.20         82.0 
      1390.0         0.20         79.0 
      1391.0         0.27         76.3 
      1392.0         0.23         73.2 
      1393.0         0.22         70.9 
      1394.0         0.20         68.7 
