~Version Information
 VERS.                                  2.0 : CWLS LAS VERSION
 WRAP.                                   NO : WRAPING MODE
 SWARE .                 MController 2.5.0J : SOFTWARE VERSION
~Well Information
 WELL.                        Montoya 7-14R : WELL
 COMP.                Petrogulf Corporation : COMPANY
 FLD.                      Purgatoire River : FIELD
 LOC.                 SW/SW Sec 7 T33S R67W : LOCATION
 DATE.                            10/7-8/05 : DATE(S) LOGGED
 SRVC.       BLANCO Geological Services LLC : SERVICE COMPANY
 STAT.                                   CO : STATE
 CNTY.                           Las Animas : COUNTY
 CTRY.                                  USA : COUNTRY
 API.                       05-071-08554-00 : API NUMBER
 STRT.FT                             769.00 : START DEPTH
 STOP.FT                            1960.00 : STOP DEPTH
 STEP.FT                               1.00 : DEPTH INCREMENT
 NULL.                                -9999 : NULL VALUE
~Curve information
 DEPTH.FT                                   :
 ROP.MIN/FT                                 :
 GAS.UNITS                                  :
~ASCII Log data
# ...
      1369.0         0.53          7.0 
      1370.0         0.35          7.0 
      1371.0         0.27          6.5 
      1372.0         0.40          7.0 
      1373.0         0.27          7.1 
      1374.0         0.30          7.0 
      1375.0         0.30          7.0 
      1376.0         0.30          7.3 
      1377.0         0.27          6.9 
      1378.0         0.37          7.3 
      1379.0         0.43          7.0 
      1380.0         2.58        135.0 
      1381.0         0.30         42.7 
      1382.0         0.30         29.8 
      1383.0         0.32         19.1 
      1384.0         0.37         12.8 
      1385.0         0.50          9.3 
      1386.0         0.43          7.8 
      1387.0         0.27          7.8 
      1388.0         0.27          7.7 
      1389.0         0.23          7.8 
      1390.0         0.20          8.0 
      1391.0         0.23          7.6 
      1392.0         0.37          7.7 
      1393.0         0.32          7.5 
      1394.0         0.30          7.7 
      1395.0         0.30          8.0 
      1396.0         0.33          8.0 
      1397.0         0.23          7.6 
      1398.0         0.30          8.1 
      1399.0         0.37          7.9 
      1400.0         0.30          8.1 
      1401.0         0.47          7.9 
      1402.0         0.30          8.1 
      1403.0         0.20          7.7 
      1404.0         0.28          7.5 
      1405.0         0.23          8.0 
      1406.0         0.23          7.9 
      1407.0         0.23          8.0 
      1408.0         0.23          8.2 
      1409.0         0.20          7.5 
      1410.0         1.77        341.0 
      1411.0         0.25        351.5 
      1412.0         0.43        330.3 
      1413.0         0.37        169.7 
      1414.0         0.50         75.3 
      1415.0         0.80         26.2 
      1416.0         0.37         10.2 
      1417.0         0.37          8.6 
      1418.0         0.23          8.1 
      1419.0         0.38          8.3 
      1420.0         0.23          8.4 
      1421.0         0.20          8.0 
      1422.0         0.33          7.9 
      1423.0         0.27          8.5 
      1424.0         0.23          8.2 
      1425.0         0.20          8.4 
      1426.0         0.13          8.7 
      1427.0         0.20          9.0 
      1428.0         0.20          9.0 
      1429.0         0.20          9.1 
      1430.0         0.27          8.8 
      1431.0         0.23          9.0 
      1432.0         0.28          9.2 
      1433.0         0.27          8.8 
      1434.0         0.27          9.1 
      1435.0         0.23          9.2 
      1436.0         0.30          8.7 
      1437.0         0.30          9.0 
      1438.0         0.40          9.4 
      1439.0         0.27          8.6 
      1440.0         2.92        417.2 
      1441.0         0.37         88.4 
      1442.0         0.40         45.0 
      1443.0         0.43         21.6 
      1444.0         0.45         11.8 
      1445.0         0.37          9.4 
      1446.0         0.30          8.7 
      1447.0         0.30          8.6 
      1448.0         0.33          8.8 
      1449.0         0.30          8.3 
      1450.0         0.33          8.2 
      1451.0         0.20          8.8 
      1452.0         0.20          8.8 
      1453.0         0.23          8.6 
      1454.0         0.43          8.9 
      1455.0         0.32          8.9 
      1456.0         0.27          8.8 
      1457.0         0.17          9.3 
      1458.0         0.20          9.4 
      1459.0         0.20          9.2 
      1460.0         0.23          9.6 
      1461.0         0.20         10.0 
      1462.0         0.20         10.0 
      1463.0         0.23          9.9 
      1464.0         0.23         10.1 
      1465.0         0.23          9.8 
      1466.0         0.30         10.0 
      1467.0         0.40          9.3 
      1468.0         0.32          9.1 
      1469.0         0.60         15.7 
      1470.0         2.38        231.1 
      1471.0         0.67         54.8 
      1472.0         0.53         18.8 
      1473.0         0.37         11.5 
      1474.0         0.33         10.3 
      1475.0         0.27          9.9 
      1476.0         0.37          9.5 
      1477.0         0.20         10.6 
      1478.0         0.23         10.7 
      1479.0         0.28         10.7 
      1480.0         0.30         10.6 
      1481.0         0.33         10.3 
      1482.0         0.27         10.3 
      1483.0         0.23         10.7 
      1484.0         0.23         11.2 
      1485.0         0.13         11.4 
      1486.0         0.17         11.7 
      1487.0         0.37         11.6 
      1488.0         0.30         11.7 
      1489.0         0.27         11.4 
      1490.0         0.33         10.9 
      1491.0         0.32         10.9 
      1492.0         0.23         11.1 
      1493.0         0.33         11.2 
      1494.0         0.40         10.8 
      1495.0         0.27         10.8 
      1496.0         0.23         10.6 
      1497.0         0.27         10.6 
      1498.0         0.27         12.7 
      1499.0         0.30         22.5 
      1500.0         0.30         42.0 
      1501.0         0.32         81.0 
      1502.0         3.32       1978.1 
      1503.0         0.63        661.9 
      1504.0         0.50        642.5 
      1505.0         0.47        638.1 
      1506.0         0.47        636.8 
      1507.0         0.30        637.5 
      1508.0         0.40        637.5 
      1509.0         0.33        637.5 
      1510.0         0.52        638.7 
      1511.0         0.47        638.7 
      1512.0         0.50        638.1 
      1513.0         0.40        638.7 
      1514.0         0.50        638.4 
      1515.0         0.33        640.9 
      1516.0         0.40        644.1 
      1517.0         0.38        643.2 
      1518.0         0.37        644.1 
      1519.0         0.43        643.8 
      1520.0         0.47        643.8 
      1521.0         0.37        644.1 
      1522.0         0.30        642.5 
      1523.0         0.37        643.2 
      1524.0         0.20        646.0 
      1525.0         0.20        647.3 
      1526.0         0.27        646.3 
      1527.0         0.25        647.0 
      1528.0         0.27        646.0 
      1529.0         0.27        647.6 
      1530.0         0.20        649.5 
      1531.0         0.37        650.5 
      1532.0         4.55        684.7 
      1533.0         0.47        678.1 
      1534.0         0.55        677.1 
      1535.0         0.47        676.8 
      1536.0         0.43        677.8 
      1537.0         0.40        675.9 
      1538.0         0.33        670.8 
      1539.0         0.33        665.1 
      1540.0         0.30        661.3 
      1541.0         0.33        659.7 
      1542.0         0.35        659.7 
      1543.0         0.33        657.5 
      1544.0         0.33        658.4 
      1545.0         0.37        659.0 
      1546.0         0.37        660.9 
      1547.0         0.27        660.3 
      1548.0         0.27        660.0 
      1549.0         0.30        658.7 
      1550.0         0.33        657.5 
      1551.0         0.33        657.5 
      1552.0         0.30        659.4 
      1553.0         0.38        659.7 
      1554.0         0.27        659.4 
      1555.0         0.27        660.6 
      1556.0         0.30        660.9 
      1557.0         0.23        661.6 
      1558.0         0.20        661.6 
      1559.0         0.27        662.2 
      1560.0         0.30        666.7 
      1561.0         0.33        666.7 
      1562.0         4.08        713.0 
      1563.0         0.38        688.6 
      1564.0         0.33        687.9 
      1565.0         0.33        688.6 
      1566.0         0.30        685.4 
      1567.0         0.33        686.7 
      1568.0         0.33        687.3 
