~Version Information
VERS.                      2.0: CWLS Log ASCII Standard - VERSION 2.0
WRAP.                       NO: One line per depth step
~Well Information Block
STRT.FT               260.0000: 
STOP.FT               713.2000: 
STEP.FT                 0.1000: 
NULL.                -999.2500: 
COMP.          Pioneer Natural Resources: COMPANY
WELL.           Quintessa 23-7: WELL
FLD.           Purgatoire River: FIELD
LOC.           1964' FSL & 2589' FWL--: LOCATION
PROV.                 Colorado: PROVINCE
CNTY.               Las Animas: COUNTRY
SRVC.                Patterson: SERVICE COMPANY
DATE.          Sat Nov 19 09:15:07 2005: LOG DATE
UWI.           05 071 08558 00: UNIQUE WELL ID
~Curve Information Block
DEPT.FT            0 000 00 00: Depth
DCAL.in                       : CDL Caliper
RHOB.g/cc                     : CDL Bulk Density
RHOC.g/cc                     : CDL Density Correction
DPOR.pu                       : CDL Density Porosity
NPOR.pu                       : Neutron Porosity
GR.GAPI                       : Gamma Ray
~Parameter Information Block
~A  Depth       DCAL        RHOB        RHOC        DPOR        NPOR         GR     
# ...
   404.0000      7.8780      2.6357      0.0471      0.8693     18.5368     90.1711
   404.1000      7.8780      2.6233      0.0455      1.6164     19.2400     84.6396
   404.2000      7.8780      2.6144      0.0472      2.1605     19.5241     82.0542
   404.3000      7.8903      2.6098      0.0340      2.4367     19.3474     84.0697
   404.4000      7.8903      2.6104      0.0467      2.4019     18.9849     85.9488
   404.5000      7.9045      2.6183      0.0347      1.9218     18.8694     88.5974
   404.6000      7.9045      2.6257      0.0549      1.4706     18.8207     95.3413
   404.7000      7.9045      2.6207      0.0544      1.7762     18.2715    100.8450
   404.8000      7.9185      2.6111     -0.0032      2.3554     17.4200     97.0298
   404.9000      7.9185      2.6208      0.0057      1.7673     16.8619     87.2790
   405.0000      7.9228      2.6485      0.0909      0.0911     16.9135     80.1162
   405.1000      7.9228      2.6677      0.0641     -1.0741     17.7018     76.1110
   405.2000      7.9228      2.6688      0.0551     -1.1406     18.9151     72.6367
   405.3000      7.9148      2.6543      0.0448     -0.2635     19.5961     72.1309
   405.4000      7.9148      2.6250      0.0571      1.5140     19.1731     76.4581
   405.5000      7.9050      2.5925      0.0042      3.4833     18.3819     81.7041
   405.6000      7.9050      2.5733      0.0299      4.6497     18.1899     84.6595
   405.7000      7.9050      2.5656      0.0333      5.1177     18.5735     86.2515
   405.8000      7.8999      2.5576      0.0079      5.6028     18.6869     86.9850
   405.9000      7.8999      2.5463      0.0070      6.2851     18.0432     85.1734
   406.0000      7.8938      2.5361      0.0484      6.9002     17.2637     81.7068
   406.1000      7.8938      2.5327      0.0237      7.1099     16.9495     82.1435
   406.2000      7.8938      2.5386      0.0503      6.7528     16.7019     85.0233
   406.3000      7.8848      2.5554      0.0410      5.7345     16.1872     80.3055
   406.4000      7.8848      2.5873      0.0495      3.8018     15.6504     67.4989
   406.5000      7.8788      2.6195      0.1300      1.8501     15.4647     56.8512
   406.6000      7.8788      2.6237      0.0763      1.5929     15.8598     53.0290
   406.7000      7.8788      2.6077      0.0344      2.5631     16.3395     51.8907
   406.8000      7.8773      2.6012      0.0414      2.9554     16.2829     49.2795
   406.9000      7.8773      2.6043      0.0876      2.7700     16.0644     45.9290
   407.0000      7.8761      2.6009      0.0385      2.9761     16.2260     45.7139
   407.1000      7.8761      2.5941      0.0265      3.3879     16.6122     50.1413
   407.2000      7.8761      2.5865      0.0329      3.8490     17.0454     55.3999
   407.3000      7.8713      2.5732     -0.0051      4.6525     17.7883     56.6464
   407.4000      7.8713      2.5617      0.0290      5.3505     18.4662     55.7931
   407.5000      7.8659      2.5586      0.0198      5.5396     18.3061     56.8288
   407.6000      7.8659      2.5549      0.0395      5.7618     17.8304     56.9815
   407.7000      7.8659      2.5453      0.0012      6.3475     17.8608     54.8613
   407.8000      7.8653      2.5361      0.0330      6.9053     18.2717     55.2182
   407.9000      7.8653      2.5287      0.0063      7.3515     18.8665     58.7879
   408.0000      7.8644      2.5256      0.0214      7.5422     19.6307     60.8089
   408.1000      7.8644      2.5331      0.0447      7.0830     20.2655     59.7140
   408.2000      7.8644      2.5449      0.0517      6.3714     20.3662     59.5224
   408.3000      7.8590      2.5444      0.0924      6.4008     19.8960     62.7226
   408.4000      7.8590      2.5316      0.0388      7.1757     19.2176     64.6805
   408.5000      7.8565      2.5263      0.0254      7.4964     18.6960     62.6699
   408.6000      7.8565      2.5366      0.0446      6.8722     18.7670     60.7485
   408.7000      7.8565      2.5539      0.0236      5.8244     19.6639     58.8972
   408.8000      7.8569      2.5795      0.0152      4.2706     20.4861     54.7416
   408.9000      7.8569      2.6135      0.0843      2.2130     20.0518     52.2219
   409.0000      7.8578      2.6401      0.0808      0.6012     18.8054     53.9709
   409.1000      7.8578      2.6514      0.0578     -0.0852     17.6748     55.4740
   409.2000      7.8578      2.6509      0.0753     -0.0550     17.2119     55.0972
   409.3000      7.8600      2.6468      0.0162      0.1932     17.8207     54.2298
   409.4000      7.8600      2.6456      0.0718      0.2643     18.9261     51.8658
   409.5000      7.8676      2.6373      0.0599      0.7725     19.5319     50.3771
   409.6000      7.8676      2.6113      0.0206      2.3449     19.7521     52.3960
   409.7000      7.8676      2.5757     -0.0393      4.5017     19.9411     54.8616
   409.8000      7.8767      2.5460     -0.0311      6.3044     19.8629     54.9147
   409.9000      7.8767      2.5313     -0.0605      7.1965     19.3319     53.9538
   410.0000      7.8816      2.5290     -0.0605      7.3320     18.8813     53.5306
   410.1000      7.8816      2.5209     -0.0244      7.8217     19.2015     53.5508
   410.2000      7.8816      2.5006     -0.1017      9.0538     19.9918     52.0485
   410.3000      7.8844      2.4902     -0.0363      9.6841     20.7195     48.9913
   410.4000      7.8844      2.4958      0.0240      9.3451     21.5232     48.4470
   410.5000      7.8856      2.4954      0.0290      9.3709     22.3494     52.6380
   410.6000      7.8856      2.4752      0.0246     10.5928     23.0414     56.9621
   410.7000      7.8856      2.4366      0.0415     12.9326     23.8993     56.7754
   410.8000      7.8803      2.3781     -0.0099     16.4758     25.2037     54.5772
   410.9000      7.8803      2.2913     -0.0029     21.7411     27.0139     54.1837
   411.0000      7.8639      2.1728     -0.0685     28.9227     28.7722     58.4803
   411.1000      7.8639      2.0384     -0.1272     37.0687     29.5902     67.3656
   411.2000      7.8639      1.9148     -0.1757     44.5569     29.9560     73.3486
   411.3000      7.8435      1.8193     -0.1719     50.3480     30.9014     70.4279
   411.4000      7.8435      1.7439     -0.1548     54.9170     32.2896     62.6886
   411.5000      7.8489      1.6696     -0.1460     59.4173     33.6023     56.5452
   411.6000      7.8489      1.5944     -0.1357     63.9732     34.6787     53.3704
   411.7000      7.8489      1.5343     -0.0924     67.6169     35.3147     52.4625
   411.8000      7.9139      1.5009     -0.0070     69.6438     35.1259     49.8072
   411.9000      7.9139      1.4867      0.0892     70.5033     34.4816     42.5479
   412.0000      8.0450      1.4739      0.1252     71.2778     34.2702     35.3233
   412.1000      8.0450      1.4534      0.1127     72.5217     34.1635     32.6109
   412.2000      8.0450      1.4257      0.1036     74.1990     33.8078     32.6516
   412.3000      8.1980      1.3938      0.0653     76.1345     33.6882     31.9072
   412.4000      8.1980      1.3631      0.0655     77.9938     33.9990     28.8154
   412.5000      8.3109      1.3414      0.0502     79.3101     34.5864     25.2232
   412.6000      8.3109      1.3349      0.0576     79.7019     35.2143     23.5431
   412.7000      8.3109      1.3430      0.0560     79.2098     35.4298     23.4335
   412.8000      8.3760      1.3573      0.0778     78.3436     35.0468     24.4431
   412.9000      8.3760      1.3665      0.0892     77.7874     34.3406     27.1262
   413.0000      8.4121      1.3676      0.0612     77.7193     33.7070     29.7249
   413.1000      8.4121      1.3656      0.0680     77.8399     33.5824     29.7736
   413.2000      8.4121      1.3605      0.0753     78.1508     33.7506     28.5307
   413.3000      8.4409      1.3522      0.0608     78.6543     33.8281     28.2883
   413.4000      8.4409      1.3466      0.0627     78.9921     34.0128     28.2677
   413.5000      8.4787      1.3477      0.0555     78.9294     34.2666     28.1087
