~Version Information
VERS.                      2.0: CWLS Log ASCII Standard - VERSION 2.0
WRAP.                       NO: One line per depth step
~Well Information Block
STRT.FT                 0.0000: 
STOP.FT              1201.0000: 
STEP.FT                 0.2500: 
NULL.                -999.2500: 
COMP.          Pioneer Natural Resources: COMPANY
WELL.             Margaux 11-1: WELL
FLD.           Purgatoire River: FIELD
LOC.           1154' FNL & 472' FWL --------: LOCATION
PROV.                 Colorado: PROVINCE
CNTY.               Las Animas: COUNTRY
SRVC.                         : SERVICE COMPANY
DATE.          Thu Jan 05 11:16:55 2006: LOG DATE
UWI.                          : UNIQUE WELL ID
~Curve Information Block
DEPT.FT            0 000 00 00: Depth
CCL.                          : Casing Collar Locator
TT3.usec                      : CBL 3' Travel Time
AMP3.mV                       : CBL 3' Amplitude
AMP5.mV                       : CBL 5' Amplitude
GR.GAPI                       : Gamma Ray
~Parameter Information Block
~A  Depth       CCL         TT3         AMP3        AMP5         GR     
# ...
   308.0000      0.0000    724.6769      8.0056      3.0653    115.1750
   308.2500      0.0000    724.5436      7.9060      3.0465    121.6259
   308.5000      0.0000    724.3861      7.8273      2.9271    129.9110
   308.7500      0.0000    724.1931      7.7991      2.8020    137.3451
   309.0000      0.0000    723.9854      7.8463      2.7169    142.4262
   309.2500      0.0000    723.8145      7.9779      2.6541    144.8904
   309.5000      0.0000    723.7409      8.1797      2.5664    144.8091
   309.7500      0.0000    723.7953      8.4152      2.4188    142.3593
   310.0000      0.0000    723.9482      8.6397      2.2051    138.1903
   310.2500      0.0000    724.1271      8.8183      1.9430    133.2615
   310.5000      0.0000    724.2706      8.9340      1.6630    128.3076
   310.7500      0.0000    724.3633      8.9862      1.3953    123.8327
   311.0000      0.0000    724.4228      8.9865      1.1581    120.4471
   311.2500      0.0000    724.4713      8.9526      0.9571    118.8525
   311.5000      0.0000    724.5253      8.8977      0.7973    119.6560
   311.7500      0.0000    724.5942      8.8201      0.6935    123.1583
   312.0000      0.0000    724.6755      8.7057      0.6719    128.7234
   312.2500      0.0000    724.7579      8.5453      0.7605    134.3632
   312.5000      0.0000    724.8315      8.3524      0.9722    137.7426
   312.7500      0.0000    724.8878      8.1652      1.2950    137.9613
   313.0000      0.0000    724.9084      8.0306      1.6959    136.1272
   313.2500      0.0000    724.8673      7.9783      2.1289    134.0360
   313.5000      0.0000    724.7480      8.0036      2.5312    132.3797
   313.7500      0.0000    724.5685      8.0747      2.8189    130.2901
   314.0000      0.0000    724.3904      8.1563      2.9056    126.5557
   314.2500      0.0000    724.2930      8.2263      2.7470    121.0689
   314.5000      0.0000    724.3226      8.2756      2.3784    114.9535
   314.7500      0.0000    724.4583      8.3008      1.9054    109.5501
   315.0000      0.0000    724.6252      8.3023      1.4491    105.6142
   315.2500      0.0000    724.7408      8.2872      1.0947    103.2603
   315.5000      0.0000    724.7596      8.2730      0.8808    102.2391
   315.7500      0.0000    724.6890      8.2860      0.8103    102.3131
   316.0000      0.0000    724.5764      8.3507      0.8517    103.5903
   316.2500      0.0000    724.4825      8.4702      0.9412    106.3523
   316.5000      0.0000    724.4532      8.6159      1.0108    110.4063
   316.7500      0.0000    724.4921      8.7418      1.0246    114.7565
   317.0000      0.0000    724.5536      8.8159      0.9854    118.0586
   317.2500      0.0000    724.5701      8.8401      0.9141    119.4260
   317.5000      0.0000    724.4942      8.8380      0.8351    119.0362
   317.7500      0.0000    724.3203      8.8283      0.7749    118.1627
   318.0000      0.0000    724.0701      8.8133      0.7537    118.3582
   318.2500      0.0000    723.7679      8.7885      0.7713    120.2901
   318.5000      0.0000    723.4341      8.7521      0.8130    123.4842
   318.7500      0.0000    723.0974      8.7008      0.8705    127.2691
   319.0000      0.0000    722.8005      8.6234      0.9472    131.4315
   319.2500      0.0000    722.5930      8.5100      1.0414    135.7106
   319.5000      0.0000    722.5184      8.3683      1.1401    139.3094
   319.7500      0.0000    722.6012      8.2239      1.2269    141.5007
   320.0000      0.0000    722.8290      8.1026      1.2856    142.4342
   320.2500      0.0000    723.1310      8.0175      1.2996    142.9446
   320.5000      0.0000    723.3799      7.9727      1.2690    143.5371
   320.7500      0.0000    723.4501      7.9666      1.2268    143.7618
   321.0000      0.0000    723.3035      7.9848      1.2245    142.8760
   321.2500      0.0000    723.0148      7.9967      1.2967    140.9378
   321.5000      0.0000    722.7042      7.9696      1.4501    138.7525
   321.7500      0.0000    722.4507      7.8874      1.6736    136.9158
   322.0000      0.0000    722.2732      7.7580      1.9440    135.5470
   322.2500      0.0000    722.1667      7.6068      2.2218    134.7746
   322.5000      0.0000    722.1293      7.4653      2.4606    134.6847
   322.7500      0.0000    722.1436      7.3580      2.6252    134.6413
   323.0000      0.0000    722.1221      7.2924      2.7008    133.2700
   323.2500      0.0000    721.8152      7.2519      2.6869    129.6511
   323.5000      0.0000    720.7741      7.1933      2.5895    124.4342
   323.7500      0.0000    718.5612      7.0649      2.4141    119.3630
   324.0000      0.0000    715.5371      6.8472      2.1632    115.6039
   324.2500      0.0000    713.8121      6.5818      1.8466    112.8170
   324.5000      0.0000    716.8733      6.3484      1.5007    109.8661
   324.7500      0.0000    727.0527      6.2078      1.1945    106.1759
   325.0000      0.0000    742.7624      6.1690      1.0026    102.2631
   325.2500      0.0000    758.5568      6.2034      0.9662     99.0607
   325.5000      0.0000    768.4061      6.2780      1.0809     96.9683
   325.7500      0.0000    769.4318      6.3744      1.3174     95.6279
   326.0000      0.0000    762.9288      6.4846      1.6425     94.4940
   326.2500      0.0000    752.1760      6.6018      2.0159     93.5477
   326.5000      0.0000    740.0438      6.7245      2.3782     93.4685
   326.7500      0.0000    728.8867      6.8649      2.6590     95.1375
   327.0000      0.0000    721.0463      7.0425      2.8015     99.0064
   327.2500      0.0000    717.7880      7.2659      2.7814    104.9463
   327.5000      0.0000    718.1810      7.5248      2.6075    112.4394
   327.7500      0.0000    719.9880      7.7965      2.3130    120.5591
   328.0000      0.0000    721.5143      8.0522      1.9481    127.7628
   328.2500      0.0000    722.2935      8.2630      1.5731    132.3027
   328.5000      0.0000    722.5536      8.4118      1.2492    133.5054
   328.7500      0.0000    722.5891      8.4964      1.0223    132.7297
   329.0000      0.0000    722.5635      8.5204      0.9104    132.4712
   329.2500      0.0000    722.5556      8.4879      0.9065    133.9355
   329.5000      0.0000    722.5970      8.4108      0.9915    135.6895
   329.7500      0.0000    722.6768      8.3142      1.1368    135.2947
   330.0000      0.0000    722.7529      8.2319      1.2966    132.1012
   330.2500      0.0000    722.7857      8.1924      1.4149    127.8066
   330.5000      0.0000    722.7611      8.2025      1.4510    124.5147
   330.7500      0.0000    722.6931      8.2432      1.3969    123.1769
   331.0000      0.0000    722.6128      8.2831      1.2757    123.9255
   331.2500      0.0000    722.5502      8.3006      1.1305    126.7105
   331.5000      0.0000    722.5190      8.2945      1.0213    130.7984
   331.7500      0.0000    722.5139      8.2756      1.0189    134.2320
   332.0000      0.0000    722.5187      8.2492      1.1786    134.7640
   332.2500      0.0000    722.5220      8.2070      1.5010    131.7372
   332.5000      0.0000    722.5245      8.1355      1.9049    126.9870
   332.7500      0.0000    722.5302      8.0323      2.2443    123.5577
   333.0000      0.0000    722.5302      7.9136      2.3752    123.0060
   333.2500      0.0000    722.5049      7.8058      2.2421    123.7896
   333.5000      0.0000    722.4467      7.7269      1.9221    122.5804
   333.7500      0.0000    722.3658      7.6755      1.5860    117.4035
   334.0000      0.0000    722.2640      7.6373      1.4018    109.4853
   334.2500      0.0000    722.0694      7.5976      1.4453    102.0409
   334.5000      0.0000    721.5768      7.5446      1.6709     97.4726
   334.7500      0.0000    720.3786      7.4662      1.9435     96.0387
   335.0000      0.0000    717.9303      7.3504      2.1102     97.0420
   335.2500      0.0000    713.8891      7.1877      2.0745    100.3883
   335.5000      0.0000    708.7061      6.9644      1.8393    106.1902
   335.7500      0.0000    703.8533      6.6570      1.4954    113.2115
