~Version Information
VERS.                      2.0: CWLS Log ASCII Standard - VERSION 2.0
WRAP.                       NO: One line per depth step
~Well Information Block
STRT.FT               970.0000: 
STOP.FT              1882.0000: 
STEP.FT                 0.2500: 
NULL.                -999.2500: 
COMP.          Petrogulf Corporation: COMPANY
WELL.             Norton 9-14R: WELL
FLD.           Purgatorie River: FIELD
LOC.           725' FSL & 1103' FWL: LOCATION
PROV.                 Colorado: PROVINCE
CNTY.               Las Animas: COUNTRY
SRVC.                Patterson: SERVICE COMPANY
DATE.          Thu Oct 06 16:10:47 2005: LOG DATE
UWI.                          : UNIQUE WELL ID
~Curve Information Block
DEPT.FT            0 000 00 00: Depth
SP.mV                         : DIL Spontaneous Potential
RILD.Ohm-m                    : DIL Deep Resistivity
RILM.Ohm-m                    : DIL Medium Resistivity
RLL3.Ohm-m                    : DIL Shallow Resistivity
GR.GAPI                       : Gamma Ray
~Parameter Information Block
~A  Depth        SP         RILD        RILM        RLL3         GR     
# ...
  1698.0000    179.6295     15.3268     16.4187     31.7936    121.5741
  1698.2500    178.9980     15.8937     17.7773     39.2246    111.6209
  1698.5000    178.4202     16.5368     19.2664     45.1614     92.4478
  1698.7500    177.9102     17.3059     20.8556     48.1976     79.3225
  1699.0000    177.4668     18.2368     22.5087     48.2628     62.8555
  1699.2500    177.0721     19.3332     24.1825     46.6575     55.1557
  1699.5000    176.7050     20.5548     25.8243     45.0685     48.5830
  1699.7500    176.3534     21.8201     27.3724     44.4575     46.7583
  1700.0000    176.0149     23.0240     28.7630     44.6633     45.9993
  1700.2500    175.6858     24.0670     29.9459     44.7857     45.9178
  1700.5000    175.3578     24.8829     30.9029     43.8887     45.8745
  1700.7500    175.0233     25.4554     31.6589     41.5525     46.1506
  1701.0000    174.6816     25.8156     32.2778     38.0606     47.9546
  1701.2500    174.3347     26.0204     32.8417     34.2552     50.6235
  1701.5000    173.9824     26.1249     33.4252     31.2014     57.3822
  1701.7500    173.6230     26.1635     34.0718     29.7879     63.5892
  1702.0000    173.2651     26.1503     34.7821     30.3917     73.8856
  1702.2500    172.9389     26.0902     35.5138     32.7340     79.7420
  1702.5000    172.6967     25.9918     36.1945     35.9995     83.9628
  1702.7500    172.5979     25.8688     36.7421     39.1870     82.6486
  1703.0000    172.6877     25.7304     37.0839     41.5328     74.7433
  1703.2500    172.9805     25.5682     37.1655     42.7579     66.8876
  1703.5000    173.4581     25.3488     36.9446     43.0054     54.6534
  1703.7500    174.0852     25.0189     36.3805     42.6100     47.9028
  1704.0000    174.8305     24.5234     35.4296     41.9351     40.9733
  1704.2500    175.6823     23.8292     34.0596     41.3113     38.1349
  1704.5000    176.6485     22.9444     32.2763     40.9355     35.5507
  1704.7500    177.7487     21.9210     30.1464     40.7061     34.6568
  1705.0000    179.0062     20.8379     27.7978     40.1531     34.6466
  1705.2500    180.4386     19.7739     25.3921     38.6048     35.8792
  1705.5000    182.0409     18.7871     23.0845     35.5451     40.8438
  1705.7500    183.7622     17.9072     20.9923     30.9739     47.1512
  1706.0000    185.4914     17.1418     19.1829     25.5490     61.5708
  1706.2500    187.0790     16.4862     17.6793     20.3609     73.2447
  1706.5000    188.3988     15.9306     16.4729     16.3969     89.2966
  1706.7500    189.4092     15.4617     15.5379     14.0402     96.4294
  1707.0000    190.1650     15.0616     14.8408     12.9866    100.5995
  1707.2500    190.7690     14.7080     14.3473     12.6173    100.5796
  1707.5000    191.3050     14.3788     14.0245     12.4877    100.4577
  1707.7500    191.8008     14.0593     13.8421     12.5527    101.8429
  1708.0000    192.2382     13.7467     13.7709     13.0230    105.4942
  1708.2500    192.5965     13.4483     13.7809     14.0364    107.0612
  1708.5000    192.8897     13.1736     13.8394     15.4218    105.0282
  1708.7500    193.1665     12.9254     13.9095     16.7587    100.5380
  1709.0000    193.4717     12.6968     13.9519     17.7176     91.4104
  1709.2500    193.8116     12.4749     13.9280     18.3766     85.3785
  1709.5000    194.1584     12.2498     13.8069     19.1139     77.9500
  1709.7500    194.4914     12.0187     13.5721     20.0807     74.2138
  1710.0000    194.8268     11.7828     13.2266     20.8225     70.3658
  1710.2500    195.2059     11.5411     12.7911     20.5641     69.1816
  1710.5000    195.6539     11.2872     12.2977     18.9273     70.1528
  1710.7500    196.1567     11.0112     11.7804     16.3223     72.8726
  1711.0000    196.6732     10.7053     11.2675     13.6283     80.2033
  1711.2500    197.1629     10.3666     10.7769     11.5539     87.3916
  1711.5000    197.6061      9.9976     10.3163     10.2859    101.2672
  1711.7500    198.0078      9.6058      9.8853      9.6042    111.2180
  1712.0000    198.3882      9.2021      9.4786      9.2023    123.0950
  1712.2500    198.7586      8.8006      9.0902      8.9003    127.1294
  1712.5000    199.0940      8.4158      8.7153      8.6527    127.6959
  1712.7500    199.3302      8.0595      8.3525      8.4485    126.3067
  1713.0000    199.3942      7.7384      8.0032      8.2522    124.7031
  1713.2500    199.2509      7.4547      7.6711      8.0258    124.6084
  1713.5000    198.9283      7.2066      7.3609      7.7694    125.2535
  1713.7500    198.5029      6.9912      7.0771      7.5186    125.4333
  1714.0000    198.0574      6.8049      6.8229      7.3073    124.2080
  1714.2500    197.6440      6.6441      6.6003      7.1410    122.2033
  1714.5000    197.2761      6.5042      6.4096      7.0007    118.5055
  1714.7500    196.9442      6.3804      6.2498      6.8679    116.8727
  1715.0000    196.6350      6.2679      6.1189      6.7485    117.1607
  1715.2500    196.3389      6.1627      6.0140      6.6731    118.7651
  1715.5000    196.0434      6.0632      5.9313      6.6742    121.1456
  1715.7500    195.7282      5.9694      5.8670      6.7600    121.8017
  1716.0000    195.3695      5.8832      5.8174      6.9038    121.3156
  1716.2500    194.9492      5.8075      5.7792      7.0533    120.3231
  1716.5000    194.4621      5.7455      5.7501      7.1539    118.0173
  1716.7500    193.9175      5.6998      5.7291      7.1733    116.0243
  1717.0000    193.3315      5.6720      5.7162      7.1139    113.3750
  1717.2500    192.7129      5.6616      5.7124      7.0091    112.8296
  1717.5000    192.0544      5.6669      5.7191      6.9082    114.7839
  1717.7500    191.3399      5.6846      5.7375      6.8602    117.4984
  1718.0000    190.5636      5.7111      5.7678      6.9009    121.9886
  1718.2500    189.7401      5.7425      5.8094      7.0436    124.5783
  1718.5000    188.8999      5.7758      5.8601      7.2785    128.0460
  1718.7500    188.0812      5.8092      5.9167      7.5806    130.7830
  1719.0000    187.3271      5.8422      5.9755      7.9141    136.3568
  1719.2500    186.6806      5.8752      6.0329      8.2295    140.4601
  1719.5000    186.1710      5.9099      6.0863      8.4705    144.4571
  1719.7500    185.8016      5.9492      6.1344      8.6006    144.4095
  1720.0000    185.5545      5.9971      6.1779      8.6246    140.9038
  1720.2500    185.4106      6.0582      6.2190      8.5760    137.9184
  1720.5000    185.3585      6.1366      6.2616      8.4858    134.6595
  1720.7500    185.3811      6.2355      6.3110      8.3701    133.2094
  1721.0000    185.4383      6.3573      6.3738      8.2350    130.4108
  1721.2500    185.4740      6.5047      6.4579      8.0883    127.4174
  1721.5000    185.4430      6.6803      6.5725      7.9509    121.7841
  1721.7500    185.3321      6.8867      6.7284      7.8702    118.3814
  1722.0000    185.1534      7.1263      6.9378      7.9178    115.8388
  1722.2500    184.9209      7.4007      7.2144      8.1680    116.5126
  1722.5000    184.6276      7.7117      7.5733      8.6885    120.7167
  1722.7500    184.2449      8.0606      8.0309      9.5850    124.7147
  1723.0000    183.7428      8.4496      8.6047     11.0818    130.6205
  1723.2500    183.1190      8.8799      9.3121     13.5402    133.5294
  1723.5000    182.4129      9.3514     10.1682     17.3142    134.6474
  1723.7500    181.6949      9.8601     11.1816     22.4772    132.3482
  1724.0000    181.0376     10.3954     12.3473     28.6334    124.4082
  1724.2500    180.4849     10.9376     13.6357     35.0437    117.4828
  1724.5000    180.0418     11.4536     14.9793     41.0057    107.6212
  1724.7500    179.6944     11.8974     16.2617     46.0899    102.1807
  1725.0000    179.4477     12.2158     17.3197     49.9616     95.0774
  1725.2500    179.3484     12.3628     17.9733     52.0763     90.5193
  1725.5000    179.4778     12.3178     18.0852     51.7533     84.3297
  1725.7500    179.9231     12.0940     17.6229     48.6426     81.4767
