~Version Information
VERS.                      2.0: CWLS Log ASCII Standard - VERSION 2.0
WRAP.                       NO: One line per depth step
~Well Information Block
STRT.FT               460.0000: 
STOP.FT              2811.5000: 
STEP.FT                 0.1000: 
NULL.                -999.2500: 
COMP.          Pioneer Natural Resources: COMPANY
WELL.           Dolzanie 34-12: WELL
FLD.           Purgatoire River: FIELD
LOC.           1001' FSL & 1750' FEL--: LOCATION
PROV.                 Colorado: PROVINCE
CNTY.               Las Animas: COUNTRY
SRVC.                Patterson: SERVICE COMPANY
DATE.          Wed Jul 20 07:56:24 2005: LOG DATE
UWI.           05 071 08439 00: UNIQUE WELL ID
~Curve Information Block
DEPT.FT            0 000 00 00: Depth
DCAL.in                       : CDL Caliper
DPOR.pu                       : CDL Density Porosity
NPOR.pu                       : Neutron Porosity
RHOB.g/cc                     : CDL Bulk Density
RHOC.g/cc                     : CDL Density Correction
GR.GAPI                       : Gamma Ray
~Parameter Information Block
~A  Depth       DCAL        DPOR        NPOR        RHOB        RHOC         GR     
# ...
  2168.8000      7.9946      3.9653     26.2555      2.5846      0.0411    127.4978
  2168.9000      7.9946      2.7444     26.6520      2.6047      0.0362    125.9757
  2169.0000      7.9851      2.4441     26.5259      2.6097      0.0795    118.7670
  2169.1000      7.9851      3.0120     25.8733      2.6003      0.0525    110.1764
  2169.2000      7.9851      3.5683     25.3540      2.5911      0.0407    105.5081
  2169.3000      7.9779      3.9958     25.4021      2.5841      0.0542    105.9850
  2169.4000      7.9779      4.9032     25.8729      2.5691      0.0645    109.9020
  2169.5000      7.9717      6.0007     26.3557      2.5510      0.0168    113.1572
  2169.6000      7.9717      6.2119     26.5989      2.5475      0.0191    112.1082
  2169.7000      7.9717      5.3013     26.4874      2.5625      0.0415    110.5602
  2169.8000      7.9656      3.8098     26.2529      2.5871      0.0398    114.1880
  2169.9000      7.9656      2.3977     26.3975      2.6104      0.0705    119.0839
  2170.0000      7.9615      1.7891     27.1319      2.6205      0.1114    119.4538
  2170.1000      7.9615      2.0511     28.0216      2.6162      0.0811    114.9835
  2170.2000      7.9615      2.6169     28.4911      2.6068      0.0969    108.1309
  2170.3000      7.9591      3.3041     28.3630      2.5955      0.0884    106.4683
  2170.4000      7.9591      4.2640     27.7926      2.5796      0.0695    113.4346
  2170.5000      7.9587      5.0135     27.1007      2.5673      0.0236    121.2091
  2170.6000      7.9587      4.7999     26.5847      2.5708      0.0468    124.1948
  2170.7000      7.9587      4.0718     26.4369      2.5828      0.0714    121.7690
  2170.8000      7.9597      3.8811     26.4579      2.5860      0.0472    117.5031
  2170.9000      7.9597      4.5814     26.4583      2.5744      0.0745    119.1662
  2171.0000      7.9601      5.7109     26.6321      2.5558      0.0410    124.1568
  2171.1000      7.9601      6.4048     27.0026      2.5443      0.0445    125.4011
  2171.2000      7.9601      6.2044     27.3458      2.5476      0.0368    122.1660
  2171.3000      7.9625      5.5252     27.2985      2.5588      0.0706    114.4790
  2171.4000      7.9625      5.0104     26.8589      2.5673      0.0802    106.2631
  2171.5000      7.9685      4.6713     26.5220      2.5729      0.0469    106.2072
  2171.6000      7.9685      4.3997     26.2206      2.5774      0.0529    114.6766
  2171.7000      7.9685      4.4004     25.7144      2.5774      0.0587    123.0118
  2171.8000      7.9770      4.5086     25.4819      2.5756      0.0593    126.8342
  2171.9000      7.9770      4.5864     26.0518      2.5743      0.0865    126.6208
  2172.0000      7.9836      5.1146     26.9755      2.5656      0.0854    123.9544
  2172.1000      7.9836      6.2888     27.3854      2.5462      0.0744    119.6443
  2172.2000      7.9836      7.9385     27.5332      2.5190      0.0604    116.3317
  2172.3000      7.9849     10.2493     28.1895      2.4809      0.0653    117.6087
  2172.4000      7.9849     13.7853     29.3330      2.4225      0.0445    121.5231
  2172.5000      7.9838     18.5470     30.5441      2.3440     -0.0061    122.6380
  2172.6000      7.9838     23.4208     31.4366      2.2636     -0.0472    121.1814
  2172.7000      7.9838     27.6025     31.9096      2.1946     -0.0397    121.1102
  2172.8000      7.9825     31.0451     32.0607      2.1378     -0.0551    121.0464
  2172.9000      7.9825     33.3446     32.0206      2.0998     -0.0332    118.8334
  2173.0000      7.9825     34.2766     31.9864      2.0844      0.0002    116.3505
  2173.1000      7.9825     34.4441     32.1133      2.0817      0.0415    116.6826
  2173.2000      7.9825     34.4550     32.5117      2.0815      0.0888    122.1817
  2173.3000      7.9841     34.4372     32.7117      2.0818      0.1640    130.7163
  2173.4000      7.9841     34.2762     32.1247      2.0844      0.1607    133.8851
  2173.5000      7.9860     33.6929     31.1730      2.0941      0.1648    127.7539
  2173.6000      7.9860     32.0988     30.7636      2.1204      0.1359    122.2455
  2173.7000      7.9860     29.3833     30.6897      2.1652      0.1557    125.3803
  2173.8000      7.9908     26.4951     30.1260      2.2128      0.0931    131.8400
  2173.9000      7.9908     23.9936     29.4365      2.2541      0.0642    133.8339
  2174.0000      7.9976     21.7793     29.2667      2.2906      0.1150    132.5450
  2174.1000      7.9976     19.8102     29.3955      2.3231      0.1105    132.1601
  2174.2000      7.9976     17.5875     29.4877      2.3598      0.0699    130.2737
  2174.3000      8.0037     14.9791     29.5271      2.4028      0.0957    124.9173
  2174.4000      8.0037     13.0723     29.4278      2.4343      0.1192    117.6653
  2174.5000      8.0069     12.7590     29.1535      2.4395      0.1319    111.1710
  2174.6000      8.0069     13.1461     28.8033      2.4331      0.0834    110.1325
  2174.7000      8.0069     12.2856     28.4273      2.4473      0.0467    116.5587
  2174.8000      8.0079      9.4675     28.0341      2.4938      0.1056    125.6672
  2174.9000      8.0079      5.9394     27.9272      2.5520      0.1783    129.3633
  2175.0000      8.0097      3.2460     28.3576      2.5964      0.1934    126.2363
  2175.1000      8.0097      1.8779     28.8964      2.6190      0.1856    122.8803
  2175.2000      8.0097      1.6058     29.0961      2.6235      0.2196    123.0828
  2175.3000      8.0125      1.8939     29.0536      2.6188      0.2455    125.5596
  2175.4000      8.0125      2.2175     28.9531      2.6134      0.2369    127.4234
  2175.5000      8.0148      2.5281     28.7504      2.6083      0.1933    125.8224
  2175.6000      8.0148      3.0464     28.5229      2.5997      0.1201    123.5881
  2175.7000      8.0148      3.7510     28.5375      2.5881      0.1091    125.3452
  2175.8000      8.0194      4.7487     28.4851      2.5716      0.1218    129.6285
  2175.9000      8.0194      6.3022     27.8794      2.5460      0.1087    134.1857
  2176.0000      8.0286      8.0226     27.1521      2.5176      0.0452    139.5607
  2176.1000      8.0286      9.0549     26.9844      2.5006     -0.0089    143.7258
  2176.2000      8.0286      9.2131     27.5020      2.4980      0.0315    143.7257
  2176.3000      8.0363      9.3261     28.3658      2.4961      0.0661    138.6884
  2176.4000      8.0363      9.9805     29.0249      2.4853      0.0436    130.9165
  2176.5000      8.0396     10.6785     29.2068      2.4738     -0.0090    126.0283
  2176.6000      8.0396     11.6517     29.0803      2.4577      0.0411    127.2668
  2176.7000      8.0396     13.8605     28.9382      2.4213      0.0105    132.6991
  2176.8000      8.0413     16.3806     28.8630      2.3797     -0.0031    135.4452
  2176.9000      8.0413     17.5505     29.0777      2.3604      0.0109    133.8885
  2177.0000      8.0431     17.3162     29.8760      2.3643      0.0395    132.1238
  2177.1000      8.0431     16.9475     30.9157      2.3704      0.0778    130.1695
  2177.2000      8.0431     17.5775     31.5370      2.3600      0.1274    127.4019
  2177.3000      8.0524     18.5746     31.6765      2.3435      0.1225    124.4799
  2177.4000      8.0524     18.4466     31.6859      2.3456      0.2248    121.6362
  2177.5000      8.0757     17.3676     31.7734      2.3634      0.2823    118.4720
  2177.6000      8.0757     16.1445     31.7205      2.3836      0.2725    117.8411
  2177.7000      8.0757     14.7048     31.2873      2.4074      0.2744    119.3464
  2177.8000      8.0953     13.2754     30.4820      2.4310      0.2532    117.7372
  2177.9000      8.0953     12.2657     29.8515      2.4476      0.2093    117.0181
  2178.0000      8.0873     11.3773     29.8530      2.4623      0.2541    121.4512
  2178.1000      8.0873     10.2929     30.0400      2.4802      0.2701    128.8768
  2178.2000      8.0873      9.1194     29.9807      2.4995      0.2670    138.7026
  2178.3000      8.0741      8.1944     29.5736      2.5148      0.2051    147.4388
