~Version Information
VERS.                      2.0: CWLS Log ASCII Standard - VERSION 2.0
WRAP.                       NO: One line per depth step
~Well Information Block
STRT.FT                -1.5000: 
STOP.FT              2143.7500: 
STEP.FT                 0.2500: 
NULL.                -999.2500: 
COMP.          Pioneer Natural Resources: COMPANY
WELL.              Kermit 32-7: WELL
FLD.           Purgatoire River: FIELD
LOC.           2002' FNL & 2103' FEL: LOCATION
PROV.                 Colorado: PROVINCE
CNTY.               Las Animas: COUNTRY
SRVC.                Patterson: SERVICE COMPANY
DATE.          Wed Jan 18 14:17:49 2006: LOG DATE
UWI.           05 071 08647 00: UNIQUE WELL ID
~Curve Information Block
DEPT.FT            0 000 00 00: Depth
GR.GAPI                       : Gamma Ray
CCL.                          : Casing Collar Locator
TT3.usec                      : CBL 3' Travel Time
AMP3.mV                       : CBL 3' Amplitude
~Parameter Information Block
~A  Depth        GR         CCL         TT3         AMP3    
# ...
   266.5000     80.5441      0.0000    594.9465     10.4087
   266.7500     77.9174      0.0000    594.8627     10.3873
   267.0000     77.1292      0.0000    594.8171     10.4021
   267.2500     78.2233      0.0000    594.8322     10.4413
   267.5000     80.2629      0.0000    594.9238     10.4906
   267.7500     82.0159      0.0000    595.0602     10.5339
   268.0000     82.9078      0.0000    595.1729     10.5516
   268.2500     83.0921      0.0000    595.2142     10.5283
   268.5000     82.7661      0.0000    595.1992     10.4637
   268.7500     81.9061      0.0000    595.1891     10.3755
   269.0000     80.6386      0.0000    595.2406     10.2889
   269.2500     79.3019      0.0000    595.3708     10.2226
   269.5000     77.9534      0.0000    595.5555     10.1831
   269.7500     76.2631      0.0000    595.7485     10.1699
   270.0000     74.1679      0.0000    595.9056     10.1841
   270.2500     72.3656      0.0000    596.0043     10.2288
   270.5000     71.8857      0.0000    596.0512     10.3003
   270.7500     73.2311      0.0000    596.1151     10.3820
   271.0000     75.9975      0.0000    596.4308     10.4530
   271.2500     79.0589      0.0000    597.5594     10.5017
   271.5000     81.0376      0.0000    600.3764     10.5311
   271.7500     81.1519      0.0000    605.5411     10.5541
   272.0000     80.0340      0.0000    612.4883     10.5851
   272.2500     79.3314      0.0000    618.9477     10.6315
   272.5000     80.1112      0.0000    622.1458     10.6761
   272.7500     81.9717      0.0000    621.1730     10.6586
   273.0000     83.8985      0.0000    618.2192     10.4787
   273.2500     85.4668      0.0000    617.2013     10.0554
   273.5000     86.8260      0.0000    621.2368      9.4238
   273.7500     87.8952      0.0000    631.5696      8.7625
   274.0000     88.1063      0.0000    648.0858      8.2659
   274.2500     87.0060      0.0000    669.1758      7.9851
   274.5000     84.8990      0.0000    690.7674      7.8402
   274.7500     82.7706      0.0000    707.5079      7.7609
   275.0000     81.4613      0.0000    716.5602      7.7434
   275.2500     80.9172      0.0000    719.6744      7.7908
   275.5000     80.3952     -3.0000    720.8239      7.8800
   275.7500     79.4386     -3.0000    722.2270      8.0005
   276.0000     78.4140      0.0000    722.4716      8.2138
   276.2500     77.9594      0.0000    717.7343      8.6595
   276.5000     78.1636      0.0000    705.3500      9.4542
   276.7500     78.6271      0.0000    687.0850     10.5226
   277.0000     79.1439      0.0000    668.4639     11.5667
   277.2500     79.8891      0.0000    654.5049     12.2886
   277.5000     80.9311      0.0000    646.6091     12.6233
   277.7500     81.9344      0.0000    643.2020     12.7108
   278.0000     82.5634      0.0000    642.0638     12.7066
   278.2500     82.9583      0.0000    641.7253     12.6847
   278.5000     83.4960      0.0000    641.5757     12.6608
   278.7500     84.2360      0.0000    641.4986     12.6331
   279.0000     85.0579      0.0000    641.5496     12.5965
   279.2500     86.2427      0.0000    641.7695     12.5465
   279.5000     88.2047      0.0000    642.1046     12.4853
   279.7500     90.4786      0.0000    642.4131     12.4256
   280.0000     91.6373      0.0000    642.5624     12.3915
   280.2500     90.6327      0.0000    642.5250     12.4077
   280.5000     87.9104      0.0000    642.3746     12.4856
   280.7500     84.9536      0.0000    642.1974     12.6140
   281.0000     83.0689      0.0000    642.0273     12.7631
   281.2500     82.8389      0.0000    641.8586     12.8985
   281.5000     84.2125      0.0000    641.6846     12.9967
   281.7500     86.5663      0.0000    641.5073     13.0564
   282.0000     88.9170      0.0000    641.3300     13.0935
   282.2500     90.5730      0.0000    641.1577     13.1243
   282.5000     91.4912      0.0000    640.9999     13.1518
   282.7500     91.8064      0.0000    640.8693     13.1699
   283.0000     91.3944      0.0000    640.7856     13.1780
   283.2500     90.2715      0.0000    640.7852     13.1845
   283.5000     89.1085      0.0000    640.9149     13.1996
   283.7500     88.7317      0.0000    641.1996     13.2278
   284.0000     88.9548      0.0000    641.5928     13.2654
   284.2500     88.3656      0.0000    641.9442     13.2975
   284.5000     85.7399      0.0000    641.9426     13.3040
   284.7500     81.5596      0.0000    641.0356     13.2749
   285.0000     77.7797      0.0000    638.3487     13.2216
   285.2500     76.1721      0.0000    632.9958     13.1696
   285.5000     77.1438      0.0000    625.2460     13.1385
   285.7500     79.8706      0.0000    617.7164     13.1259
   286.0000     82.9700      0.0000    614.3846     13.1088
   286.2500     85.0699      0.0000    617.2361     13.0677
   286.5000     85.3225      0.0000    624.2254     13.0139
   286.7500     83.7378      0.0000    631.2166     12.9864
   287.0000     81.1117      0.0000    635.3278     13.0127
   287.2500     78.6852      0.0000    636.0723     13.0759
   287.5000     77.5850      0.0000    634.5248     13.1285
   287.7500     78.1187      0.0000    632.4418     13.1367
   288.0000     79.5002      0.0000    631.5645     13.1017
   288.2500     80.5377      0.0000    632.6221     13.0444
   288.5000     80.6968      0.0000    634.7939     12.9824
   288.7500     80.4134      0.0000    636.4319     12.9245
   289.0000     80.4989      0.0000    636.3313     12.8726
   289.2500     81.4921      0.0000    634.5215     12.8247
   289.5000     83.5560      0.0000    632.2794     12.7784
   289.7500     86.7408      0.0000    631.3358     12.7344
   290.0000     91.0262      0.0000    632.5543     12.6957
   290.2500     95.9100      0.0000    635.2621     12.6621
   290.5000    100.1213      0.0000    638.0233     12.6284
   290.7500    102.1502      0.0000    639.8962     12.5860
   291.0000    101.3118      0.0000    640.8171     12.5231
   291.2500     98.2766      0.0000    641.1097     12.4294
   291.5000     94.5175      0.0000    640.9387     12.3053
   291.7500     91.2654      0.0000    640.1359     12.1679
   292.0000     88.9145      0.0000    638.4066     12.0429
   292.2500     87.2221      0.0000    635.8447     11.9526
   292.5000     85.9101      0.0000    633.3759     11.9099
   292.7500     85.0307      0.0000    632.3862     11.9189
   293.0000     84.7202      0.0000    633.5479     11.9706
   293.2500     84.7220      0.0000    636.1395     12.0405
   293.5000     84.4331      0.0000    638.7670     12.0971
   293.7500     83.4508      0.0000    640.5599     12.1167
   294.0000     81.8767      0.0000    641.5136     12.0893
   294.2500     80.0590      0.0000    642.0055     12.0152
   294.5000     78.3391      0.0000    642.3156     11.9033
   294.7500     77.1664      0.0000    642.5311     11.7717
   295.0000     77.2137      0.0000    642.6519     11.6428
   295.2500     79.0706      0.0000    642.6781     11.5316
   295.5000     82.6599      0.0000    642.6383     11.4406
   295.7500     87.0013      0.0000    642.5745     11.3638
   296.0000     90.7228      0.0000    642.5138     11.2959
   296.2500     92.7988      0.0000    642.4618     11.2355
   296.5000     92.8012      0.0000    642.4399     11.1852
   296.7500     90.9575      0.0000    642.5104     11.1503
   297.0000     88.3533      0.0000    642.7278     11.1365
   297.2500     86.5817      0.0000    643.0639     11.1462
   297.5000     86.5156      0.0000    643.3962     11.1750
   297.7500     87.4922      0.0000    643.5751     11.2103
   298.0000     88.0224      0.0000    643.5118     11.2362
   298.2500     87.1465      0.0000    643.2279     11.2419
   298.5000     84.9498      0.0000    642.8471     11.2275
   298.7500     82.1312      0.0000    642.5347     11.2028
   299.0000     79.4682      0.0000    642.4095     11.1827
   299.2500     77.5614      0.0000    642.4734     11.1819
   299.5000     76.7200      0.0000    642.6141     11.2083
   299.7500     76.9701      0.0000    642.7044     11.2593
