~Version Information
VERS.                      2.0: CWLS Log ASCII Standard - VERSION 2.0
WRAP.                       NO: One line per depth step
~Well Information Block
STRT.FT               330.0000: 
STOP.FT              1923.5000: 
STEP.FT                 0.1000: 
NULL.                -999.2500: 
COMP.          Pioneer Natural Resources: COMPANY
WELL.          State Wildlife 32-16 Tr: WELL
FLD.           Purgatoire River: FIELD
LOC.           1838' FNL & 1850' FEL: LOCATION
STAT.                 Colorado: State
CNTY.               Las Animas: COUNTY
CTRY. USA : Country
SECT. 16 : Section
TOWN. 32S : Township
RANG. 66W : Range
SRVC.                Patterson: SERVICE COMPANY
DATE.          Mon Nov 14 07:20:48 2005: LOG DATE
API.           05 071 08568 00: UNIQUE WELL ID
~Curve Information Block
DEPT.FT            0 000 00 00: Depth
DCAL.in                       : CDL Caliper
RHOB.g/cc                     : CDL Bulk Density
RHOC.g/cc                     : CDL Density Correction
DPOR.pu                       : CDL Density Porosity
GR.GAPI                       : Gamma Ray
NPOR.pu                       : Neutron Porosity
~Parameter Information Block
~A  Depth       DCAL        RHOB        RHOC        DPOR         GR         NPOR    
# ...
  1376.4000      7.8790      2.3845      0.2060     16.0907    107.4058     19.4009
  1376.5000      7.9102      2.4623      0.2705     11.3754    110.8149     20.6908
  1376.6000      7.9102      2.4935      0.2849      9.4861    116.6640     21.5585
  1376.7000      7.9102      2.4785      0.1238     10.3942    127.1819     22.0373
  1376.8000      7.9406      2.4628      0.0632     11.3445    135.3822     22.6433
  1376.9000      7.9406      2.4661      0.0944     11.1470    135.9944     23.1052
  1377.0000      8.1415      2.4703      0.0886     10.8930    134.3995     23.0719
  1377.1000      8.1415      2.4546      0.1753     11.8411    137.7514     23.0422
  1377.2000      8.1415      2.4178      0.0907     14.0709    142.2378     23.4111
  1377.3000      8.0065      2.3847      0.0675     16.0772    140.7544     24.0332
  1377.4000      8.0065      2.3797      0.0512     16.3832    134.7123     24.4502
  1377.5000      7.8937      2.4011      0.1128     15.0853    131.4879     24.5680
  1377.6000      7.8937      2.4214      0.1559     13.8558    134.0323     24.9023
  1377.7000      7.8937      2.4254      0.1371     13.6101    135.1268     25.5882
  1377.8000      7.8813      2.4301      0.1481     13.3283    131.1317     26.0074
  1377.9000      7.8813      2.4523      0.1632     11.9829    130.7213     25.8807
  1378.0000      7.8797      2.4932      0.1733      9.5033    136.7938     25.7022
  1378.1000      7.8797      2.5356      0.2117      6.9333    137.7301     25.9380
  1378.2000      7.8797      2.5469      0.2282      6.2501    129.0806     26.3878
  1378.3000      7.9035      2.5267      0.0482      7.4732    121.8899     26.3638
  1378.4000      7.9035      2.5078      0.0192      8.6198    123.2264     25.9508
  1378.5000      7.9020      2.4954      0.0410      9.3723    129.3234     25.7683
  1378.6000      7.9020      2.4772     -0.0067     10.4717    134.8962     25.6202
  1378.7000      7.9020      2.4634      0.0179     11.3085    138.6485     25.1397
  1378.8000      7.9227      2.4738      0.0042     10.6772    141.8432     24.5257
  1378.9000      7.9227      2.5152      0.0161      8.1718    143.6581     24.2274
  1379.0000      7.8936      2.5710      0.0836      4.7900    147.5435     24.4571
  1379.1000      7.8936      2.6173      0.0847      1.9801    156.1364     24.8965
  1379.2000      7.8936      2.6431      0.1176      0.4162    159.9412     24.8987
  1379.3000      7.8825      2.6491      0.1315      0.0516    153.0591     24.3850
  1379.4000      7.8825      2.6409      0.1133      0.5524    141.4458     23.6834
  1379.5000      7.8706      2.6233      0.1530      1.6153    132.5966     23.2906
  1379.6000      7.8706      2.6081      0.0899      2.5404    128.6028     23.7544
  1379.7000      7.8706      2.6124      0.0576      2.2803    131.2269     24.5821
  1379.8000      7.8750      2.6236      0.1194      1.6011    140.5541     24.9239
  1379.9000      7.8750      2.6068      0.0757      2.6196    147.0043     24.8497
  1380.0000      7.8771      2.5629      0.0374      5.2760    145.2019     24.6540
  1380.1000      7.8771      2.5248      0.0220      7.5874    140.2409     24.4452
  1380.2000      7.8771      2.5132      0.0255      8.2899    133.6387     24.2711
  1380.3000      7.8705      2.5265      0.0142      7.4845    126.1414     23.9546
  1380.4000      7.8705      2.5460      0.0848      6.3001    123.4708     23.4330
  1380.5000      7.8768      2.5580      0.0322      5.5757    127.6763     23.1786
  1380.6000      7.8768      2.5713      0.1053      4.7676    135.4826     23.4672
  1380.7000      7.8768      2.5920      0.0897      3.5170    142.7792     23.9882
  1380.8000      7.9020      2.6057      0.0935      2.6860    147.5622     24.5768
  1380.9000      7.9020      2.5952      0.1303      3.3182    149.0050     24.9847
  1381.0000      7.9366      2.5563      0.0763      5.6766    144.1132     24.7064
  1381.1000      7.9366      2.5021      0.0141      8.9663    133.7263     23.8232
  1381.2000      7.9366      2.4442      0.0886     12.4703    129.2411     22.9492
  1381.3000      7.8797      2.3884     -0.0228     15.8568    134.6272     22.4291
  1381.4000      7.8797      2.3508     -0.0470     18.1341    141.7416     22.2753
  1381.5000      7.8761      2.3471     -0.0292     18.3562    145.2573     22.3117
  1381.6000      7.8761      2.3761     -0.0290     16.6021    144.2065     22.2934
  1381.7000      7.8761      2.4157      0.0387     14.2006    138.6259     22.4223
  1381.8000      7.8828      2.4370      0.1000     12.9103    132.3837     23.2086
  1381.9000      7.8828      2.4469      0.0357     12.3081    129.5733     24.5709
  1382.0000      7.8636      2.4782      0.1543     10.4106    127.8496     25.8230
  1382.1000      7.8636      2.5328      0.2250      7.1049    125.2467     26.5526
  1382.2000      7.8636      2.5866      0.2151      3.8432    122.6231     26.9900
  1382.3000      7.8424      2.6214      0.2050      1.7312    117.7855     27.3371
  1382.4000      7.8424      2.6343      0.2219      0.9488    111.5798     27.3612
  1382.5000      7.8233      2.6402      0.1762      0.5958    107.7839     27.0846
  1382.6000      7.8233      2.6567      0.1312     -0.4032    101.8405     26.7274
  1382.7000      7.8233      2.6786      0.1674     -1.7354     90.7032     26.3847
  1382.8000      7.8370      2.6818      0.0989     -1.9245     80.3729     26.1533
  1382.9000      7.8370      2.6550      0.0644     -0.3040     75.3386     26.0287
  1383.0000      7.8394      2.6118     -0.0056      2.3142     74.6382     26.1109
  1383.1000      7.8394      2.5761      0.0018      4.4783     77.1722     26.5697
  1383.2000      7.8394      2.5578      0.0203      5.5906     81.0786     27.2129
  1383.3000      7.8440      2.5501      0.0056      6.0576     79.4741     27.8882
  1383.4000      7.8440      2.5465      0.0428      6.2713     71.1400     28.6638
  1383.5000      7.8904      2.5462      0.0092      6.2904     67.2048     29.4071
  1383.6000      7.8904      2.5460      0.0391      6.3053     72.1882     30.0248
  1383.7000      7.8904      2.5381      0.0777      6.7817     78.8306     30.2428
  1383.8000      7.8921      2.5351      0.0906      6.9627     81.7698     29.7087
  1383.9000      7.8921      2.5677      0.1387      4.9876     80.6093     28.8608
  1384.0000      7.8676      2.6423      0.2212      0.4673     76.1607     28.3883
  1384.1000      7.8676      2.7353      0.2593     -5.1724     71.3373     28.2032
  1384.2000      7.8676      2.8224      0.2546    -10.4482     70.1397     28.0798
  1384.3000      7.7565      2.8861      0.3135    -14.3121     72.8471     28.1956
  1384.4000      7.7565      2.9165      0.2893    -16.1524     77.6342     28.3984
  1384.5000      7.6964      2.9128      0.2597    -15.9302     81.8520     28.2420
  1384.6000      7.6964      2.8819      0.1416    -14.0553     83.9602     28.0731
  1384.7000      7.6964      2.8339      0.1251    -11.1473     85.0534     28.3114
  1384.8000      7.7039      2.7745      0.0951     -7.5437     85.3886     28.1712
  1384.9000      7.7039      2.7199      0.0047     -4.2392     84.9355     27.4554
  1385.0000      7.7584      2.6983      0.0194     -2.9301     86.6271     27.0219
  1385.1000      7.7584      2.7176     -0.0045     -4.0942     92.8864     27.0073
  1385.2000      7.7584      2.7621      0.0375     -6.7964     99.2269     27.2481
  1385.3000      7.8426      2.8027      0.1093     -9.2526     99.7910     27.8403
  1385.4000      7.8426      2.8073      0.1085     -9.5361     94.5217     28.5406
  1385.5000      7.8605      2.7771      0.0161     -7.7010     88.2257     28.8479
  1385.6000      7.8605      2.7433     -0.0247     -5.6548     84.0048     28.6447
  1385.7000      7.8605      2.7244     -0.0209     -4.5108     81.5689     28.0485
  1385.8000      7.8768      2.7102      0.0222     -3.6476     80.7244     27.1955
  1385.9000      7.8768      2.6944     -0.0539     -2.6928     81.7878     26.5732
