~Version Information
VERS.                      2.0: CWLS Log ASCII Standard - VERSION 2.0
WRAP.                       NO: One line per depth step
~Well Information Block
STRT.FT              1186.0000: 
STOP.FT              1577.0000: 
STEP.FT                 0.2500: 
NULL.                -999.2500: 
COMP.          XTO Energy Inc.: COMPANY
WELL.          Golden Eagle 19-10: WELL
FLD.           Purgatorie River: FIELD
LOC.           2684' FSL & 1825' FEL--: LOCATION
CNTY.               Las Animas: COUNTY
SRVC.          Superior Well Services: SERVICE COMPANY
DATE.          Mon Dec 11 16:19:11 2006: LOG DATE
UWI.           05 071 08697 00: UNIQUE WELL ID
STAT.                       CO: STATE
~Curve Information Block
DEPT.FT            0 000 00 00: Depth
CCL.                          : Casing Collar Locator
TT3.usec                      : CBL 3' Travel Time
AMP3.mV                       : CBL 3' Amplitude
GR.GAPI                       : Gamma Ray
~Parameter Information Block
~A  Depth       CCL         TT3         AMP3         GR     
  1186.0000   -999.2500   -999.2500   -999.2500    154.4705
  1186.2500   -999.2500   -999.2500   -999.2500    150.8428
  1186.5000   -999.2500   -999.2500   -999.2500    147.1279
  1186.7500   -999.2500   -999.2500   -999.2500    144.6326
  1187.0000   -999.2500   -999.2500   -999.2500    143.3561
  1187.2500   -999.2500   -999.2500   -999.2500    142.5698
  1187.5000   -999.2500   -999.2500   -999.2500    142.0852
  1187.7500   -999.2500   -999.2500   -999.2500    142.6827
  1188.0000   -999.2500   -999.2500   -999.2500    145.4550
  1188.2500   -999.2500   -999.2500   -999.2500    150.6898
  1188.5000   -999.2500   -999.2500   -999.2500    157.1541
  1188.7500   -999.2500   -999.2500   -999.2500    162.6690
  1189.0000   -999.2500   -999.2500   -999.2500    165.8271
  1189.2500   -999.2500   -999.2500   -999.2500    167.2140
  1189.5000   -999.2500   -999.2500   -999.2500    168.6416
  1189.7500   -999.2500   -999.2500   -999.2500    171.0070
  1190.0000   -999.2500   -999.2500   -999.2500    173.1887
  1190.2500   -999.2500   -999.2500   -999.2500    173.2882
  1190.5000   -999.2500   -999.2500   -999.2500    170.5554
  1190.7500   -999.2500   -999.2500   -999.2500    165.7899
  1191.0000   -999.2500    707.8348      6.0924    160.4606
  1191.2500   -999.2500    707.4063      5.6421    155.9841
  1191.5000   -999.2500    707.2528      5.2635    153.4604
  1191.7500   -999.2500    707.8890      4.9433    153.3146
  1192.0000   -999.2500    709.9068      4.6691    154.9754
  1192.2500   -999.2500    713.3305      4.4388    157.1042
  1192.5000   -999.2500    717.0774      4.2566    158.1246
  1192.7500   -999.2500    719.5864      4.1243    156.5300
  1193.0000   -999.2500    720.2903      4.0374    151.1759
  1193.2500   -999.2500    719.9277      3.9827    141.8780
  1193.5000   -999.2500    719.1506      3.9433    129.6885
  1193.7500   -999.2500    717.7858      3.9081    116.1096
  1194.0000   -999.2500    716.1243      3.8802    102.0326
  1194.2500   -999.2500    716.0842      3.8733     87.9026
  1194.5000   -999.2500    719.7441      3.8979     74.7722
  1194.7500   -999.2500    726.3926      3.9510     64.4645
  1195.0000   -999.2500    731.7551      4.0161     58.4387
  1195.2500   -999.2500    731.1681      4.0717     56.7106
  1195.5000   -999.2500    724.0502      4.1014     57.9333
  1195.7500   -999.2500    714.9703      4.1042     60.3336
  1196.0000   -999.2500    709.8300      4.0973     62.6642
  1196.2500   -999.2500    710.9758      4.1042     64.6175
  1196.5000      0.0000    716.0197      4.1352     66.5846
  1196.7500      0.0000    720.9643      4.1783     68.9538
  1197.0000      0.0000    723.9696      4.2077     71.5450
  1197.2500      0.0000    726.0621      4.2017     73.7092
  1197.5000      0.0000    728.7566      4.1539     74.9113
  1197.7500      0.0000    732.1230      4.0748     75.0333
  1198.0000      0.0000    735.9078      3.9854     74.1001
  1198.2500      0.0000    741.8893      3.9092     72.0540
  1198.5000      0.0000    753.1028      3.8650     69.1300
  1198.7500      0.0000    769.3789      3.8625     66.3048
  1199.0000      0.0000    784.3904      3.8966     64.8929
  1199.2500      0.0000    789.2925      3.9431     65.5288
  1199.5000      0.0000    780.3066      3.9671     67.7071
  1199.7500      0.0000    761.9576      3.9448     70.3555
  1200.0000      0.0000    742.9377      3.8815     72.8750
  1200.2500      0.0000    730.2155      3.8048     75.8052
  1200.5000      0.0000    726.5179      3.7407     80.5550
  1200.7500      0.0000    730.4357      3.6999     88.2352
  1201.0000      0.0000    737.3178      3.6853     98.5441
  1201.2500      0.0000    741.7211      3.7016    109.7385
  1201.5000      0.0000    741.1334      3.7511    119.7278
  1201.7500      0.0000    737.5274      3.8207    127.1826
  1202.0000      0.0000    734.5909      3.8820    131.6863
  1202.2500      0.0000    733.5936      3.9093    133.2363
  1202.5000      0.0000    732.4105      3.9005    132.2655
  1202.7500      0.0000    728.5642      3.8789    130.2130
  1203.0000      0.0000    722.7852      3.8734    129.3013
  1203.2500      0.0000    719.1937      3.8940    131.0636
  1203.5000      0.0000    721.8026      3.9252    135.1215
  1203.7500      0.0000    730.8419      3.9417    139.6241
  1204.0000      0.0000    742.3245      3.9309    142.6674
  1204.2500      0.0000    750.9025      3.9023    143.1024
  1204.5000      0.0000    753.4654      3.8753    140.6049
  1204.7500      0.0000    750.8118      3.8610    135.8546
  1205.0000      0.0000    746.1463      3.8548    130.4853
  1205.2500      0.0000    741.7730      3.8469    126.0027
  1205.5000      0.0000    737.7023      3.8352    122.7470
  1205.7500      0.0000    733.9638      3.8288    120.3994
  1206.0000      0.0000    732.8425      3.8369    118.9812
  1206.2500      0.0000    736.8301      3.8553    118.4401
  1206.5000      0.0000    744.9814      3.8659    117.6328
  1206.7500      0.0000    753.1437      3.8514    114.6701
  1207.0000      0.0000    757.5245      3.8087    108.4354
  1207.2500      0.0000    756.4832      3.7471     99.5039
  1207.5000      0.0000    749.6749      3.6761     89.7538
  1207.7500      0.0000    738.0179      3.5997     81.2215
  1208.0000      0.0000    724.5322      3.5196     75.0048
  1208.2500      0.0000    713.0668      3.4394     70.9740
  1208.5000      0.0000    705.6802      3.3652     68.5165
  1208.7500      0.0000    701.8931      3.3040     67.3403
  1209.0000      0.0000    700.0823      3.2613     67.2842
  1209.2500      0.0000    698.8699      3.2379     67.7681
  1209.5000      0.0000    697.4581      3.2292     68.1175
  1209.7500      0.0000    695.3517      3.2277     68.3680
  1210.0000      0.0000    692.1354      3.2263     69.2093
  1210.2500      0.0000    687.7429      3.2234     71.0117
  1210.5000      0.0000    683.1101      3.2251     73.1468
  1210.7500      0.0000    680.1193      3.2415     74.3966
  1211.0000      0.0000    680.0699      3.2793     74.0233
  1211.2500      0.0000    681.9626      3.3378     72.3567
  1211.5000      0.0000    682.9804      3.4091     70.3755
  1211.7500      0.0000    681.1245      3.4827     68.9000
  1212.0000      0.0000    677.1324      3.5509     68.2439
  1212.2500      0.0000    673.7081      3.6108     68.4131
  1212.5000      0.0000    673.3480      3.6614     69.4447
  1212.7500      0.0000    677.2723      3.7010     71.4000
  1213.0000      0.0000    686.0418      3.7280     73.9156
  1213.2500      0.0000    700.0224      3.7464     76.0199
  1213.5000      0.0000    718.2555      3.7671     76.7905
  1213.7500      0.0000    737.3453      3.7992     76.2157
  1214.0000      0.0000    752.8660      3.8393     75.1502
  1214.2500      0.0000    762.1920      3.8702     74.3631
  1214.5000      0.0000    765.5903      3.8731     73.8689
  1214.7500      0.0000    765.2778      3.8423     73.3429
  1215.0000      0.0000    764.1603      3.7892     72.8941
  1215.2500      0.0000    764.3097      3.7332     73.0851
  1215.5000      0.0000    765.2069      3.6903     74.2793
  1215.7500      0.0000    763.8986      3.6674     76.0990
  1216.0000      0.0000    758.1436      3.6626     77.5466
  1216.2500      0.0000    749.3220      3.6669     77.8255
  1216.5000      0.0000    741.1741      3.6679     77.0972
  1216.7500      0.0000    735.8476      3.6554     76.1302
  1217.0000      0.0000    732.6055      3.6259     75.1934
  1217.2500      0.0000    730.5660      3.5826     73.8323
  1217.5000      0.0000    730.9265      3.5359     71.8335
  1217.7500      0.0000    735.6766      3.5025     69.7614
  1218.0000      0.0000    745.2991      3.4951     68.3046
  1218.2500      0.0000    758.5091      3.5082     67.6415
  1218.5000      0.0000    773.3225      3.5211     67.6496
  1218.7500      0.0000    787.4000      3.5194     68.1822
  1219.0000      0.0000    798.0395      3.5092     68.8014
  1219.2500      0.0000    803.3411      3.5040     68.6752
