~Version Information
VERS.                      2.0: CWLS Log ASCII Standard - VERSION 2.0
WRAP.                       NO: One line per depth step
~Well Information Block
STRT.FT               570.0000: 
STOP.FT              1954.5000: 
STEP.FT                 0.1000: 
NULL.                -999.2500: 
COMP.          Petrogulf Corporation: COMPANY
WELL.            Montoya 7-14R: WELL
FLD.           Purgatorie River: FIELD
LOC.           628' FSL & 454' FWL: LOCATION
PROV.                 Colorado: PROVINCE
CNTY.               Las Animas: COUNTRY
SRVC.                Patterson: SERVICE COMPANY
DATE.          Mon Oct 10 07:31:15 2005: LOG DATE
UWI.                          : UNIQUE WELL ID
~Curve Information Block
DEPT.FT            0 000 00 00: Depth
DCAL.in                       : CDL Caliper
RHOB.g/cc                     : CDL Bulk Density
RHOC.g/cc                     : CDL Density Correction
DPOR.pu                       : CDL Density Porosity
GR.GAPI                       : Gamma Ray
NPOR.pu                       : Neutron Porosity
~Parameter Information Block
~A  Depth       DCAL        RHOB        RHOC        DPOR         GR         NPOR    
   570.0000      8.1510      2.3125     -0.5299     20.4532     87.3157     43.4151
   570.1000      8.1510      2.2878     -0.4951     21.9528     83.2315     43.4711
   570.2000      8.1510      2.2593     -0.5498     23.6816     80.2766     43.3919
   570.3000      8.1552      2.2531     -0.5604     24.0549     79.5594     43.1052
   570.4000      8.1552      2.2738     -0.5222     22.7976     80.4856     42.8214
   570.5000      8.1541      2.2986     -0.5604     21.2996     78.3305     42.6821
   570.6000      8.1541      2.3054     -0.5091     20.8827     72.8212     42.4938
   570.7000      8.1541      2.2930     -0.5355     21.6375     68.6729     42.0272
   570.8000      8.1559      2.2790     -0.5299     22.4863     66.9950     41.4240
   570.9000      8.1559      2.2794     -0.5643     22.4615     67.3540     40.9820
   571.0000      8.1566      2.2952     -0.5166     21.5030     68.6786     40.7613
   571.1000      8.1566      2.3152     -0.5128     20.2930     67.6449     40.5005
   571.2000      8.1566      2.3277     -0.5158     19.5329     64.5456     40.0947
   571.3000      8.1601      2.3257     -0.4897     19.6555     63.0311     39.8892
   571.4000      8.1601      2.2977     -0.5323     21.3485     63.9402     40.0080
   571.5000      8.1633      2.2549     -0.5801     23.9449     64.2530     40.0093
   571.6000      8.1633      2.2316     -0.5451     25.3576     62.7032     39.7323
   571.7000      8.1633      2.2359     -0.5574     25.0964     61.3146     39.5105
   571.8000      8.1621      2.2510     -0.5602     24.1798     61.0696     39.3998
   571.9000      8.1621      2.2730     -0.5971     22.8503     60.9800     39.2205
   572.0000      8.1642      2.3024     -0.5121     21.0642     59.9493     39.1563
   572.1000      8.1642      2.3167     -0.4877     20.2005     57.9091     39.3602
   572.2000      8.1642      2.2985     -0.5077     21.3048     56.6513     39.6511
   572.3000      8.1598      2.2749     -0.6227     22.7331     56.3930     39.7239
   572.4000      8.1598      2.2801     -0.5079     22.4164     56.1867     39.3820
   572.5000      8.1607      2.3029     -0.4998     21.0371     57.2944     39.0525
   572.6000      8.1607      2.3148     -0.5157     20.3149     60.1199     39.2463
   572.7000      8.1607      2.3007     -0.4702     21.1715     63.6063     39.7144
   572.8000      8.1569      2.2692     -0.5625     23.0760     66.4777     40.0574
   572.9000      8.1569      2.2515     -0.5714     24.1528     68.2889     40.2226
   573.0000      8.1501      2.2561     -0.5368     23.8708     69.8915     40.3535
   573.1000      8.1501      2.2600     -0.5240     23.6379     70.7731     40.5648
   573.2000      8.1501      2.2515     -0.6101     24.1526     70.6565     40.8218
   573.3000      8.1556      2.2379     -0.5606     24.9743     72.0612     40.9774
   573.4000      8.1556      2.2216     -0.5362     25.9608     75.3827     41.0167
   573.5000      8.1583      2.2144     -0.6666     26.4009     77.0725     41.0966
   573.6000      8.1583      2.2329     -0.6257     25.2762     77.5084     41.3441
   573.7000      8.1583      2.2638     -0.5060     23.4033     81.8730     41.7445
   573.8000      8.1579      2.2800     -0.5033     22.4234     89.4413     42.0656
   573.9000      8.1579      2.2775     -0.5190     22.5759     93.2240     42.1505
   574.0000      8.1597      2.2675     -0.5551     23.1816     90.5375     42.0616
   574.1000      8.1597      2.2570     -0.5645     23.8172     85.8658     41.8312
   574.2000      8.1597      2.2353     -0.5111     25.1345     82.9780     41.5427
   574.3000      8.1585      2.1885     -0.6017     27.9680     81.7792     41.4501
   574.4000      8.1585      2.1391     -0.6480     30.9660     81.5383     41.5809
   574.5000      8.1551      2.1131     -0.6030     32.5415     81.9550     41.7431
   574.6000      8.1551      2.0915     -0.6020     33.8464     82.7716     41.9775
   574.7000      8.1551      2.0558     -0.6989     36.0103     83.1334     42.3701
   574.8000      8.1538      2.0245     -0.6195     37.9073     82.3101     42.6957
   574.9000      8.1538      2.0108     -0.6224     38.7399     81.6696     42.7823
   575.0000      8.1545      2.0049     -0.6074     39.0973     83.4214     42.6912
   575.1000      8.1545      2.0018     -0.5958     39.2870     86.9268     42.5595
   575.2000      8.1545      2.0059     -0.5768     39.0385     89.5409     42.7444
   575.3000      8.1541      2.0156     -0.5639     38.4467     90.4249     43.4154
   575.4000      8.1541      2.0237     -0.5369     37.9586     90.5145     44.2051
   575.5000      8.1570      2.0254     -0.5580     37.8522     90.3001     44.8157
   575.6000      8.1570      2.0248     -0.5545     37.8883     90.8284     45.1707
   575.7000      8.1570      2.0340     -0.5561     37.3323     92.1095     45.2060
   575.8000      8.1563      2.0467     -0.4641     36.5607     92.4660     45.0679
   575.9000      8.1563      2.0377     -0.5070     37.1077     92.1926     44.9091
   576.0000      8.1486      2.0145     -0.6053     38.5163     93.1015     44.7385
   576.1000      8.1486      2.0078     -0.5759     38.9227     94.5054     44.6168
   576.2000      8.1486      2.0184     -0.5675     38.2794     94.2800     44.5930
   576.3000      8.1521      2.0307     -0.5656     37.5363     94.0263     44.6836
   576.4000      8.1521      2.0377     -0.5487     37.1095     95.8249     44.8070
   576.5000      8.1553      2.0357     -0.5198     37.2284     98.4674     44.8951
   576.6000      8.1553      2.0326     -0.6112     37.4175     99.8812     45.1045
   576.7000      8.1553      2.0450     -0.5327     36.6688    100.6186     45.3946
   576.8000      8.1519      2.0627     -0.4713     35.5922    101.7185     45.4229
   576.9000      8.1519      2.0604     -0.4998     35.7340    102.3310     45.1399
   577.0000      8.1473      2.0353     -0.5033     37.2524    101.4142     44.8217
   577.1000      8.1473      2.0031     -0.5561     39.2048     98.4205     44.7607
   577.2000      8.1473      1.9811     -0.5856     40.5410     95.6439     44.9969
   577.3000      8.1531      1.9796     -0.5950     40.6329     96.2080     45.1266
   577.4000      8.1531      1.9960     -0.5633     39.6393     98.8603     44.8613
   577.5000      8.1492      2.0154     -0.5243     38.4608    100.7419     44.4165
   577.6000      8.1492      2.0220     -0.5198     38.0629     99.9160     44.0472
   577.7000      8.1492      2.0138     -0.5401     38.5602     97.6167     43.8962
   577.8000      8.1503      2.0000     -0.5429     39.3916     96.5663     44.0319
   577.9000      8.1503      1.9909     -0.5539     39.9476     96.8818     44.3335
   578.0000      8.1483      1.9941     -0.5603     39.7525     97.8908     44.5880
   578.1000      8.1483      2.0163     -0.5630     38.4036     97.9896     44.6852
   578.2000      8.1483      2.0580     -0.5448     35.8798     95.8990     44.6373
   578.3000      8.1465      2.1007     -0.4903     33.2926     93.8849     44.3832
   578.4000      8.1465      2.1240     -0.5145     31.8770     94.4170     43.9964
   578.5000      8.1499      2.1333     -0.5210     31.3156     96.3749     43.7838
   578.6000      8.1499      2.1442     -0.4937     30.6544     97.0388     43.8534
   578.7000      8.1499      2.1643     -0.5261     29.4371     93.8154     44.0432
   578.8000      8.1476      2.1892     -0.4591     27.9245     87.4849     44.1974
   578.9000      8.1476      2.2014     -0.4120     27.1870     83.6387     44.2586
   579.0000      8.1493      2.1906     -0.4737     27.8399     85.4853     44.0911
   579.1000      8.1493      2.1638     -0.4879     29.4666     89.9695     43.6544
   579.2000      8.1493      2.1291     -0.5101     31.5696     92.9972     43.3465
   579.3000      8.1494      2.0999     -0.5688     33.3413     92.3716     43.4003
   579.4000      8.1494      2.0913     -0.5684     33.8622     89.9963     43.5347
   579.5000      8.1481      2.1031     -0.5374     33.1446     89.2705     43.5361
