~Version Information
VERS.                      2.0: CWLS Log ASCII Standard - VERSION 2.0
WRAP.                       NO: One line per depth step
~Well Information Block
STRT.FT                -7.7500: 
STOP.FT              2248.5000: 
STEP.FT                 0.2500: 
NULL.                -999.2500: 
COMP.          Pioneer Natural Resources: COMPANY
WELL.          Interceptor 43-13 Tr: WELL
FLD.           Purgatoire River: FIELD
LOC.           2006' FSL & 438' FEL--: LOCATION
PROV.                       CO: PROVINCE
CNTY.               Las Animas: COUNTRY
SRVC.          Patterson Wireline: SERVICE COMPANY
DATE.          Thu Nov 17 10:14:59 2005: LOG DATE
UWI.           05 071 08549 00: UNIQUE WELL ID
~Curve Information Block
DEPT.FT            0 000 00 00: Depth
CCL.                          : Casing Collar Locator
TT3.usec                      : CBL 3' Travel Time
AMP3.mV                       : CBL 3' Amplitude
GR.GAPI                       : Gamma Ray
~Parameter Information Block
~A  Depth       CCL         TT3         AMP3         GR     
# ...
  2203.2500      0.0000    649.9700      5.7378    174.7561
  2203.5000      0.0000    610.2516      5.8727    168.0605
  2203.7500      0.0000    578.3941      5.8637    154.6878
  2204.0000      0.0000    565.2970      5.7305    138.0286
  2204.2500      0.0000    570.9409      5.5318    123.2460
  2204.5000      0.0000    587.5602      5.3310    114.7736
  2204.7500      0.0000    608.8896      5.1712    114.1622
  2205.0000      0.0000    632.2719      5.0732    119.1399
  2205.2500      0.0000    654.4871      5.0365    125.1728
  2205.5000      0.0000    671.2943      5.0400    129.0370
  2205.7500      0.0000    680.9489      5.0520    131.0957
  2206.0000      0.0000    685.1576      5.0498    133.9278
  2206.2500      0.0000    686.7235      5.0333    139.2118
  2206.5000      0.0000    687.6358      5.0177    146.2791
  2206.7500      0.0000    688.9888      5.0199    153.2262
  2207.0000      0.0000    691.5626      5.0523    158.5801
  2207.2500      0.0000    695.9059      5.1174    161.7377
  2207.5000      0.0000    701.7740      5.1887    162.5950
  2207.7500      0.0000    707.5735      5.1939    161.4844
  2208.0000      0.0000    710.6385      5.0423    159.3064
  2208.2500      0.0000    708.1060      4.7033    157.2976
  2208.5000      0.0000    697.4470      4.2651    156.4460
  2208.7500      0.0000    676.4391      3.8954    156.8494
  2209.0000      0.0000    644.0180      3.7437    157.3464
  2209.2500      0.0000    602.8704      3.8770    155.9780
  2209.5000      0.0000    561.4299      4.2745    151.4364
  2209.7500      0.0000    531.1951      4.8537    144.4110
  2210.0000      0.0000    520.1586      5.5232    137.3412
  2210.2500     -2.0000    528.8351      6.2293    132.6519
  2210.5000      2.0000    552.7020      6.9433    131.1861
  2210.7500      0.0000    586.6603      7.6250    132.1060
  2211.0000      0.0000    625.2361      8.2349    133.5461
  2211.2500      0.0000    660.5317      8.7612    133.2818
  2211.5000      0.0000    684.7672      9.1887    129.8327
  2211.7500      0.0000    696.4808      9.4728    123.6880
  2212.0000      0.0000    701.6577      9.6075    117.3393
  2212.2500      0.0000    707.1244      9.6779    113.9993
  2212.5000      0.0000    714.4277      9.7766    115.8989
  2212.7500      0.0000    720.9756      9.9046    122.9891
  2213.0000      0.0000    724.7181      9.9964    132.9021
  2213.2500      0.0000    725.8917      9.9935    142.3719
  2213.5000      0.0000    725.6241      9.8622    148.9304
  2213.7500      0.0000    724.4407      9.5797    151.6604
  2214.0000      0.0000    722.1305      9.1454    151.0706
  2214.2500      0.0000    718.5211      8.5987    148.4696
  2214.5000      0.0000    714.4240      8.0030    145.0939
  2214.7500      0.0000    711.8419      7.4087    141.6250
  2215.0000      0.0000    712.7973      6.8361    138.3830
  2215.2500      0.0000    717.6918      6.2976    135.6690
  2215.5000      0.0000    724.6378      5.8339    133.8506
  2215.7500      0.0000    730.1126      5.5154    133.3339
  2216.0000      0.0000    730.4453      5.3985    134.3154
  2216.2500      0.0000    723.7995      5.4738    136.3684
  2216.5000      0.0000    711.6322      5.6553    138.6842
  2216.7500      0.0000    698.0396      5.8291    141.0515
  2217.0000      0.0000    687.2701      5.9200    143.9064
  2217.2500      0.0000    681.5912      5.9138    146.8821
  2217.5000      0.0000    680.8498      5.8183    147.9900
  2217.7500      0.0000    683.4951      5.6246    145.1116
  2218.0000      0.0000    688.2044      5.3262    138.2238
  2218.2500      0.0000    694.8754      4.9617    129.7613
  2218.5000      0.0000    704.0899      4.6139    122.9249
  2218.7500      0.0000    715.6177      4.3607    119.9298
  2219.0000      0.0000    727.5488      4.2305    121.6301
  2219.2500      0.0000    736.9603      4.2021    127.9268
  2219.5000      0.0000    741.5425      4.2425    137.7317
  2219.7500      0.0000    740.8229      4.3439    148.6381
  2220.0000      0.0000    736.3203      4.5145    157.3036
  2220.2500      0.0000    730.8834      4.7287    160.8139
  2220.5000      0.0000    727.4327      4.9109    158.1935
  2220.7500      0.0000    727.3926      4.9910    150.8560
  2221.0000      0.0000    730.0220      4.9653    141.6548
  2221.2500      0.0000    733.1692      4.8914    133.4635
  2221.5000      0.0000    734.4376      4.8310    128.2064
  2221.7500      0.0000    732.3539      4.8083    126.4225
  2222.0000      0.0000    727.5793      4.8082    127.3974
  2222.2500      0.0000    722.7402      4.8026    130.0729
  2222.5000      0.0000    720.1988      4.7742    133.9820
  2222.7500      0.0000    720.1572      4.7178    139.1634
  2223.0000      0.0000    721.2182      4.6271    145.4389
  2223.2500      0.0000    722.1517      4.5018    152.0930
  2223.5000      0.0000    722.6849      4.3754    157.9671
  2223.7500      0.0000    723.0848      4.3127    161.8119
  2224.0000      0.0000    723.5678      4.3634    163.2558
  2224.2500      0.0000    724.1070      4.5236    163.7308
  2224.5000      0.0000    724.5244      4.7490    165.6352
  2224.7500      0.0000    724.5404      4.9917    169.9754
  2225.0000      0.0000    723.6336      5.2166    175.0728
  2225.2500      0.0000    720.8598      5.3936    177.7401
  2225.5000      0.0000    715.0195      5.4978    175.6481
  2225.7500      0.0000    705.4088      5.5258    169.0446
  2226.0000      0.0000    692.8045      5.5070    160.7357
  2226.2500      0.0000    679.7247      5.4885    153.9844
  2226.5000      0.0000    669.3052      5.5031    149.9287
  2226.7500      0.0000    663.3350      5.5482    147.1425
  2227.0000      0.0000    661.1269      5.5899    143.4272
  2227.2500      0.0000    660.4944      5.5833    137.4399
  2227.5000      0.0000    659.4901      5.4977    129.0968
  2227.7500      0.0000    656.9217      5.3363    119.4514
  2228.0000      0.0000    652.6591      5.1464    110.3241
  2228.2500      0.0000    649.3612      5.0088    103.5681
  2228.5000      0.0000    652.4119      4.9988    100.4172
  2228.7500      0.0000    664.9594      5.1391    101.3280
  2229.0000      0.0000    683.4960      5.3802    106.0468
  2229.2500      0.0000    700.6785      5.6244    113.5608
  2229.5000      0.0000    711.5347      5.7735    121.9084
  2229.7500      0.0000    715.0675      5.7688    128.3299
  2230.0000      0.0000    710.8261      5.6053    130.4980
  2230.2500      0.0000    695.9257      5.3189    128.1544
  2230.5000      0.0000    666.8364      4.9616    123.1891
  2230.7500      0.0000    624.7355      4.5833    117.8620
  2231.0000      0.0000    577.5443      4.2311    113.3222
  2231.2500      0.0000    534.0424      3.9503    109.8588
  2231.5000      0.0000    497.2484      3.7669    107.8892
  2231.7500      0.0000    467.1567      3.6692    108.1043
  2232.0000      0.0000    448.3882      3.6199    110.6529
  2232.2500      0.0000    450.3481      3.5946    114.6672
  2232.5000      0.0000    478.6420      3.5993    119.1108
  2232.7500      0.0000    527.2045      3.6509    124.0070
  2233.0000      0.0000    578.5142      3.7476    130.1499
  2233.2500      0.0000    612.5841      3.8631    137.4480
  2233.5000      0.0000    619.2090      3.9653    144.1040
  2233.7500      0.0000    604.3040      4.0402    147.5365
  2234.0000      0.0000    584.2779      4.0999    145.3965
  2234.2500      0.0000    572.2204      4.1675    135.5388
  2234.5000      0.0000    569.0571      4.2534    116.4330
  2234.7500      0.0000    568.9614      4.3449     89.1958
  2235.0000      0.0000    570.7893      4.4173     58.9800
  2235.2500      0.0000    579.2388      4.4582     32.7557
  2235.5000      0.0000    596.1513      4.4800     14.9650
  2235.7500      0.0000    617.2409      4.5079      5.5405
  2236.0000      0.0000    638.5780      4.5573      1.6440
  2236.2500      0.0000    660.8506      4.6262      0.3875
  2236.5000      0.0000    684.8652      4.7122      0.0713
