~Version Information
VERS.                      2.0: CWLS Log ASCII Standard - VERSION 2.0
WRAP.                       NO: One line per depth step
~Well Information Block
STRT.FT                -6.7500: 
STOP.FT              2027.0000: 
STEP.FT                 0.2500: 
NULL.                -999.2500: 
COMP.          Pioneer Natural Resources: COMPANY
WELL.             Fleming 11-2: WELL
FLD.           Purgatorie River: FIELD
LOC.           534' FNL & 160' FWL--: LOCATION
CNTY.               Las Animas: COUNTY
SRVC.          Patterson Wireline: SERVICE COMPANY
DATE.          Thu Jul 13 10:28:00 2006: LOG DATE
UWI.           05 071 08491 00: UNIQUE WELL ID
STAT.                       CO: STATE
~Curve Information Block
DEPT.FT            0 000 00 00: Depth
CCL.                          : Casing Collar Locator
TT3.usec                      : CBL 3' Travel Time
AMP3.mV                       : CBL 3' Amplitude
GR.GAPI                       : Gamma Ray
~Parameter Information Block
~A  Depth       CCL         TT3         AMP3         GR     
# ...
  1065.2500      0.0000    585.8734      3.5962    133.7621
  1065.5000      0.0000    565.6426      3.6137    138.6569
  1065.7500      0.0000    552.4325      3.6325    138.7059
  1066.0000      0.0000    551.4156      3.6538    135.4325
  1066.2500      0.0000    563.0200      3.6769    130.2940
  1066.5000      0.0000    581.4128      3.6988    124.2739
  1066.7500      0.0000    597.7571      3.7165    118.5454
  1067.0000      0.0000    605.1308      3.7304    114.7644
  1067.2500      0.0000    601.1080      3.7446    114.2632
  1067.5000      0.0000    587.7305      3.7623    116.9461
  1067.7500      0.0000    570.1995      3.7827    121.0716
  1068.0000      0.0000    554.5314      3.8017    124.2140
  1068.2500      0.0000    544.7192      3.8145    124.7644
  1068.5000      0.0000    541.3029      3.8181    122.8712
  1068.7500      0.0000    542.2034      3.8106    120.0577
  1069.0000      0.0000    544.9554      3.7912    117.8461
  1069.2500      0.0000    548.6278      3.7614    116.7483
  1069.5000      0.0000    553.7294      3.7253    116.4768
  1069.7500      0.0000    560.2216      3.6897    116.8264
  1070.0000      0.0000    566.6860      3.6641    118.1333
  1070.2500      0.0000    572.7839      3.6584    120.8526
  1070.5000      0.0000    581.9265      3.6761    124.6370
  1070.7500      0.0000    599.4095      3.7096    128.0563
  1071.0000      0.0000    626.9175      3.7445    129.6710
  1071.2500      0.0000    659.4389      3.7665    129.5201
  1071.5000      0.0000    687.9315      3.7689    129.3002
  1071.7500      0.0000    704.9787      3.7559    130.8152
  1072.0000      0.0000    708.5269      3.7409    134.1168
  1072.2500      0.0000    701.5484      3.7376    137.3246
  1072.5000      0.0000    688.9600      3.7523    138.5862
  1072.7500      0.0000    674.3691      3.7828    138.1662
  1073.0000      0.0000    658.1718      3.8218    138.1282
  1073.2500      0.0000    637.7982      3.8589    139.9251
  1073.5000      0.0000    611.2698      3.8865    143.0209
  1073.7500      0.0000    582.0735      3.9059    146.0653
  1074.0000      0.0000    559.1667      3.9269    148.2799
  1074.2500      0.0000    550.5739      3.9577    149.0360
  1074.5000      0.0000    557.1622      3.9960    147.2041
  1074.7500      0.0000    572.3979      4.0305    142.0148
  1075.0000      0.0000    586.8880      4.0498    134.1319
  1075.2500      0.0000    593.6899      4.0495    125.3336
  1075.5000      0.0000    591.6007      4.0328    117.5033
  1075.7500      0.0000    584.5724      4.0045    112.1246
  1076.0000      0.0000    578.0223      3.9671    110.0696
  1076.2500      0.0000    576.2697      3.9234    111.1759
  1076.5000      0.0000    582.5734      3.8803    114.1552
  1076.7500      0.0000    598.3686      3.8478    117.4325
  1077.0000      0.0000    620.9240      3.8332    120.1329
  1077.2500      0.0000    643.7427      3.8376    122.3958
  1077.5000      0.0000    661.0293      3.8558    125.3179
  1077.7500      0.0000    671.4316      3.8801    130.5587
  1078.0000      0.0000    677.4514      3.9048    138.9531
  1078.2500      0.0000    682.4042      3.9276    149.2217
  1078.5000      0.0000    688.0663      3.9471    158.8507
  1078.7500      0.0000    694.1251      3.9622    166.2281
  1079.0000      0.0000    698.9742      3.9756    171.2212
  1079.2500      0.0000    700.8805      3.9962    174.0513
  1079.5000      0.0000    698.6378      4.0323    174.5647
  1079.7500      0.0000    691.4688      4.0831    172.5330
  1080.0000      0.0000    678.5939      4.1379    168.1134
  1080.2500      0.0000    659.1335      4.1835    162.1396
  1080.5000      0.0000    632.9613      4.2098    156.1764
  1080.7500      0.0000    601.9965      4.2128    151.7968
  1081.0000      0.0000    570.2226      4.1950    149.4314
  1081.2500      0.0000    541.9134      4.1642    148.3502
  1081.5000      0.0000    519.7129      4.1315    147.7539
  1081.7500      0.0000    504.0060      4.1077    147.2282
  1082.0000      0.0000    493.3518      4.1015    146.1374
  1082.2500      0.0000    485.4120      4.1162    143.4990
  1082.5000      0.0000    478.2670      4.1467    138.9795
  1082.7500      0.0000    471.6341      4.1815    133.7274
  1083.0000      0.0000    466.8879      4.2090    129.8591
  1083.2500      0.0000    465.4259      4.2232    128.9991
  1083.5000      0.0000    466.9565      4.2255    131.0652
  1083.7500      0.0000    469.8511      4.2238    134.1268
  1084.0000      0.0000    473.1751      4.2264    135.6632
  1084.2500      0.0000    477.5633      4.2359    134.4249
  1084.5000      0.0000    483.6625      4.2495    131.0986
  1084.7500      0.0000    490.3754      4.2630    127.3115
  1085.0000      0.0000    495.4216      4.2723    124.4004
  1085.2500      0.0000    497.4839      4.2717    123.0259
  1085.5000      0.0000    497.1970      4.2551    123.2400
  1085.7500      0.0000    496.0599      4.2217    124.6475
  1086.0000      0.0000    494.9023      4.1795    126.7660
  1086.2500      0.0000    493.4857      4.1423    129.2809
  1086.5000      0.0000    491.0778      4.1212    131.7929
  1086.7500      0.0000    487.3170      4.1206    133.4657
  1087.0000      0.0000    483.0786      4.1368    133.0240
  1087.2500      0.0000    481.0033      4.1574    129.1845
  1087.5000      0.0000    484.5343      4.1598    121.6668
  1087.7500      0.0000    494.9441      4.1175    112.2845
  1088.0000      0.0000    508.9203      4.0230    104.4971
  1088.2500      0.0000    520.3291      3.9159    100.9284
  1088.5000      0.0000    524.9706      3.8741    101.2682
  1088.7500      0.0000    522.5354      3.9525    103.1299
  1089.0000      0.0000    514.2294      4.1290    104.7409
  1089.2500      0.0000    500.9893      4.3304    106.0495
  1089.5000      0.0000    484.6237      4.5023    107.3777
  1089.7500      0.0000    468.5774      4.6333    108.3693
  1090.0000      2.0000    456.4417      4.7262    108.9277
  1090.2500     -2.0000    450.4810      4.7767    110.0475
  1090.5000      0.0000    452.0345      4.7826    112.5086
  1090.7500      0.0000    462.9157      4.7620    115.3170
  1091.0000      0.0000    485.6768      4.7525    116.5601
  1091.2500      0.0000    521.8637      4.7786    115.4759
  1091.5000      0.0000    569.3530      4.8145    112.7965
  1091.7500      0.0000    621.0778      4.7991    109.5051
  1092.0000      0.0000    666.6252      4.7112    106.1790
  1092.2500      0.0000    696.4163      4.6049    103.3196
  1092.5000      0.0000    706.3395      4.5524    101.6631
  1092.7500      0.0000    699.4254      4.5718    102.3270
  1093.0000      0.0000    682.4906      4.6262    106.7225
  1093.2500      0.0000    660.4786      4.6681    115.4255
  1093.5000      0.0000    634.0082      4.6733    126.4659
  1093.7500      0.0000    602.1604      4.6480    135.5579
  1094.0000      0.0000    566.8084      4.6158    139.2513
  1094.2500      0.0000    533.3877      4.5971    137.8585
  1094.5000      0.0000    507.3799      4.5964    134.6537
  1094.7500      0.0000    490.6593      4.6071    132.4192
  1095.0000      0.0000    481.1252      4.6230    131.3339
  1095.2500      0.0000    474.9531      4.6402    129.8329
  1095.5000      0.0000    469.0680      4.6522    126.7073
  1095.7500      0.0000    462.4557      4.6474    122.2955
  1096.0000      0.0000    455.9262      4.6159    118.1558
  1096.2500      0.0000    450.7305      4.5570    115.7498
  1096.5000      0.0000    447.5545      4.4817    115.3316
  1096.7500      0.0000    447.0817      4.4061    115.9614
  1097.0000      0.0000    450.9610      4.3432    116.4104
  1097.2500      0.0000    461.4784      4.2985    115.9894
  1097.5000      0.0000    480.2723      4.2744    114.7466
  1097.7500      0.0000    507.7487      4.2746    113.0481
  1098.0000      0.0000    543.3749      4.3019    110.8422
  1098.2500      0.0000    585.4309      4.3514    107.4174
  1098.5000      0.0000    629.7776      4.4084    102.2109
