~Version Information
VERS.                      2.0: CWLS Log ASCII Standard - VERSION 2.0
WRAP.                       NO: One line per depth step
~Well Information Block
STRT.FT               350.0000: 
STOP.FT               906.0000: 
STEP.FT                 0.2500: 
NULL.                -999.2500: 
COMP.          Pioneer Natural Resources: COMPANY
WELL.           Hartford 31-18: WELL
FLD.           Purgatorie River: FIELD
LOC.           375' FNL & 1660' FEL: LOCATION
PROV.                 Colorado: PROVINCE
CNTY.               Las Animas: COUNTRY
SRVC.                Patterson: SERVICE COMPANY
DATE.          Sat Nov 19 19:02:38 2005: LOG DATE
UWI.           05-071-08555               : UNIQUE WELL ID
~Curve Information Block
DEPT.FT            0 000 00 00: Depth
SN.Ohm-m                      : IEL Short Normal
SP.mV                         : IEL Spontaneous Potential
DIR.Ohm-m                     : IEL Induction Resistivity
GR.GAPI                       : Gamma Ray
~Parameter Information Block
~A  Depth        SN          SP         DIR          GR     
# ...
   450.5000   2000.0000   1880.0000     17.7034    119.1158
   450.7500   2000.0000   1880.0000     17.3261    114.8957
   451.0000   2000.0000   1880.0000     16.8879    107.9903
   451.2500   2000.0000   1880.0000     16.4085    104.9372
   451.5000   2000.0000   1880.0000     15.8992    105.0590
   451.7500   2000.0000   1880.0000     15.3666    108.3178
   452.0000   2000.0000   1880.0000     14.8171    115.9592
   452.2500   2000.0000   1880.0000     14.2585    121.4866
   452.5000   2000.0000   1880.0000     13.7016    129.2860
   452.7500   2000.0000   1880.0000     13.1594    134.2571
   453.0000   2000.0000   1880.0000     12.6454    141.7880
   453.2500   2000.0000   1880.0000     12.1713    146.7520
   453.5000   2000.0000   1880.0000     11.7468    153.2083
   453.7500   2000.0000   1880.0000     11.3802    156.2596
   454.0000   2000.0000   1880.0000     11.0778    158.7147
   454.2500   2000.0000   1880.0000     10.8432    159.3288
   454.5000   2000.0000   1880.0000     10.6758    159.4359
   454.7500   2000.0000   1880.0000     10.5709    158.9904
   455.0000   2000.0000   1880.0000     10.5219    157.3141
   455.2500   2000.0000   1880.0000     10.5221    155.8295
   455.5000   2000.0000   1880.0000     10.5646    154.5704
   455.7500   2000.0000   1880.0000     10.6413    155.1219
   456.0000   2000.0000   1880.0000     10.7409    157.5816
   456.2500   2000.0000   1880.0000     10.8504    159.2287
   456.5000   2000.0000   1880.0000     10.9579    160.2476
   456.7500   2000.0000   1880.0000     11.0567    159.8164
   457.0000   2000.0000   1880.0000     11.1471    157.6649
   457.2500   2000.0000   1880.0000     11.2339    155.1609
   457.5000   2000.0000   1880.0000     11.3224    149.9249
   457.7500   2000.0000   1880.0000     11.4131    145.9583
   458.0000   2000.0000   1880.0000     11.5015    140.4255
   458.2500   2000.0000   1880.0000     11.5801    137.4856
   458.5000   2000.0000   1880.0000     11.6405    134.9423
   458.7500   2000.0000   1880.0000     11.6737    134.9747
   459.0000   2000.0000   1880.0000     11.6687    137.4610
   459.2500   2000.0000   1880.0000     11.6154    139.4786
   459.5000   2000.0000   1880.0000     11.5098    140.1246
   459.7500   2000.0000   1880.0000     11.3583    138.4845
   460.0000   2000.0000   1880.0000     11.1761    135.2422
   460.2500   2000.0000   1880.0000     10.9807    134.2629
   460.5000   2000.0000   1880.0000     10.7852    134.9241
   460.7500   2000.0000   1880.0000     10.5957    135.6326
   461.0000   2000.0000   1880.0000     10.4136    135.4903
   461.2500   2000.0000   1880.0000     10.2385    134.7534
   461.5000   2000.0000   1880.0000     10.0691    134.2589
   461.7500   2000.0000   1880.0000      9.9022    135.2220
   462.0000   2000.0000   1880.0000      9.7328    139.0122
   462.2500   2000.0000   1880.0000      9.5561    142.5772
   462.5000   2000.0000   1880.0000      9.3714    147.8072
   462.7500   2000.0000   1880.0000      9.1849    150.2562
   463.0000   2000.0000   1880.0000      9.0095    151.4966
   463.2500   2000.0000   1880.0000      8.8617    150.9011
   463.5000   2000.0000   1880.0000      8.7574    149.2911
   463.7500   2000.0000   1880.0000      8.7087    148.6805
   464.0000   2000.0000   1880.0000      8.7215    149.4234
   464.2500   2000.0000   1880.0000      8.7949    151.1793
   464.5000   2000.0000   1880.0000      8.9201    155.2971
   464.7500   2000.0000   1880.0000      9.0807    158.3053
   465.0000   2000.0000   1880.0000      9.2559    161.6575
   465.2500   2000.0000   1880.0000      9.4257    162.6287
   465.5000   2000.0000   1880.0000      9.5778    162.3519
   465.7500   2000.0000   1880.0000      9.7122    161.2735
   466.0000   2000.0000   1880.0000      9.8413    158.4594
   466.2500   2000.0000   1880.0000      9.9858    155.7917
   466.5000   2000.0000   1880.0000     10.1686    150.8235
   466.7500   2000.0000   1880.0000     10.4106    147.1631
   467.0000   2000.0000   1880.0000     10.7270    142.0333
   467.2500   2000.0000   1880.0000     11.1228    139.5570
   467.5000   2000.0000   1880.0000     11.5881    138.1521
   467.7500   2000.0000   1880.0000     12.0950    138.6932
   468.0000   2000.0000   1880.0000     12.5982    140.9815
   468.2500   2000.0000   1880.0000     13.0456    143.3159
   468.5000   2000.0000   1880.0000     13.3941    148.2174
   468.7500   2000.0000   1880.0000     13.6237    152.0770
   469.0000   2000.0000   1880.0000     13.7412    156.6884
   469.2500   2000.0000   1880.0000     13.7724    157.5285
   469.5000   2000.0000   1880.0000     13.7499    154.1326
   469.7500   2000.0000   1880.0000     13.7035    148.8550
   470.0000   2000.0000   1880.0000     13.6554    137.3622
   470.2500   2000.0000   1880.0000     13.6170    128.2632
   470.5000   2000.0000   1880.0000     13.5878    115.4239
   470.7500   2000.0000   1880.0000     13.5559    109.7986
   471.0000   2000.0000   1880.0000     13.5022    108.8368
   471.2500   2000.0000   1880.0000     13.4073    113.1457
   471.5000   2000.0000   1880.0000     13.2586    124.1155
   471.7500   2000.0000   1880.0000     13.0528    132.3338
   472.0000   2000.0000   1880.0000     12.7938    143.3685
   472.2500   2000.0000   1880.0000     12.4909    148.7850
   472.5000   2000.0000   1880.0000     12.1569    152.6579
   472.7500   2000.0000   1880.0000     11.8083    152.2757
   473.0000   2000.0000   1880.0000     11.4648    148.7582
   473.2500   2000.0000   1880.0000     11.1470    145.9249
   473.5000   2000.0000   1880.0000     10.8758    142.8923
   473.7500   2000.0000   1880.0000     10.6708    141.9871
   474.0000   2000.0000   1880.0000     10.5493    141.7007
   474.2500   2000.0000   1880.0000     10.5249    141.6694
   474.5000   2000.0000   1880.0000     10.6055    141.2935
   474.7500   2000.0000   1880.0000     10.7903    140.9563
   475.0000   2000.0000   1880.0000     11.0687    141.1285
   475.2500   2000.0000   1880.0000     11.4195    142.0437
   475.5000   2000.0000   1880.0000     11.8162    144.4384
   475.7500   2000.0000   1880.0000     12.2340    146.3778
   476.0000   2000.0000   1880.0000     12.6560    149.3987
   476.2500   2000.0000   1880.0000     13.0762    151.2888
   476.5000   2000.0000   1880.0000     13.4976    153.1411
   476.7500   2000.0000   1880.0000     13.9291    152.9626
   477.0000   2000.0000   1880.0000     14.3805    149.3477
   477.2500   2000.0000   1880.0000     14.8587    144.4514
   477.5000   2000.0000   1880.0000     15.3625    134.3046
   477.7500   2000.0000   1880.0000     15.8797    126.9462
   478.0000   2000.0000   1880.0000     16.3860    117.2540
   478.2500   2000.0000   1880.0000     16.8464    112.3147
   478.5000   2000.0000   1880.0000     17.2196    107.0786
   478.7500   2000.0000   1880.0000     17.4640    104.7993
   479.0000   2000.0000   1880.0000     17.5467    103.0941
   479.2500   2000.0000   1880.0000     17.4524    103.2158
   479.5000   2000.0000   1880.0000     17.1903    105.7514
   479.7500   2000.0000   1880.0000     16.7949    109.3389
   480.0000   2000.0000   1880.0000     16.3182    117.6517
   480.2500   2000.0000   1880.0000     15.8183    124.5233
   480.5000   2000.0000   1880.0000     15.3482    134.3371
   480.7500   2000.0000   1880.0000     14.9503    138.8686
   481.0000   2000.0000   1880.0000     14.6537    141.3081
   481.2500   2000.0000   1880.0000     14.4747    140.5674
   481.5000   2000.0000   1880.0000     14.4179    138.0139
   481.7500   2000.0000   1880.0000     14.4770    136.5368
   482.0000   2000.0000   1880.0000     14.6345    136.2422
   482.2500   2000.0000   1880.0000     14.8628    137.9174
   482.5000   2000.0000   1880.0000     15.1273    143.1630
   482.7500   2000.0000   1880.0000     15.3935    147.6085
   483.0000   2000.0000   1880.0000     15.6371    153.2091
   483.2500   2000.0000   1880.0000     15.8510    154.8312
   483.5000   2000.0000   1880.0000     16.0465    152.8229
   483.7500   2000.0000   1880.0000     16.2457    148.5577
