~Version Information
VERS.                      2.0: CWLS Log ASCII Standard - VERSION 2.0
WRAP.                       NO: One line per depth step
~Well Information Block
STRT.FT               830.0000: 
STOP.FT              2368.5000: 
STEP.FT                 0.1000: 
NULL.                -999.2500: 
COMP.          Pioneer Natural Resources: COMPANY
WELL.              Rolls 14-14: WELL
FLD.           Purgatoire River: FIELD
LOC.           572' FSL & 856' FWL: LOCATION
PROV.                 Colorado: PROVINCE
CNTY.               Las Animas: COUNTRY
SRVC.                Patterson: SERVICE COMPANY
DATE.          Mon Aug 01 05:48:31 2005: LOG DATE
UWI.           05 071 08455 00: UNIQUE WELL ID
~Curve Information Block
DEPT.FT            0 000 00 00: Depth
DCAL.in                       : CDL Caliper
RHOB.g/cc                     : CDL Bulk Density
RHOC.g/cc                     : CDL Density Correction
DPOR.pu                       : CDL Density Porosity
GR.GAPI                       : Gamma Ray
NPOR.pu                       : Neutron Porosity
~Parameter Information Block
~A  Depth       DCAL        RHOB        RHOC        DPOR         GR         NPOR    
# ...
  1742.0000      8.0974      2.6877      0.3121     -2.2826    178.3453     23.7261
  1742.1000      8.0974      2.6544      0.2760     -0.2692    175.2454     23.5494
  1742.2000      8.0974      2.6098      0.1953      2.4376    171.3333     23.5320
  1742.3000      8.1328      2.5756      0.1088      4.5091    170.9077     23.3705
  1742.4000      8.1328      2.5600      0.1299      5.4517    170.7128     22.9349
  1742.5000      8.1426      2.5560      0.1160      5.6968    166.6509     22.5555
  1742.6000      8.1426      2.5598      0.1407      5.4665    163.2888     22.6189
  1742.7000      8.1426      2.5804      0.1654      4.2162    165.0901     23.1172
  1742.8000      8.2173      2.6167      0.2590      2.0206    167.3335     23.3916
  1742.9000      8.2173      2.6527      0.2901     -0.1635    168.7941     23.1102
  1743.0000      8.2330      2.6776      0.2873     -1.6726    171.6551     22.7169
  1743.1000      8.2330      2.6810      0.2661     -1.8766    170.7769     22.6898
  1743.2000      8.2330      2.6508      0.1999     -0.0477    163.8264     23.2340
  1743.3000      8.1394      2.5973      0.1180      3.1915    158.0960     23.7851
  1743.4000      8.1394      2.5524      0.0538      5.9122    158.3509     23.4755
  1743.5000      8.1474      2.5333      0.1108      7.0717    160.6286     22.6831
  1743.6000      8.1474      2.5273      0.1486      7.4358    162.4502     22.5135
  1743.7000      8.1474      2.5135      0.1003      8.2698    164.0587     23.0941
  1743.8000      8.1495      2.4874      0.0466      9.8522    163.9274     23.4862
  1743.9000      8.1495      2.4638      0.0390     11.2855    162.7350     23.1651
  1744.0000      8.0805      2.4609      0.0565     11.4634    163.4939     22.6704
  1744.1000      8.0805      2.4877      0.0799      9.8361    165.0435     22.7055
  1744.2000      8.0805      2.5388      0.1270      6.7396    165.0302     23.4104
  1744.3000      8.0733      2.5891      0.1523      3.6917    163.3373     24.4148
  1744.4000      8.0733      2.6121      0.2026      2.2957    162.7688     25.1037
  1744.5000      8.1060      2.6098      0.1963      2.4359    165.6967     24.9590
  1744.6000      8.1060      2.5986      0.1769      3.1175    169.0975     24.3023
  1744.7000      8.1060      2.5785      0.1408      4.3322    168.1969     24.0890
  1744.8000      8.1042      2.5516      0.1088      5.9630    165.6079     24.5730
  1744.9000      8.1042      2.5406      0.0501      6.6273    161.8406     25.0376
  1745.0000      8.1222      2.5586      0.0541      5.5384    153.1783     24.9803
  1745.1000      8.1222      2.5807      0.1248      4.1988    147.2944     24.7247
  1745.2000      8.1222      2.5762      0.0574      4.4727    145.8926     24.3815
  1745.3000      8.1278      2.5536      0.0143      5.8414    141.8165     23.7442
  1745.4000      8.1278      2.5346      0.0323      6.9936    136.5450     23.2916
  1745.5000      8.0993      2.5125      0.0675      8.3334    134.9051     23.2763
  1745.6000      8.0993      2.4820      0.0007     10.1814    138.7240     22.8842
  1745.7000      8.0993      2.4658     -0.0293     11.1630    144.6548     21.8678
  1745.8000      8.0589      2.4734      0.0022     10.7058    144.3863     21.1265
  1745.9000      8.0589      2.4841      0.0346     10.0516    138.4858     21.0232
  1746.0000      8.0034      2.4877      0.0001      9.8336    135.8947     20.9667
  1746.1000      8.0034      2.4933      0.0247      9.4980    142.6120     20.7341
  1746.2000      8.0034      2.5002      0.0732      9.0809    155.6545     20.6892
  1746.3000      7.9961      2.5060      0.1310      8.7301    164.1047     20.9678
  1746.4000      7.9961      2.5281      0.0860      7.3909    163.0042     21.1596
  1746.5000      7.9833      2.5733      0.1450      4.6488    158.0459     21.1342
  1746.6000      7.9833      2.6068      0.1858      2.6211    157.3350     21.4341
  1746.7000      7.9833      2.5956      0.1118      3.2992    164.8615     22.3033
  1746.8000      7.9966      2.5571      0.0411      5.6311    178.1547     23.0440
  1746.9000      7.9966      2.5268      0.0377      7.4647    191.5368     22.9529
  1747.0000      8.1231      2.5149      0.0354      8.1891    200.2916     22.5133
  1747.1000      8.1231      2.5097      0.0273      8.5046    200.2639     22.6490
  1747.2000      8.1231      2.4996      0.0217      9.1150    191.1030     23.4571
  1747.3000      8.1313      2.4802      0.0346     10.2938    179.6487     24.3355
  1747.4000      8.1313      2.4589     -0.0293     11.5812    172.1208     24.6257
  1747.5000      8.1288      2.4604     -0.0140     11.4930    170.7466     24.4225
  1747.6000      8.1288      2.4920      0.0036      9.5734    173.1434     24.1947
  1747.7000      8.1288      2.5238      0.0852      7.6494    177.3855     24.0837
  1747.8000      8.1368      2.5348      0.0275      6.9822    182.4012     24.0909
  1747.9000      8.1368      2.5471      0.0075      6.2339    181.7329     24.2278
  1748.0000      8.1662      2.5769      0.0671      4.4300    173.7947     24.3193
  1748.1000      8.1662      2.6026      0.0710      2.8749    166.1799     24.0954
  1748.2000      8.1662      2.6073      0.1170      2.5872    165.0152     23.5577
  1748.3000      8.1387      2.6009      0.0422      2.9755    170.3495     23.2066
  1748.4000      8.1387      2.5851      0.1707      3.9321    178.3995     23.2225
  1748.5000      8.1378      2.5422      0.1618      6.5346    185.9616     23.0734
  1748.6000      8.1378      2.4856      0.0215      9.9609    188.0508     22.7877
  1748.7000      8.1378      2.4631     -0.0501     11.3254    182.9081     22.7580
  1748.8000      8.1354      2.4827      0.0525     10.1421    177.4760     22.9484
  1748.9000      8.1354      2.5076      0.0647      8.6289    174.7454     23.2049
  1749.0000      8.0768      2.5312      0.0686      7.1989    171.4845     23.3552
  1749.1000      8.0768      2.5777      0.1764      4.3791    164.9472     23.2867
  1749.2000      8.0768      2.6400      0.2983      0.6044    157.8730     23.1009
  1749.3000      8.0692      2.6822      0.2922     -1.9503    158.7917     23.1002
  1749.4000      8.0692      2.6843      0.3059     -2.0796    169.4828     23.5406
  1749.5000      8.0904      2.6546      0.1741     -0.2772    179.1823     24.0546
  1749.6000      8.0904      2.6228      0.1157      1.6478    176.7559     24.3525
  1749.7000      8.0904      2.6085      0.1375      2.5154    164.1226     24.3539
  1749.8000      8.1778      2.5985      0.1549      3.1209    153.3797     23.9809
  1749.9000      8.1778      2.5715      0.1613      4.7554    152.9830     23.6189
  1750.0000      8.1676      2.5240      0.0710      7.6337    157.2153     23.6712
  1750.1000      8.1676      2.4773     -0.0065     10.4670    155.3351     24.0542
  1750.2000      8.1676      2.4596     -0.0159     11.5389    148.1315     24.3362
  1750.3000      8.1401      2.4695      0.0322     10.9413    144.9222     24.3656
  1750.4000      8.1401      2.4839      0.0019     10.0664    147.7884     24.4329
  1750.5000      8.1286      2.4962      0.0120      9.3203    148.2300     24.5589
  1750.6000      8.1286      2.5113      0.0791      8.4057    143.0831     24.6839
  1750.7000      8.1286      2.5381     -0.0177      6.7845    135.9062     24.9089
  1750.8000      8.0510      2.5793      0.0946      4.2853    127.5069     25.4757
  1750.9000      8.0510      2.6148      0.1231      2.1344    121.9380     26.4099
  1751.0000      8.0339      2.6303      0.1185      1.1929    122.3732     27.0431
  1751.1000      8.0339      2.6350      0.1303      0.9098    122.7503     26.8853
  1751.2000      8.0339      2.6422      0.1138      0.4756    118.7819     26.2580
  1751.3000      8.0303      2.6512      0.0831     -0.0730    113.1589     25.8227
  1751.4000      8.0303      2.6488      0.0860      0.0702    107.3966     25.6890
  1751.5000      8.0173      2.6375      0.0560      0.7575    101.1694     25.3001
