~Version Information
VERS.                      2.0: CWLS Log ASCII Standard - VERSION 2.0
WRAP.                       NO: One line per depth step
~Well Information Block
STRT.FT               -16.2500: 
STOP.FT               938.7500: 
STEP.FT                 0.2500: 
NULL.                -999.2500: 
COMP.          XTO Energy Inc.: COMPANY
WELL.          Golden Eagle 20-04: WELL
FLD.           Purgatrorie River: FIELD
LOC.           702' FNL & 487' FWL--: LOCATION
STAT.                       CO: PROVINCE
CNTY.               Las Animas: COUNTY
CTRY. USA : Country
SECT. 20 : Section 
TOWN. 33S : Township
RANG. 67W : Range
SRVC.          Patterson Wireline: SERVICE COMPANY
DATE.          Mon Dec 05 10:32:54 2005: LOG DATE
API.           05 071 08599 00: UNIQUE WELL ID
~Curve Information Block
DEPT.FT            0 000 00 00: Depth
CCL.                          : Casing Collar Locator
TT3.usec                      : CBL 3' Travel Time
AMP3.mV                       : CBL 3' Amplitude
GR.GAPI                       : Gamma Ray
~Parameter Information Block
~A  Depth       CCL         TT3         AMP3         GR     
# ...
   218.2500      0.0000    651.1685      4.6891    115.6835
   218.5000      0.0000    651.1228      4.7673    126.2687
   218.7500      0.0000    651.1835      5.0860    137.0434
   219.0000      0.0000    651.3535      5.6142    146.9289
   219.2500      0.0000    651.5911      6.2478    155.5011
   219.5000      0.0000    651.8190      6.8727    162.6013
   219.7500      0.0000    651.9582      7.4274    167.6169
   220.0000      0.0000    651.9741      7.9049    169.3192
   220.2500      0.0000    651.9121      8.3070    166.7202
   220.5000      0.0000    651.8748      8.6140    160.2987
   220.7500      0.0000    651.9399      8.7994    152.3638
   221.0000      0.0000    652.0936      8.8657    145.8256
   221.2500      0.0000    652.2552      8.8554    142.2062
   221.5000      0.0000    652.3647      8.8177    140.7892
   221.7500      0.0000    652.4391      8.7692    139.7155
   222.0000      0.0000    652.5447      8.6972    137.8088
   222.2500      0.0000    652.7247      8.6034    135.4249
   222.5000      0.0000    652.9576      8.5356    133.8292
   222.7500      0.0000    653.1763      8.5716    133.8099
   223.0000      0.0000    653.2624      8.7699    134.8362
   223.2500      0.0000    652.9529      9.1282    135.6652
   223.5000      0.0000    651.7023      9.5764    135.8297
   223.7500      0.0000    648.8132     10.0041    136.2108
   224.0000      0.0000    644.1099     10.3035    137.9757
   224.2500      0.0000    638.6312     10.4047    141.2682
   224.5000      0.0000    634.1842     10.2886    145.1054
   224.7500      0.0000    631.5947      9.9766    148.2174
   225.0000      0.0000    629.7108      9.5131    149.7190
   225.2500      0.0000    627.0398      8.9561    149.1859
   225.5000      0.0000    624.4567      8.3795    146.5321
   225.7500      0.0000    625.1336      7.8703    142.2518
   226.0000      0.0000    631.0064      7.5100    137.8596
   226.2500      0.0000    640.1086      7.3472    135.6456
   226.5000     -2.0000    648.1501      7.3738    137.2607
   226.7500      2.0000    651.8121      7.5286    142.1029
   227.0000      0.0000    649.9694      7.7364    147.2847
   227.2500      0.0000    643.0292      7.9518    149.6569
   227.5000      0.0000    632.0885      8.1686    148.2734
   227.7500      0.0000    617.9391      8.4088    145.0153
   228.0000      0.0000    600.7523      8.7145    142.7870
   228.2500      0.0000    582.5518      9.1125    143.0323
   228.5000      2.0000    570.0580      9.5439    144.7703
   228.7500      0.0000    571.4148      9.8618    145.7011
   229.0000      0.0000    588.0186      9.9538    144.1007
   229.2500      0.0000    611.9230      9.8510    139.8881
   229.5000      0.0000    632.8017      9.6908    134.2628
   229.7500      0.0000    645.6486      9.6028    128.6286
   230.0000      0.0000    651.4759      9.6493    123.8360
   230.2500      0.0000    653.4205      9.8345    120.1818
   230.5000      0.0000    653.8340     10.1233    117.8508
   230.7500      0.0000    653.7822     10.4554    117.2526
   231.0000      0.0000    653.5654     10.7641    119.0139
   231.2500      0.0000    652.9846     11.0011    123.6507
   231.5000      0.0000    651.1620     11.1616    131.0441
   231.7500      0.0000    646.1494     11.3026    140.0747
   232.0000      0.0000    635.4783     11.5287    148.8757
   232.2500      0.0000    618.6369     11.9212    155.7355
   232.5000      0.0000    599.9591     12.4440    159.9240
   232.7500      0.0000    587.6760     12.9194    161.6131
   233.0000      0.0000    588.0563     13.1258    161.0254
   233.2500      0.0000    600.3896     12.9386    158.0126
   233.5000      0.0000    618.1834     12.3831    152.8812
   233.7500      0.0000    634.4084     11.5840    147.4540
   234.0000      0.0000    645.3392     10.7062    144.6730
   234.2500      0.0000    650.9058      9.9398    146.7039
   234.5000      0.0000    652.9391      9.4675    153.0050
   234.7500      0.0000    653.3506      9.3738    159.9584
   235.0000      0.0000    653.3123      9.5786    162.8928
   235.2500      0.0000    653.2894      9.8884    159.3704
   235.5000      0.0000    653.3772     10.1251    151.1041
   235.7500      0.0000    653.5167     10.2061    142.5960
   236.0000      0.0000    653.6249     10.1329    137.3921
   236.2500      0.0000    653.6309      9.9493    135.6310
   236.5000      0.0000    653.4410      9.7230    135.4037
   236.7500      0.0000    652.8238      9.5327    135.5272
   237.0000      0.0000    651.1871      9.4405    135.9610
   237.2500      0.0000    647.5286      9.4678    136.4967
   237.5000      0.0000    640.9244      9.5991    136.8424
   237.7500      0.0000    631.6069      9.8000    137.7827
   238.0000      0.0000    621.8820     10.0206    140.8174
   238.2500      0.0000    615.7142     10.1882    146.3656
   238.5000      0.0000    616.4601     10.2268    152.8836
   238.7500      0.0000    624.1204     10.1147    157.8243
   239.0000      0.0000    634.9632      9.9233    159.3221
   239.2500      0.0000    644.4156      9.7795    157.1336
   239.5000      0.0000    650.2196      9.7813    152.3664
   239.7500      0.0000    652.8359      9.9465    146.6814
   240.0000      0.0000    653.7696     10.2139    141.7441
   240.2500      0.0000    654.1463     10.4725    138.7577
   240.5000      0.0000    654.3833     10.6017    137.7706
   240.7500      0.0000    654.4470     10.5288    137.4815
   241.0000      0.0000    654.1185     10.2852    136.3843
   241.2500      0.0000    653.1383     10.0105    134.2798
   241.5000      0.0000    651.2861      9.8721    132.1958
   241.7500      0.0000    648.5848      9.9538    130.6824
   242.0000      0.0000    645.4420     10.2126    128.8804
   242.2500      0.0000    642.3499     10.5396    125.7145
   242.5000      0.0000    639.3831     10.8482    121.6317
   242.7500      0.0000    636.2811     11.0997    118.5984
   243.0000      0.0000    633.0252     11.2779    118.3151
   243.2500      0.0000    629.7524     11.3778    120.7111
   243.5000      0.0000    626.0314     11.4158    124.3119
   243.7500      0.0000    620.7575     11.4201    127.7518
   244.0000      0.0000    613.2187     11.3910    130.7014
   244.2500      0.0000    604.6605     11.2727    133.6633
   244.5000      0.0000    598.9692     10.9687    137.2797
   244.7500      0.0000    600.6541     10.3987    141.8553
   245.0000      0.0000    610.7283      9.5618    147.2439
   245.2500      0.0000    625.0608      8.5651    152.8173
   245.5000      0.0000    637.7913      7.5890    157.4345
   245.7500      0.0000    645.7947      6.8093    160.0191
   246.0000      0.0000    649.4957      6.3248    160.8193
   246.2500      0.0000    650.7604      6.1324    161.7377
   246.5000      0.0000    651.0730      6.1543    164.5970
   246.7500      0.0000    651.0843      6.2981    169.0875
   247.0000      0.0000    650.6677      6.5148    172.9446
   247.2500      0.0000    648.6603      6.8191    174.1280
   247.5000      0.0000    642.1766      7.2695    172.4415
   247.7500      0.0000    626.3396      7.9360    169.1420
   248.0000      0.0000    596.2881      8.8736    165.7128
   248.2500      0.0000    551.7333     10.0810    163.2636
   248.5000      0.0000    500.2568     11.4433    162.3464
   248.7500      0.0000    454.6708     12.7254    162.6473
   249.0000      0.0000    426.1495     13.6706    163.2493
   249.2500      0.0000    419.8297     14.1392    163.8223
   249.5000      0.0000    435.1101     14.1547    165.2406
   249.7500      0.0000    466.9290     13.8334    168.4149
   250.0000      0.0000    506.6574     13.2915    172.7886
   250.2500      0.0000    545.1556     12.5975    176.7070
   250.5000      0.0000    577.1404     11.7637    179.0268
   250.7500      0.0000    602.1404     10.7722    179.4218
   251.0000      0.0000    621.3912      9.6327    177.2957
   251.2500      0.0000    635.2996      8.4249    171.8762
   251.5000      0.0000    643.8963      7.2720    163.6937
