~Version Information
VERS.                      2.0: CWLS Log ASCII Standard - VERSION 2.0
WRAP.                       NO: One line per depth step
~Well Information Block
STRT.FT               460.0000: 
STOP.FT              2824.0000: 
STEP.FT                 0.2500: 
NULL.                -999.2500: 
COMP.          Pioneer Natural Resources: COMPANY
WELL.           Dolzanie 34-12: WELL
FLD.           Purgatoire River: FIELD
LOC.           1001' FSL & 1750' FEL--: LOCATION
PROV.                 Colorado: PROVINCE
CNTY.               Las Animas: COUNTRY
SRVC.                Patterson: SERVICE COMPANY
DATE.          Wed Jul 20 07:51:58 2005: LOG DATE
UWI.           05 071 08439 00: UNIQUE WELL ID
~Curve Information Block
DEPT.FT            0 000 00 00: Depth
DIR.Ohm-m                     : IEL Induction Resistivity
SN.Ohm-m                      : IEL Short Normal
SP.mV                         : IEL Spontaneous Potential
GR.GAPI                       : Gamma Ray
~Parameter Information Block
~A  Depth       DIR          SN          SP          GR     
# ...
  1398.0000      3.9086   2000.0000   2000.0000     60.5479
  1398.2500 100000.0000   2000.0000   2000.0000     59.9524
  1398.5000 100000.0000   2000.0000   2000.0000     58.8080
  1398.7500 100000.0000   2000.0000   2000.0000     57.9471
  1399.0000 100000.0000   2000.0000   2000.0000     56.8367
  1399.2500 100000.0000   2000.0000   2000.0000     56.3168
  1399.5000 100000.0000   2000.0000   2000.0000     55.7906
  1399.7500 100000.0000   2000.0000   2000.0000     55.5232
  1400.0000 100000.0000   2000.0000   2000.0000     55.1658
  1400.2500 100000.0000   2000.0000   2000.0000     54.9679
  1400.5000 100000.0000   2000.0000   2000.0000     54.8006
  1400.7500 100000.0000   2000.0000   2000.0000     54.7678
  1401.0000 100000.0000   2000.0000   2000.0000     54.6736
  1401.2500 100000.0000   2000.0000   2000.0000     54.4987
  1401.5000 100000.0000   2000.0000   2000.0000     54.1605
  1401.7500 100000.0000   2000.0000   2000.0000     54.0362
  1402.0000 100000.0000   2000.0000   2000.0000     54.2195
  1402.2500 100000.0000   2000.0000   2000.0000     54.7346
  1402.5000 100000.0000   2000.0000   2000.0000     56.8168
  1402.7500 100000.0000   2000.0000   2000.0000     59.9009
  1403.0000 100000.0000   2000.0000   2000.0000     68.5215
  1403.2500     15.5014   2000.0000   2000.0000     77.0918
  1403.5000      4.9941   2000.0000   2000.0000     92.6570
  1403.7500      3.4105   2000.0000   2000.0000    103.3754
  1404.0000      2.5478   2000.0000   2000.0000    117.8532
  1404.2500      1.7531   2000.0000   2000.0000    125.7189
  1404.5000      1.1666   2000.0000   2000.0000    134.3856
  1404.7500      0.8434   2000.0000   2000.0000    138.3084
  1405.0000      0.7215   2000.0000   2000.0000    142.6020
  1405.2500      0.7731   2000.0000   2000.0000    145.0710
  1405.5000      1.0773   2000.0000   2000.0000    148.1158
  1405.7500      2.1507   2000.0000   2000.0000    148.9018
  1406.0000     13.9414   2000.0000   2000.0000    146.7755
  1406.2500 100000.0000   2000.0000   2000.0000    143.0630
  1406.5000 100000.0000   2000.0000   2000.0000    135.4227
  1406.7500 100000.0000   2000.0000   2000.0000    130.1312
  1407.0000 100000.0000   2000.0000   2000.0000    123.4930
  1407.2500 100000.0000   2000.0000   2000.0000    120.2737
  1407.5000 100000.0000   2000.0000   2000.0000    116.6555
  1407.7500 100000.0000   2000.0000   2000.0000    114.2146
  1408.0000 100000.0000   2000.0000   2000.0000    109.1553
  1408.2500     27.6153   2000.0000   2000.0000    104.5391
  1408.5000     17.3130   2000.0000   2000.0000     95.9727
  1408.7500     17.7150   2000.0000   2000.0000     89.4401
  1409.0000     24.1482   2000.0000   2000.0000     78.9760
  1409.2500     45.4737   2000.0000   2000.0000     72.1567
  1409.5000    191.8723   2000.0000   2000.0000     63.7727
  1409.7500 100000.0000   2000.0000   2000.0000     60.3804
  1410.0000 100000.0000   2000.0000   2000.0000     59.5822
  1410.2500 100000.0000   2000.0000   2000.0000     62.0227
  1410.5000    275.5062   2000.0000   2000.0000     69.9384
  1410.7500    134.0874   2000.0000   2000.0000     77.8705
  1411.0000    142.4202   2000.0000   2000.0000     93.1143
  1411.2500    220.5274   2000.0000   2000.0000    104.6033
  1411.5000    211.2326   2000.0000   2000.0000    121.0804
  1411.7500     85.8836   2000.0000   2000.0000    129.7349
  1412.0000     38.2129   2000.0000   2000.0000    137.4102
  1412.2500     21.9255   2000.0000   2000.0000    139.1841
  1412.5000     15.3289   2000.0000   2000.0000    138.4040
  1412.7500     12.3815   2000.0000   2000.0000    136.3066
  1413.0000     11.1138   2000.0000   2000.0000    131.0451
  1413.2500     10.7743   2000.0000   2000.0000    126.2151
  1413.5000     11.0434   2000.0000   2000.0000    118.2124
  1413.7500     11.7706   2000.0000   2000.0000    113.5956
  1414.0000     12.8597   2000.0000   2000.0000    109.1407
  1414.2500     14.2051   2000.0000   2000.0000    107.6286
  1414.5000     15.6657   2000.0000   2000.0000    106.1654
  1414.7500     17.0802   2000.0000   2000.0000    105.1107
  1415.0000     18.3147   2000.0000   2000.0000    103.2918
  1415.2500     19.2991   2000.0000   2000.0000    102.1564
  1415.5000     20.0264   2000.0000   2000.0000    100.9213
  1415.7500     20.5299   2000.0000   2000.0000    100.4228
  1416.0000     20.8596   2000.0000   2000.0000     99.7961
  1416.2500     21.0677   2000.0000   2000.0000     99.2167
  1416.5000     21.1989   2000.0000   2000.0000     98.2416
  1416.7500     21.2856   2000.0000   2000.0000     97.8983
  1417.0000     21.3484   2000.0000   2000.0000     98.1545
  1417.2500     21.4035   2000.0000   2000.0000     98.5052
  1417.5000     21.4706   2000.0000   2000.0000     98.3457
  1417.7500     21.5738   2000.0000   2000.0000     97.5549
  1418.0000     21.7338   2000.0000   2000.0000     95.8000
  1418.2500     21.9566   2000.0000   2000.0000     94.5756
  1418.5000     22.2300   2000.0000   2000.0000     92.5635
  1418.7500     22.5326   2000.0000   2000.0000     90.8290
  1419.0000     22.8461   2000.0000   2000.0000     87.5587
  1419.2500     23.1569   2000.0000   2000.0000     85.1966
  1419.5000     23.4416   2000.0000   2000.0000     81.9953
  1419.7500     23.6589   2000.0000   2000.0000     80.4638
  1420.0000     23.7638   2000.0000   2000.0000     79.7150
  1420.2500     23.7380   2000.0000   2000.0000     80.4552
  1420.5000     23.6029   2000.0000   2000.0000     83.1091
  1420.7500     23.4017   2000.0000   2000.0000     85.3704
  1421.0000     23.1700   2000.0000   2000.0000     88.4947
  1421.2500     22.9233   2000.0000   2000.0000     90.0710
  1421.5000     22.6664   2000.0000   2000.0000     91.7391
  1421.7500     22.4072   2000.0000   2000.0000     92.5884
  1422.0000     22.1593   2000.0000   2000.0000     93.6097
  1422.2500     21.9345   2000.0000   2000.0000     94.0548
  1422.5000     21.7348   2000.0000   2000.0000     94.3066
  1422.7500     21.5543   2000.0000   2000.0000     94.3067
  1423.0000     21.3866   2000.0000   2000.0000     94.3723
  1423.2500     21.2323   2000.0000   2000.0000     94.5820
  1423.5000     21.0974   2000.0000   2000.0000     95.1591
  1423.7500     20.9860   2000.0000   2000.0000     95.6947
  1424.0000     20.8941   2000.0000   2000.0000     96.6709
  1424.2500     20.8113   2000.0000   2000.0000     97.2401
  1424.5000     20.7272   2000.0000   2000.0000     97.3301
  1424.7500     20.6372   2000.0000   2000.0000     96.6347
  1425.0000     20.5429   2000.0000   2000.0000     94.5507
  1425.2500     20.4501   2000.0000   2000.0000     92.5615
  1425.5000     20.3674   2000.0000   2000.0000     88.5393
  1425.7500     20.3068   2000.0000   2000.0000     85.1814
  1426.0000     20.2831   2000.0000   2000.0000     79.8604
  1426.2500     20.3092   2000.0000   2000.0000     76.7910
  1426.5000     20.3885   2000.0000   2000.0000     73.6311
  1426.7500     20.5101   2000.0000   2000.0000     72.4575
  1427.0000     20.6505   2000.0000   2000.0000     71.5467
  1427.2500     20.7822   2000.0000   2000.0000     71.1152
  1427.5000     20.8843   2000.0000   2000.0000     70.1571
  1427.7500     20.9471   2000.0000   2000.0000     69.1161
  1428.0000     20.9721   2000.0000   2000.0000     67.0101
  1428.2500     20.9670   2000.0000   2000.0000     65.4891
  1428.5000     20.9413   2000.0000   2000.0000     63.6406
  1428.7500     20.9010   2000.0000   2000.0000     63.1064
  1429.0000     20.8471   2000.0000   2000.0000     63.9298
  1429.2500     20.7787   2000.0000   2000.0000     65.5583
  1429.5000     20.7001   2000.0000   2000.0000     68.6932
  1429.7500     20.6241   2000.0000   2000.0000     70.3838
  1430.0000     20.5666   2000.0000   2000.0000     71.2268
  1430.2500     20.5366   2000.0000   2000.0000     70.5596
  1430.5000     20.5311   2000.0000   2000.0000     68.3555
  1430.7500     20.5396   2000.0000   2000.0000     66.6738
  1431.0000     20.5552   2000.0000   2000.0000     64.7377
  1431.2500     20.5800   2000.0000   2000.0000     64.1407
