~Version Information
VERS.                      2.0: CWLS Log ASCII Standard - VERSION 2.0
WRAP.                       NO: One line per depth step
~Well Information Block
STRT.FT                -7.5000: 
STOP.FT               988.5000: 
STEP.FT                 0.2500: 
NULL.                -999.2500: 
COMP.          Pioneer Natural Resources: COMPANY
WELL.          Stags Leap 13-30: WELL
FLD.           Purgatorie River: FIELD
LOC.           1813' FSL & 117' FWL--: LOCATION
PROV.                       CO: PROVINCE
CNTY.               Las Animas: COUNTRY
SRVC.          Patterson Wireline: SERVICE COMPANY
DATE.          Tue Dec 13 11:29:26 2005: LOG DATE
UWI.           05 071 08595 00: UNIQUE WELL ID
~Curve Information Block
DEPT.FT            0 000 00 00: Depth
CCL.                          : Casing Collar Locator
TT3.usec                      : CBL 3' Travel Time
AMP3.mV                       : CBL 3' Amplitude
GR.GAPI                       : Gamma Ray
~Parameter Information Block
~A  Depth       CCL         TT3         AMP3         GR     
# ...
   964.0000      0.0000    593.7636      7.9048     95.0621
   964.2500      0.0000    541.3717      8.1034     97.0338
   964.5000      0.0000    488.9226      8.2978    100.1714
   964.7500      0.0000    448.2065      8.4457    103.5209
   965.0000      0.0000    426.9858      8.5145    105.5834
   965.2500      0.0000    422.9393      8.4993    105.1116
   965.5000      0.0000    425.7408      8.4272    101.9839
   965.7500      0.0000    426.5568      8.3397     97.2429
   966.0000      0.0000    425.0585      8.2688     92.2816
   966.2500      0.0000    426.8172      8.2246     88.3132
   966.5000      0.0000    434.7573      8.2010     86.3980
   966.7500      0.0000    443.8857      8.1927     87.2081
   967.0000      0.0000    444.8770      8.2027     90.5580
   967.2500      0.0000    433.5816      8.2310     95.5464
   967.5000      0.0000    416.4387      8.2588    101.1957
   967.7500      0.0000    405.7877      8.2579    106.7632
   968.0000      0.0000    410.8906      8.2163    111.6453
   968.2500      0.0000    433.7200      8.1462    115.2938
   968.5000      0.0000    470.1841      8.0614    117.3346
   968.7500      0.0000    512.1144      7.9535    117.8493
   969.0000      0.0000    549.5958      7.7966    117.3170
   969.2500      0.0000    575.6268      7.5763    115.8894
   969.5000      0.0000    589.9397      7.3116    112.9677
   969.7500      0.0000    597.3613      7.0513    108.2367
   970.0000      0.0000    603.7745      6.8479    103.0063
   970.2500      0.0000    613.8110      6.7371     99.6139
   970.5000      0.0000    628.3428      6.7411     99.1626
   970.7500      0.0000    641.7864      6.8770    100.3406
   971.0000      0.0000    643.7737      7.1501    100.6974
   971.2500      0.0000    625.1078      7.5401     98.8742
   971.5000      0.0000    583.5645      8.0051     95.6175
   971.7500      0.0000    526.3480      8.4978     92.8072
   972.0000      0.0000    467.2427      8.9750     91.5894
   972.2500      0.0000    419.1907      9.3983     91.5407
   972.5000      0.0000    387.9033      9.7313     91.6087
   972.7500      0.0000    371.5299      9.9432     91.3814
   973.0000      0.0000    364.9403     10.0256     91.1166
   973.2500      0.0000    363.9166     10.0057     91.0179
   973.5000      0.0000    366.9731      9.9317     90.9889
   973.7500      0.0000    375.1057      9.8360     90.7028
   974.0000      0.0000    390.1695      9.7262     89.1614
   974.2500      0.0000    412.0359      9.6120     84.3381
   974.5000      0.0000    436.0140      9.5209     74.1041
   974.7500      0.0000    453.8978      9.4788     58.2239
   975.0000      0.0000    460.4775      9.4885     39.5140
   975.2500      0.0000    459.5967      9.5293     22.5124
   975.5000      0.0000    460.5050      9.5695     10.5352
   975.7500      0.0000    466.8978      9.5841      3.9856
   976.0000      0.0000    474.0961      9.5638      1.2055
   976.2500      0.0000    480.2578      9.5043      0.2885
   976.5000      0.0000    495.0367      9.3909      0.0540
   976.7500      0.0000    530.1742      9.2107      0.0074
   977.0000      0.0000    581.8857      8.9794      0.0000
   977.2500      0.0000    627.3981      8.7463   -999.2500
   977.5000      0.0000    641.9202      8.5678   -999.2500
   977.7500      0.0000    621.0368      8.4741   -999.2500
   978.0000      0.0000    587.4754      8.4516   -999.2500
   978.2500      0.0000    573.9067      8.4447   -999.2500
   978.5000      0.0000    595.3214      8.3859   -999.2500
   978.7500      0.0000    636.0953      8.2378   -999.2500
   979.0000      0.0000    664.0009      7.9945   -999.2500
   979.2500      0.0000    655.3035      7.6137   -999.2500
   979.5000      0.0000    604.8749      6.9597   -999.2500
   979.7500      0.0000    517.4517      5.8861   -999.2500
   980.0000      0.0000    400.9622      4.4253   -999.2500
   980.2500      0.0000    271.8654      2.8592   -999.2500
   980.5000      0.0000    155.7963      1.5480   -999.2500
   980.7500      0.0000     73.4445      0.6897   -999.2500
   981.0000      2.0000     27.9571      0.2495   -999.2500
   981.2500      0.0000      8.4903      0.0726   -999.2500
   981.5000      0.0000      2.0378      0.0168   -999.2500
   981.7500      0.0000      0.3842      0.0030   -999.2500
   982.0000      0.0000      0.0526      0.0004   -999.2500
   982.2500      0.0000   -999.2500   -999.2500   -999.2500
   982.5000      0.0000   -999.2500   -999.2500   -999.2500
   982.7500      0.0000   -999.2500   -999.2500   -999.2500
   983.0000      0.0000   -999.2500   -999.2500   -999.2500
   983.2500      0.0000   -999.2500   -999.2500   -999.2500
   983.5000      0.0000   -999.2500   -999.2500   -999.2500
   983.7500      0.0000   -999.2500   -999.2500   -999.2500
   984.0000      0.0000   -999.2500   -999.2500   -999.2500
   984.2500      0.0000   -999.2500   -999.2500   -999.2500
   984.5000      0.0000   -999.2500   -999.2500   -999.2500
   984.7500      0.0000   -999.2500   -999.2500   -999.2500
   985.0000      0.0000   -999.2500   -999.2500   -999.2500
   985.2500      0.0000   -999.2500   -999.2500   -999.2500
   985.5000      0.0000   -999.2500   -999.2500   -999.2500
   985.7500      0.0000   -999.2500   -999.2500   -999.2500
   986.0000      0.0000   -999.2500   -999.2500   -999.2500
   986.2500      0.0000   -999.2500   -999.2500   -999.2500
   986.5000      0.0000   -999.2500   -999.2500   -999.2500
   986.7500      0.0000   -999.2500   -999.2500   -999.2500
   987.0000      0.0000   -999.2500   -999.2500   -999.2500
   987.2500      0.0000   -999.2500   -999.2500   -999.2500
   987.5000      0.0000   -999.2500   -999.2500   -999.2500
   987.7500      0.0000   -999.2500   -999.2500   -999.2500
   988.0000   -999.2500   -999.2500   -999.2500   -999.2500
   988.2500   -999.2500   -999.2500   -999.2500   -999.2500
   988.5000   -999.2500   -999.2500   -999.2500   -999.2500
