~Version Information
VERS.                      2.0: CWLS Log ASCII Standard - VERSION 2.0
WRAP.                       NO: One line per depth step
~Well Information Block
STRT.FT                -6.5000: 
STOP.FT              1773.5000: 
STEP.FT                 0.2500: 
NULL.                -999.2500: 
COMP.          Pioneer Natural Resources: COMPANY
WELL.           Lynch 43-30 Tr: WELL
FLD.           Purgatorie River: FIELD
LOC.           1431' FSL & 296' FEL--: LOCATION
PROV.                       CO: PROVINCE
CNTY.               Las Animas: COUNTRY
SRVC.          Patterson Wireline: SERVICE COMPANY
DATE.          Tue Aug 02 09:28:21 2005: LOG DATE
UWI.           05 071 08447 00: UNIQUE WELL ID
~Curve Information Block
DEPT.FT            0 000 00 00: Depth
CCL.                          : Casing Collar Locator
TT3.usec                      : CBL 3' Travel Time
AMP3.mV                       : CBL 3' Amplitude
GR.GAPI                       : Gamma Ray
~Parameter Information Block
MINAMPL.mV              1.0000: Minimum Amplitude
~A  Depth       CCL         TT3         AMP3         GR     
# ...
  1735.5000      0.0000    721.9841      8.8741    130.4355
  1735.7500      0.0000    717.2358      8.6904    137.1863
  1736.0000      0.0000    709.8527      8.2880    140.0385
  1736.2500      0.0000    703.4037      7.6822    139.3203
  1736.5000      0.0000    702.0263      7.0208    137.1286
  1736.7500      0.0000    707.7112      6.5108    136.5479
  1737.0000      0.0000    719.4316      6.2724    139.6276
  1737.2500      0.0000    733.8475      6.2708    145.5219
  1737.5000      0.0000    746.2675      6.3865    150.7789
  1737.7500      0.0000    752.5217      6.5206    151.9748
  1738.0000      0.0000    751.7994      6.6325    148.3608
  1738.2500     -2.0000    747.1251      6.7185    142.2408
  1738.5000     -2.0000    741.9651      6.7892    136.9430
  1738.7500      0.0000    737.1804      6.8694    134.1306
  1739.0000      0.0000    732.2576      7.0054    132.6460
  1739.2500      0.0000    728.3226      7.2386    129.7818
  1739.5000      0.0000    727.8525      7.5443    123.6820
  1739.7500      0.0000    731.4198      7.8163    114.8469
  1740.0000      0.0000    736.4828      7.9541    105.7193
  1740.2500      0.0000    740.0721      7.9602     98.7484
  1740.5000      0.0000    741.3302      7.9254     94.4501
  1740.7500      0.0000    740.7664      7.9344     91.3177
  1741.0000      0.0000    738.1932      8.0106     87.7138
  1741.2500      0.0000    732.2782      8.1295     83.5174
  1741.5000      0.0000    721.7532      8.2535     79.6716
  1741.7500      0.0000    706.5171      8.3558     76.6255
  1742.0000      0.0000    687.3022      8.4302     73.7971
  1742.2500      0.0000    664.8157      8.4871     70.4243
  1742.5000      0.0000    640.8350      8.5409     66.4970
  1742.7500      0.0000    620.6939      8.5974     62.7483
  1743.0000      0.0000    612.0236      8.6518     60.0233
  1743.2500      0.0000    618.2632      8.6976     58.8385
  1743.5000      0.0000    634.6066      8.7346     59.2791
  1743.7500      0.0000    652.4392      8.7671     61.0581
  1744.0000      0.0000    666.6972      8.7928     63.6964
  1744.2500      0.0000    677.7527      8.7974     66.7509
  1744.5000      0.0000    688.0775      8.7631     69.9608
  1744.7500      0.0000    699.1210      8.6862     73.4189
  1745.0000      0.0000    710.8396      8.5859     77.5667
  1745.2500      0.0000    722.3420      8.4947     82.5752
  1745.5000      0.0000    732.0184      8.4380     87.7473
  1745.7500      0.0000    737.8082      8.4189     92.3035
  1746.0000      0.0000    738.6885      8.4211     97.0572
  1746.2500      0.0000    736.4263      8.4230    104.5325
  1746.5000      0.0000    734.9741      8.4109    116.7882
  1746.7500      0.0000    737.2322      8.3771    133.3017
  1747.0000      0.0000    742.4725      8.3144    150.9756
  1747.2500      0.0000    747.2070      8.2208    165.6850
  1747.5000      0.0000    748.0782      8.1085    174.1444
  1747.7500      0.0000    742.8794      8.0025    175.5505
  1748.0000      0.0000    728.8947      7.9265    171.9102
  1748.2500      0.0000    702.4745      7.8902    166.4343
  1748.5000      0.0000    662.8234      7.8874    161.6721
  1748.7500      0.0000    616.1022      7.9015    159.1107
  1749.0000      0.0000    573.3517      7.9146    159.3615
  1749.2500      0.0000    543.1783      7.9156    161.7220
  1749.5000      0.0000    527.2557      7.9025    164.1675
  1749.7500      0.0000    522.3840      7.8792    164.7765
  1750.0000      0.0000    524.8220      7.8522    163.0845
  1750.2500      0.0000    532.2153      7.8292    159.7102
  1750.5000      0.0000    543.3488      7.8161    155.3081
  1750.7500      0.0000    557.6252      7.8138    150.6132
  1751.0000      0.0000    574.3271      7.8185    146.9135
  1751.2500      0.0000    591.6453      7.8268    145.5278
  1751.5000      0.0000    607.2710      7.8360    146.9218
  1751.7500      0.0000    619.9952      7.8401    150.6874
  1752.0000      0.0000    628.7141      7.8310    155.9422
  1752.2500      0.0000    630.1317      7.8054    161.2716
  1752.5000      0.0000    621.9995      7.7706    164.8822
  1752.7500      0.0000    610.2010      7.7393    165.7530
  1753.0000      0.0000    607.8708      7.7211    164.6356
  1753.2500      0.0000    623.9498      7.7165    163.3492
  1753.5000      0.0000    654.5207      7.7185    163.0894
  1753.7500      0.0000    687.2048      7.7177    163.6693
  1754.0000      0.0000    712.0500      7.7079    164.1148
  1754.2500      0.0000    726.4893      7.6880    163.6669
  1754.5000      0.0000    732.3765      7.6612    162.3802
  1754.7500      0.0000    731.9438      7.6353    160.8816
  1755.0000      0.0000    726.8862      7.6215    159.5435
  1755.2500      0.0000    718.7821      7.6311    158.1335
  1755.5000      0.0000    708.3433      7.6693    156.2595
  1755.7500      0.0000    694.1873      7.7279    153.7250
  1756.0000      0.0000    673.7061      7.7838    150.5691
  1756.2500      0.0000    646.3651      7.8099    147.2579
  1756.5000      0.0000    616.0776      7.7938    144.6439
  1756.7500      0.0000    589.3076      7.7484    143.2966
  1757.0000      0.0000    570.5552      7.7042    143.0452
  1757.2500      0.0000    560.0493      7.6920    143.3893
  1757.5000      0.0000    555.4187      7.7265    144.1658
  1757.7500      0.0000    554.6307      7.8016    145.6748
  1758.0000      0.0000    557.5594      7.8979    148.2247
  1758.2500      0.0000    565.6257      7.9943    151.6853
  1758.5000      0.0000    580.1849      8.0733    155.3820
  1758.7500      0.0000    601.0140      8.1210    157.8908
  1759.0000      0.0000    626.3583      8.1258    156.4335
  1759.2500      0.0000    653.8895      8.0812    147.0629
  1759.5000      0.0000    680.5237      7.9915    126.8984
  1759.7500      0.0000    702.1645      7.8782     97.2059
  1760.0000      0.0000    715.8358      7.7749     64.1568
  1760.2500      0.0000    722.2367      7.7117     35.5859
  1760.5000      0.0000    724.8773      7.6987     16.2619
  1760.7500      0.0000    726.7484      7.7245      6.0308
  1761.0000      0.0000    728.3113      7.7676      1.7942
  1761.2500      0.0000    727.9850      7.8081      0.4239
  1761.5000      0.0000    724.0883      7.8351      0.0782
  1761.7500      0.0000    717.0535      7.8496      0.0104
  1762.0000      0.0000    710.3333      7.8625      0.0000
  1762.2500      0.0000    708.3950      7.8864   -999.2500
  1762.5000      0.0000    712.9564      7.9267   -999.2500
  1762.7500      0.0000    720.9512      7.9759   -999.2500
  1763.0000      0.0000    726.3331      8.0195   -999.2500
  1763.2500      0.0000    724.1970      8.0495   -999.2500
  1763.5000      0.0000    713.7594      8.0731   -999.2500
  1763.7500      0.0000    697.4548      8.1009   -999.2500
  1764.0000      0.0000    676.1982      8.1143   -999.2500
  1764.2500      0.0000    644.0715      8.0249   -999.2500
  1764.5000      0.0000    588.2788      7.6647   -999.2500
  1764.7500      0.0000    497.9807      6.8608   -999.2500
  1765.0000      0.0000    376.8309      5.5944   -999.2500
  1765.2500      0.0000    246.7578      4.0998   -999.2500
  1765.5000      0.0000    136.1379      2.7505   -999.2500
  1765.7500      0.0000     61.9754      1.8107   -999.2500
  1766.0000      0.0000     22.9168      1.3034   -999.2500
  1766.2500      0.0000      6.8034      1.0908   -999.2500
  1766.5000      0.0000      1.6045      1.0216   -999.2500
  1766.7500      0.0000      0.2954      1.0040   -999.2500
  1767.0000      0.0000      0.0393      1.0005   -999.2500
  1767.2500      0.0000   -999.2500   -999.2500   -999.2500
  1767.5000      0.0000   -999.2500   -999.2500   -999.2500
  1767.7500      0.0000   -999.2500   -999.2500   -999.2500
  1768.0000      0.0000   -999.2500   -999.2500   -999.2500
  1768.2500      0.0000   -999.2500   -999.2500   -999.2500
  1768.5000      0.0000   -999.2500   -999.2500   -999.2500
  1768.7500      0.0000   -999.2500   -999.2500   -999.2500
