~Version Information
VERS.                      2.0: CWLS Log ASCII Standard - VERSION 2.0
WRAP.                       NO: One line per depth step
~Well Information Block
STRT.FT               310.0000: 
STOP.FT              2295.5000: 
STEP.FT                 0.1000: 
NULL.                -999.2500: 
COMP.          Pioneer Natural Resources: COMPANY
WELL.               Relay 12-7: WELL
FLD.           Purgatoire River: FIELD
LOC.           1999' FNL & 848' FWL: LOCATION
PROV.                 Colorado: PROVINCE
CNTY.               Las Animas: COUNTRY
SRVC.                Patterson: SERVICE COMPANY
DATE.          Mon Dec 19 07:37:11 2005: LOG DATE
UWI.           05 071 08453 00: UNIQUE WELL ID
~Curve Information Block
DEPT.FT            0 000 00 00: Depth
DCAL.in                       : CDL Caliper
RHOB.g/cc                     : CDL Bulk Density
RHOC.g/cc                     : CDL Density Correction
DPOR.pu                       : CDL Density Porosity
GR.GAPI                       : Gamma Ray
NPOR.pu                       : Neutron Porosity
~Parameter Information Block
~A  Depth       DCAL        RHOB        RHOC        DPOR         GR         NPOR    
   310.0000      4.8225      2.1011      2.0000     -0.0110    105.2841     20.1115
   310.1000      4.8225      2.0996      2.0000     -0.0110    103.0981     21.0367
   310.2000      4.8225      2.0971      2.0000     -0.0111    105.8392     22.8901
   310.3000      4.8194      2.0933      2.0000     -0.0111    110.2750     23.5013
   310.4000      4.8194      2.1052      2.0000     -0.0109    116.2055     23.1176
   310.5000      4.8185      2.1399      2.0000     -0.0102    119.8269     23.5676
   310.6000      4.8185      2.1904      2.0000     -0.0092    115.7791     24.3963
   310.7000      4.8185      2.2437      2.0000     -0.0081    110.9845     24.1480
   310.8000      4.8109      2.2831      2.0000     -0.0073    111.4555     23.3825
   310.9000      4.8109      2.2982      2.0000     -0.0070    113.2068     23.1448
   311.0000      4.8173      2.2876      2.0000     -0.0073    115.4352     23.3135
   311.1000      4.8173      2.2516      2.0000     -0.0080    122.3558     23.2695
   311.2000      4.8173      2.1968      2.0000     -0.0091    127.5186     23.3777
   311.3000      4.8244      2.1410      2.0000     -0.0102    118.9181     24.3922
   311.4000      4.8244      2.1001      2.0000     -0.0110    103.5690     25.5219
   311.5000      4.8219      2.0757      2.0000     -0.0115     96.0271     25.9174
   311.6000      4.8219      2.0638      2.0000     -0.0117     97.9657     25.7352
   311.7000      4.8219      2.0611      2.0000     -0.0118    107.8433     25.0271
   311.8000      4.8267      2.0556      2.0000     -0.0119    122.0865     23.3877
   311.9000      4.8267      2.0384      2.0000     -0.0122    133.3105     21.5040
   312.0000      4.8402      2.0213      2.0000     -0.0126    141.2563     21.2768
   312.1000      4.8402      2.0211      2.0000     -0.0126    145.1157     22.9415
   312.2000      4.8402      2.0363      2.0000     -0.0123    141.5025     24.4792
   312.3000      4.8303      2.0537      2.0000     -0.0119    136.7231     24.5445
   312.4000      4.8303      2.0639      2.0000     -0.0117    133.5248     23.6820
   312.5000      4.8090      2.0702      2.0000     -0.0116    124.3671     22.7074
   312.6000      4.8090      2.0828      2.0000     -0.0113    111.3963     22.0751
   312.7000      4.8090      2.1034      2.0000     -0.0109    107.9434     21.4982
   312.8000      4.8099      2.1208      2.0000     -0.0106    115.8380     20.9879
   312.9000      4.8099      2.1303      2.0000     -0.0104    125.7294     21.2592
   313.0000      4.8145      2.1338      2.0000     -0.0103    131.5103     22.3641
   313.1000      4.8145      2.1275      2.0000     -0.0105    131.0715     23.3125
   313.2000      4.8145      2.1097      2.0000     -0.0108    126.5538     23.5634
   313.3000      4.8307      2.0899      2.0000     -0.0112    125.5513     23.7110
   313.4000      4.8307      2.0786      2.0000     -0.0114    129.1942     24.0434
   313.5000      4.8212      2.0821      2.0000     -0.0114    128.3028     24.1893
   313.6000      4.8212      2.0994      2.0000     -0.0110    121.3683     23.9060
   313.7000      4.8212      2.1143      2.0000     -0.0107    117.6826     23.3058
   313.8000      4.8017      2.1032      2.0000     -0.0109    121.1662     22.9171
   313.9000      4.8017      2.0625      2.0000     -0.0118    124.9895     22.7214
   314.0000      4.8155      2.0116      2.0000     -0.0128    125.9267     21.9542
   314.1000      4.8155      1.9686      2.0000     -0.0136    125.9201     21.0097
   314.2000      4.8155      1.9363      2.0000     -0.0143    123.9346     21.0886
   314.3000      4.8199      1.9109      2.0000     -0.0148    119.2795     21.6621
   314.4000      4.8199      1.8870      2.0000     -0.0153    114.0154     21.1765
   314.5000      4.8156      1.8614      2.0000     -0.0158    110.8299     19.7535
   314.6000      4.8156      1.8383      2.0000     -0.0162    108.3809     18.8808
   314.7000      4.8156      1.8264      2.0000     -0.0165    103.5928     19.0163
   314.8000      4.8151      1.8241      2.0000     -0.0165     97.8487     19.6336
   314.9000      4.8151      1.8156      2.0000     -0.0167     91.9061     20.6195
   315.0000      4.8140      1.7924      2.0000     -0.0172     84.5715     21.4160
   315.1000      4.8140      1.7614      2.0000     -0.0178     79.4496     21.0689
   315.2000      4.8140      1.7342      2.0000     -0.0183     81.0029     19.9532
   315.3000      4.8256      1.7159      2.0000     -0.0187     86.2323     19.4967
   315.4000      4.8256      1.6976      2.0000     -0.0191     88.8159     20.1783
   315.5000      4.8429      1.6705      2.0000     -0.0196     89.0535     20.5662
   315.6000      4.8429      1.6401      2.0000     -0.0202     89.8258     19.4262
   315.7000      4.8429      1.6104      2.0000     -0.0208     89.2337     17.9167
   315.8000      4.8069      1.5726      2.0000     -0.0216     84.3433     17.8347
   315.9000      4.8069      1.5194      0.4745     -0.0226     79.5595     18.9309
   316.0000      4.8083      1.4623      0.3968     -0.0238     81.7728     19.5572
   316.1000      4.8083      1.4195      0.3866     -0.0246     88.5982     19.0146
   316.2000      4.8083      1.3840      0.4367     -0.0253     92.3681     18.0501
   316.3000      4.7944      1.3342      0.3891     -0.0263     90.7745     17.5379
   316.4000      4.7944      1.2731      0.3221     83.4489     86.0686     17.5541
   316.5000      4.7813      1.2175      0.3166     86.8170     81.5562     17.7250
   316.6000      4.7813      1.1715      0.2799     89.6075     81.2862     18.0321
   316.7000      4.7813      1.1306      0.2667     92.0835     87.7142     18.7561
   316.8000      4.7873      1.0883      0.2433     94.6500     96.5870     19.8294
   316.9000      4.7873      1.0395      0.2142     97.6073    101.4875     20.5021
   317.0000      4.7903      0.9860      0.1533    100.8470    102.7137     20.3406
   317.1000      4.7903      0.9346      0.1249    103.9638    103.4089     19.3934
   317.2000      4.7903      0.8909      0.1012    106.6100    101.4714     17.7767
   317.3000      4.7971      0.8568      0.0687    108.6814    101.3833     16.8059
   317.4000      4.7971      0.8336      0.0215    110.0863     96.8715     17.9661
   317.5000      4.7909      0.8220      0.0385    110.7862     91.7887     20.3482
   317.6000      4.7909      0.8105      0.0678    111.4865     87.6602     21.8899
   317.7000      4.7909      0.7876     -0.0008    112.8708     80.2946     22.0150
   317.8000      4.7918      0.7643     -0.0533    114.2833     72.4351     21.2482
   317.9000      4.7918      0.7556     -0.0511    114.8099     72.9339     20.2809
   318.0000      4.7863      0.7583     -0.0406    114.6459     81.6225     19.8023
   318.1000      4.7863      0.7646     -0.0688    114.2642     88.7647     19.8440
   318.2000      4.7863      0.7747     -0.0516    113.6572     78.9496     19.8359
   318.3000      4.7926      0.7858     -0.0303    112.9798     75.7612     19.9413
   318.4000      4.7926      0.7909     -0.0091    112.6733     75.4132     20.4174
   318.5000      4.8048      0.7809      0.0212    113.2783     78.3244     20.2958
   318.6000      4.8048      0.7478      0.0317    115.2823     81.4057     18.8875
   318.7000      4.8048      0.7006     -0.0645    118.1470     80.5042     17.3006
   318.8000      4.8052      0.6586     -0.0289    120.6881     76.7693     17.2689
   318.9000      4.8052      0.6238     -0.0402    122.7982     74.6565     18.8952
   319.0000      4.7988      0.5863     -0.0805    125.0713     74.7284     20.2388
   319.1000      4.7988      0.5415     -0.1037    127.7907     75.5749     20.4349
   319.2000      4.7988      0.4914     -0.1612    130.8227     67.1294     20.3673
   319.3000      4.7904      0.4426     -0.1935    133.7800     65.6595     20.1569
   319.4000      4.7904      0.3969     -0.2203    136.5516     65.8834     19.8367
   319.5000      4.7890      0.3526     -0.2672    139.2361     69.4135     19.8431
