~Version Information
VERS.                      2.0: CWLS Log ASCII Standard - VERSION 2.0
WRAP.                       NO: One line per depth step
~Well Information Block
STRT.FT               260.0000: 
STOP.FT              1230.0000: 
STEP.FT                 0.2500: 
NULL.                -999.2500: 
COMP.          Pioneer Natural Resources: COMPANY
WELL.             Mahalo 12-20: WELL
FLD.           Purgatoire River: FIELD
LOC.           1689' FNL & 479' FWL: LOCATION
CNTY.               Las Animas: COUNTY
SRVC.                Patterson: SERVICE COMPANY
DATE.          Thu Feb 23 20:25:01 2006: LOG DATE
UWI.           05 071 08700 00: UNIQUE WELL ID
STAT.                 Colorado: STATE
~Curve Information Block
DEPT.FT            0 000 00 00: Depth
SN.Ohm-m                      : IEL Short Normal
SP.mV                         : IEL Spontaneous Potential
DIR.Ohm-m                     : IEL Induction Resistivity
GR.GAPI                       : Gamma Ray
~Parameter Information Block
~A  Depth        SN          SP         DIR          GR     
# ...
  1131.0000     24.2121     56.9674     25.0502    156.8563
  1131.2500     24.7521     57.1050     25.8100    150.9097
  1131.5000     25.4276     57.2438     26.5304    140.1651
  1131.7500     26.1597     57.3825     27.1957    132.2624
  1132.0000     26.8663     57.5190     27.7855    120.5013
  1132.2500     27.4933     57.6554     28.2772    113.4765
  1132.5000     27.9715     57.7999     28.6501    105.1358
  1132.7500     28.2430     57.9618     28.8860    101.1379
  1133.0000     28.3122     58.1450     28.9686     96.8563
  1133.2500     28.2120     58.3457     28.8846     94.6190
  1133.5000     27.9323     58.5549     28.6301     91.5472
  1133.7500     27.4012     58.7626     28.2160     89.5716
  1134.0000     26.6000     58.9617     27.6653     86.7941
  1134.2500     25.6839     59.1497     27.0047     85.0892
  1134.5000     24.8559     59.3287     26.2599     82.6341
  1134.7500     24.1723     59.5025     25.4561     81.0846
  1135.0000     23.5604     59.6676     24.6214     79.2964
  1135.2500     22.9383     59.8078     23.7880     78.7453
  1135.5000     22.2892     59.9000     22.9914     79.0173
  1135.7500     21.6628     59.9300     22.2667     79.7793
  1136.0000     21.0980     59.9053     21.6414     81.3547
  1136.2500     20.5936     59.8532     21.1295     82.3917
  1136.5000     20.1612     59.8067     20.7289     83.3464
  1136.7500     19.8187     59.7876     20.4246     83.2967
  1137.0000     19.5380     59.8010     20.1949     82.1328
  1137.2500     19.2696     59.8359     20.0170     80.9318
  1137.5000     19.0459     59.8724     19.8696     79.3099
  1137.7500     18.9891     59.8927     19.7346     78.7871
  1138.0000     19.1417     59.8927     19.5992     79.4016
  1138.2500     19.3472     59.8863     19.4588     80.9140
  1138.5000     19.3772     59.8990     19.3168     84.4243
  1138.7500     19.1756     59.9544     19.1784     86.8059
  1139.0000     18.8627     60.0617     19.0457     88.9073
  1139.2500     18.5543     60.2123     18.9174     89.0049
  1139.5000     18.3075     60.3847     18.7948     87.9089
  1139.7500     18.1316     60.5529     18.6861     86.9696
  1140.0000     17.9862     60.6947     18.6046     85.7461
  1140.2500     17.8212     60.7979     18.5602     85.0463
  1140.5000     17.6409     60.8638     18.5526     84.1774
  1140.7500     17.5139     60.9077     18.5685     83.8980
  1141.0000     17.4680     60.9518     18.5881     84.4577
  1141.2500     17.4355     61.0163     18.5963     85.7324
  1141.5000     17.4003     61.1112     18.5925     88.9205
  1141.7500     17.4465     61.2334     18.5872     91.4564
  1142.0000     17.5708     61.3695     18.5856     94.5458
  1142.2500     17.6372     61.5025     18.5718     95.2589
  1142.5000     17.5808     61.6201     18.5132     93.5026
  1142.7500     17.4870     61.7207     18.3893     90.7510
  1143.0000     17.4366     61.8115     18.2238     85.8688
  1143.2500     17.4485     61.8995     18.0848     83.1469
  1143.5000     17.5711     61.9839     18.0448     80.8354
  1143.7500     17.8340     62.0559     18.1340     80.3743
  1144.0000     18.1222     62.1068     18.3205     80.3984
  1144.2500     18.2641     62.1372     18.5325     80.4060
  1144.5000     18.2190     62.1608     18.7068     80.1862
  1144.7500     18.1077     62.1995     18.8259     80.0212
  1145.0000     18.0787     62.2729     18.9124     79.9765
  1145.2500     18.1496     62.3858     18.9946     80.0815
  1145.5000     18.1994     62.5269     19.0818     80.2180
  1145.7500     18.1288     62.6771     19.1655     80.1307
  1146.0000     17.9978     62.8193     19.2346     79.6954
  1146.2500     17.9619     62.9399     19.2837     79.4259
  1146.5000     18.0911     63.0256     19.3099     79.5401
  1146.7500     18.3053     63.0682     19.3109     79.9220
  1147.0000     18.4840     63.0738     19.2876     80.0890
  1147.2500     18.5848     63.0625     19.2478     79.3810
  1147.5000     18.6171     63.0562     19.2043     77.1158
  1147.7500     18.5848     63.0654     19.1681     75.4451
  1148.0000     18.5199     63.0876     19.1441     73.8460
  1148.2500     18.4630     63.1131     19.1324     73.6122
  1148.5000     18.4385     63.1300     19.1346     74.4166
  1148.7500     18.4684     63.1285     19.1592     75.8315
  1149.0000     18.5215     63.1039     19.2217     79.6838
  1149.2500     18.5592     63.0596     19.3375     83.3315
  1149.5000     18.6165     63.0072     19.5101     89.4573
  1149.7500     18.7004     62.9628     19.7245     93.2355
  1150.0000     18.7639     62.9397     19.9510     97.4684
  1150.2500     18.8589     62.9429     20.1593     99.0891
  1150.5000     19.1028     62.9686     20.3348     99.9945
  1150.7500     19.4823     63.0100     20.4845    100.0532
  1151.0000     19.8538     63.0619     20.6313    100.0147
  1151.2500     20.1043     63.1215     20.8026     99.9631
  1151.5000     20.2262     63.1871     21.0189     99.6837
  1151.7500     20.3051     63.2554     21.2817     99.4996
  1152.0000     20.4522     63.3197     21.5595     99.9007
  1152.2500     20.6866     63.3702     21.7880    100.8479
  1152.5000     20.8945     63.3954     21.8994    102.7837
  1152.7500     20.9502     63.3854     21.8709    103.7261
  1153.0000     20.8370     63.3380     21.7442    103.5687
  1153.2500     20.6366     63.2616     21.5923    102.2523
  1153.5000     20.4769     63.1736     21.4676     98.9718
  1153.7500     20.4550     63.0936     21.3793     96.3601
  1154.0000     20.5271     63.0360     21.3142     92.3566
  1154.2500     20.5432     63.0040     21.2704     89.9064
  1154.5000     20.4367     62.9891     21.2680     87.2247
  1154.7500     20.3026     62.9763     21.3324     86.5246
  1155.0000     20.2632     62.9526     21.4689     87.4808
  1155.2500     20.3233     62.9136     21.6538     89.3926
  1155.5000     20.3990     62.8653     21.8462     93.5393
  1155.7500     20.4421     62.8229     22.0101     96.3617
  1156.0000     20.4757     62.8061     22.1326     98.7297
  1156.2500     20.5225     62.8330     22.2242     98.1672
  1156.5000     20.5661     62.9135     22.3024     94.2130
  1156.7500     20.6028     63.0461     22.3739     90.5349
  1157.0000     20.6515     63.2189     22.4316     85.6767
  1157.2500     20.7146     63.4117     22.4673     83.7715
  1157.5000     20.8058     63.5985     22.4799     83.3703
  1157.7500     20.9362     63.7539     22.4694     84.5313
  1158.0000     21.0090     63.8643     22.4226     87.6067
  1158.2500     20.8635     63.9343     22.3106     89.9431
  1158.5000     20.4853     63.9831     22.1045     92.8727
  1158.7500     20.0467     64.0301     21.7993     94.1011
  1159.0000     19.7151     64.0846     21.4236     95.1156
  1159.2500     19.4981     64.1440     21.0257     95.8107
  1159.5000     19.2942     64.1979     20.6481     97.7046
  1159.7500     19.0398     64.2343     20.3118     99.4807
  1160.0000     18.7744     64.2449     20.0210    102.0825
  1160.2500     18.5988     64.2271     19.7788    103.3016
  1160.5000     18.5666     64.1846     19.5916    104.1484
  1160.7500     18.6022     64.1243     19.4590    104.2778
  1161.0000     18.5871     64.0516     19.3623    104.3555
  1161.2500     18.5055     63.9658     19.2709    104.4817
  1161.5000     18.4305     63.8618     19.1636    104.6295
  1161.7500     18.4220     63.7387     19.0464    104.4670
  1162.0000     18.4908     63.6085     18.9477    103.3755
  1162.2500     18.6095     63.4948     18.8970    101.9287
  1162.5000     18.7462     63.4212     18.9059     98.9950
  1162.7500     18.8899     63.3998     18.9636     97.0126
  1163.0000     19.0024     63.4263     19.0443     94.6860
  1163.2500     18.9855     63.4832     19.1215     93.7188
  1163.5000     18.7872     63.5463     19.1796     93.3529
  1163.7500     18.5061     63.5928     19.2193     93.9993
  1164.0000     18.2791     63.6103     19.2549     96.2213
  1164.2500     18.1337     63.6028     19.3075     98.1369
