~Version Information
VERS.                      2.0: CWLS Log ASCII Standard - VERSION 2.0
WRAP.                       NO: One line per depth step
~Well Information Block
STRT.FT               460.0000: 
STOP.FT              3058.5000: 
STEP.FT                 0.1000: 
NULL.                -999.2500: 
COMP.          Pioneer Natural Resources: COMPANY
WELL.            Cleaver 24-12: WELL
FLD.           Purgatoire River: FIELD
LOC.           204' FSL & 2351' FWL: LOCATION
PROV.                 Colorado: PROVINCE
CNTY.               Las Animas: COUNTRY
SRVC.                Patterson: SERVICE COMPANY
DATE.          Mon Jan 09 13:49:27 2006: LOG DATE
UWI.           05 071 08634 00: UNIQUE WELL ID
~Curve Information Block
DEPT.FT            0 000 00 00: Depth
DCAL.in                       : CDL Caliper
RHOB.g/cc                     : CDL Bulk Density
RHOC.g/cc                     : CDL Density Correction
DPOR.pu                       : CDL Density Porosity
GR.GAPI                       : Gamma Ray
NPOR.pu                       : Neutron Porosity
~Parameter Information Block
~A  Depth       DCAL        RHOB        RHOC        DPOR         GR         NPOR    
# ...
  1496.8000      7.9634      2.5351      0.0723      6.9652    138.8806     26.3058
  1496.9000      7.9634      2.5068      0.0050      8.6759    141.9638     26.3669
  1497.0000      7.9407      2.4852      0.0147      9.9907    149.5559     26.5729
  1497.1000      7.9407      2.4715      0.0564     10.8210    153.2357     26.8357
  1497.2000      7.9407      2.4672     -0.0302     11.0812    147.1340     26.6731
  1497.3000      7.9401      2.4744     -0.0308     10.6438    138.5429     26.1570
  1497.4000      7.9401      2.4769      0.0594     10.4921    131.5576     25.8808
  1497.5000      7.9447      2.4644      0.0293     11.2501    125.6565     25.8932
  1497.6000      7.9447      2.4462      0.0609     12.3503    124.8223     25.7625
  1497.7000      7.9447      2.4179      0.0315     14.0689    130.1180     25.5734
  1497.8000      7.9435      2.3772     -0.0026     16.5304    131.8810     25.5733
  1497.9000      7.9435      2.3464     -0.0100     18.4027    123.8880     25.7013
  1498.0000      7.9509      2.3353      0.0104     19.0708    117.8921     25.9378
  1498.1000      7.9509      2.3312      0.0339     19.3187    123.9547     26.0772
  1498.2000      7.9509      2.3270      0.0184     19.5770    135.4263     26.2210
  1498.3000      7.9198      2.3243      0.0675     19.7374    144.6788     26.6620
  1498.4000      7.9198      2.3153      0.1223     20.2858    146.7878     26.9792
  1498.5000      7.9200      2.2907      0.1333     21.7739    140.9480     26.8590
  1498.6000      7.9200      2.2661      0.0547     23.2637    135.8313     26.7429
  1498.7000      7.9200      2.2642      0.0437     23.3826    135.9242     27.0954
  1498.8000      7.9417      2.2814      0.0312     22.3417    135.4258     27.8347
  1498.9000      7.9417      2.3137      0.0559     20.3821    131.7870     28.3719
  1499.0000      7.9712      2.3746      0.1022     16.6900    128.7693     28.6118
  1499.1000      7.9712      2.4592      0.1447     11.5624    127.7763     28.7153
  1499.2000      7.9712      2.5303      0.1706      7.2533    125.1044     28.2766
  1499.3000      7.9642      2.5720      0.1217      4.7279    119.8817     27.1652
  1499.4000      7.9642      2.6153      0.0794      2.1012    116.5598     25.7034
  1499.5000      7.9670      2.6710      0.1444     -1.2728    116.3297     24.4232
  1499.6000      7.9670      2.6987      0.1952     -2.9506    115.6372     23.9534
  1499.7000      7.9670      2.6748      0.0960     -1.5005    113.1445     24.2721
  1499.8000      7.9643      2.6271      0.0259      1.3900    111.4315     24.4535
  1499.9000      7.9643      2.5840      0.0220      4.0009    113.1094     23.9649
  1500.0000      7.9727      2.5617     -0.0264      5.3527    115.5278     23.4772
  1500.1000      7.9727      2.5672      0.0198      5.0202    116.1472     23.4764
  1500.2000      7.9727      2.5701      0.1100      4.8410    119.9293     23.6229
  1500.3000      7.9810      2.5407      0.0695      6.6227    127.0752     23.7728
  1500.4000      7.9810      2.4995     -0.0345      9.1192    129.4627     24.0997
  1500.5000      7.9786      2.4761      0.0481     10.5386    129.7102     24.3301
  1500.6000      7.9786      2.4672      0.0384     11.0764    133.9055     24.0308
  1500.7000      7.9786      2.4702      0.0179     10.8973    138.6936     23.2664
  1500.8000      7.9876      2.4875      0.0516      9.8512    140.2743     22.6479
  1500.9000      7.9876      2.5034      0.1138      8.8842    136.3864     22.7103
  1501.0000      7.9908      2.5102      0.0860      8.4749    127.7209     23.3404
  1501.1000      7.9908      2.5171      0.1211      8.0545    120.5223     24.0081
  1501.2000      7.9908      2.5252      0.0840      7.5629    116.9568     24.1824
  1501.3000      7.9990      2.5371      0.0175      6.8434    112.7369     23.6594
  1501.4000      7.9990      2.5576      0.0414      5.6003    107.8491     22.8651
  1501.5000      7.9782      2.5762      0.0481      4.4706    102.0892     22.3402
  1501.6000      7.9782      2.5849      0.0311      3.9468     94.1936     22.0999
  1501.7000      7.9782      2.5864      0.0247      3.8572     89.9229     21.9163
  1501.8000      7.9445      2.5805      0.0435      4.2121     95.2355     21.6938
  1501.9000      7.9445      2.5746     -0.0176      4.5685    105.9853     21.2873
  1502.0000      7.9580      2.5838      0.0207      4.0091    111.6329     20.4308
  1502.1000      7.9580      2.6049      0.0284      2.7351    108.5126     19.2363
  1502.2000      7.9580      2.6246      0.0066      1.5374    100.9793     18.4380
  1502.3000      7.9354      2.6403      0.0570      0.5878     95.5704     18.4267
  1502.4000      7.9354      2.6506      0.1035     -0.0392     94.8181     18.4374
  1502.5000      7.9287      2.6546      0.0692     -0.2786     93.7334     17.9152
  1502.6000      7.9287      2.6592      0.0845     -0.5562     88.8823     17.4835
  1502.7000      7.9287      2.6637      0.0478     -0.8274     83.9942     17.6478
  1502.8000      7.9262      2.6473      0.1303      0.1656     80.4650     17.9545
  1502.9000      7.9262      2.6027      0.0449      2.8662     76.5918     18.0124
  1503.0000      7.9213      2.5622     -0.0209      5.3184     74.1232     18.0936
  1503.1000      7.9213      2.5518      0.0092      5.9515     74.9307     18.6178
  1503.2000      7.9213      2.5542      0.0287      5.8067     78.4993     19.5239
  1503.3000      7.9334      2.5447      0.0202      6.3798     85.0358     20.3911
  1503.4000      7.9334      2.5316     -0.0180      7.1776     95.1582     20.9798
  1503.5000      7.9541      2.5383     -0.0185      6.7716    107.5049     21.4433
  1503.6000      7.9541      2.5706      0.0178      4.8119    116.3157     22.0454
  1503.7000      7.9541      2.6163      0.0390      2.0431    117.8553     22.7958
  1503.8000      7.9646      2.6594      0.0434     -0.5723    116.3102     23.4460
  1503.9000      7.9646      2.6903      0.0859     -2.4404    115.7766     23.8403
  1504.0000      7.9365      2.7150      0.0147     -3.9423    115.6381     24.0253
  1504.1000      7.9365      2.7397      0.1034     -5.4381    116.0839     24.2297
  1504.2000      7.9365      2.7497      0.0645     -6.0409    117.5170     24.6065
  1504.3000      7.9647      2.7327      0.0982     -5.0129    118.2392     24.9667
  1504.4000      7.9647      2.6997      0.0400     -3.0135    117.9073     24.9876
  1504.5000      7.9681      2.6657      0.0603     -0.9494    118.3396     24.7303
  1504.6000      7.9681      2.6252     -0.0047      1.5003    119.6143     24.4046
  1504.7000      7.9681      2.5727     -0.0479      4.6825    119.4615     24.1573
  1504.8000      7.9653      2.5225     -0.1182      7.7282    117.5125     24.2002
  1504.9000      7.9653      2.5005     -0.1209      9.0598    115.8632     24.5025
  1505.0000      7.9565      2.5123     -0.0586      8.3479    113.8119     24.7327
  1505.1000      7.9565      2.5346     -0.0053      6.9935    111.2506     24.7999
  1505.2000      7.9565      2.5499      0.0427      6.0659    112.8661     25.1006
  1505.3000      7.9683      2.5591      0.0504      5.5078    121.1374     25.6763
  1505.4000      7.9683      2.5561      0.1137      5.6904    130.0967     25.7894
  1505.5000      7.9910      2.5312      0.0607      7.1974    131.7772     25.1112
  1505.6000      7.9910      2.4982      0.0398      9.2022    126.5245     24.3350
  1505.7000      7.9910      2.4808      0.0329     10.2572    119.5902     23.9411
  1505.8000      7.9988      2.4966      0.0430      9.2980    111.4670     23.6772
  1505.9000      7.9988      2.5454      0.0499      6.3379    103.7643     23.3916
  1506.0000      7.9575      2.6041      0.1085      2.7809    102.1098     23.2574
  1506.1000      7.9575      2.6502      0.1130     -0.0128    102.7961     23.1697
  1506.2000      7.9575      2.6799      0.1661     -1.8115     97.9436     22.8258
  1506.3000      7.9614      2.6929      0.1851     -2.5992     91.1287     22.2919
