~Version Information
 VERS.                                  2.0 : CWLS LAS VERSION
 WRAP.                                   NO : WRAPING MODE
 SWARE .                 MController 2.5.0N : SOFTWARE VERSION
~Well Information
 WELL.                          Julie 11-30 : WELL
 COMP.       Pioneer Natural Resources, USA : COMPANY
 FLD.                       Purgatory River : FIELD
 LOC.                 NW/NW Sec30 T33S R65W : LOCATION
 DATE.                              4/13/06 : DATE(S) LOGGED
 SRVC.      Blanco Geological Services, LLC : SERVICE COMPANY
 STAT.                             Colorado : STATE
 CNTY.                           Las Animas : COUNTY
 CTRY.                                  USA : COUNTRY
 API.                       05-071-08724-00 : API NUMBER
 STRT.FT                             178.00 : START DEPTH
 STOP.FT                            1270.00 : STOP DEPTH
 STEP.FT                               1.00 : DEPTH INCREMENT
 NULL.                                -9999 : NULL VALUE
~Curve information
 DEPTH.FT                                   :
 ROP.MIN/FT                                 :
 GAS.UNITS                                  :
~ASCII Log data
# ...
       378.0         0.20          2.3 
       379.0         0.30          3.3 
       380.0         0.33          4.4 
       381.0         0.27          4.2 
       382.0         2.95          3.8 
       383.0         0.30          4.4 
       384.0         0.45          4.1 
       385.0         0.40          3.2 
       386.0         0.20          3.1 
       387.0         0.20          3.0 
       388.0         0.33          2.8 
       389.0         0.30          2.7 
       390.0         0.27          2.3 
       391.0         0.30          2.4 
       392.0         0.33          2.5 
       393.0         0.33          2.3 
       394.0         0.23          2.7 
       395.0         0.28          2.2 
       396.0         0.30          2.4 
       397.0         0.27          2.3 
       398.0         0.27          2.3 
       399.0         0.27          2.2 
       400.0         0.30          2.4 
       401.0         0.27          2.4 
       402.0         0.23          2.5 
       403.0         0.23          2.2 
       404.0         0.23          2.4 
       405.0         0.23          2.3 
       406.0         0.20          2.4 
       407.0         0.27          2.3 
       408.0         0.35          3.2 
       409.0         0.33          5.3 
       410.0         0.30          5.5 
       411.0         0.27          4.3 
       412.0         3.42          4.0 
       413.0         0.50          3.2 
       414.0         0.40          2.8 
       415.0         0.33          3.0 
       416.0         0.33          2.9 
       417.0         0.30          2.6 
       418.0         0.30          2.5 
       419.0         0.32          2.5 
       420.0         0.23          2.7 
       421.0         0.27          2.6 
       422.0         0.37          2.6 
       423.0         0.27          2.6 
       424.0         0.23          2.7 
       425.0         0.23          2.5 
       426.0         0.23          2.9 
       427.0         0.33          2.7 
       428.0         0.23          2.5 
       429.0         0.23          2.5 
       430.0         0.23          2.6 
       431.0         0.48          2.7 
       432.0         0.23          2.5 
       433.0         0.40          2.7 
       434.0         0.37          2.6 
       435.0         0.27          2.6 
       436.0         0.23          2.5 
       437.0         0.23          2.4 
       438.0         0.20          2.5 
       439.0         0.23          2.4 
       440.0         0.27          2.3 
       441.0         0.40          2.5 
       442.0         2.35          2.8 
       443.0         0.30          4.5 
       444.0         0.27          4.2 
       445.0         0.37          3.5 
       446.0         0.38          3.4 
       447.0         0.30          3.1 
       448.0         0.30          2.9 
       449.0         0.30          2.8 
       450.0         0.33          2.8 
       451.0         0.27          2.7 
       452.0         0.23          2.6 
       453.0         0.27          2.7 
       454.0         0.30          2.8 
       455.0         0.30          3.0 
       456.0         0.27          3.0 
       457.0         0.30          2.9 
       458.0         0.28          3.6 
       459.0         0.27          3.4 
       460.0         0.30          3.2 
       461.0         0.30          3.1 
       462.0         0.30          2.9 
       463.0         0.30          2.8 
       464.0         0.33          2.9 
       465.0         0.27          3.1 
       466.0         0.23          2.9 
       467.0         0.23          3.2 
       468.0         0.23          3.2 
       469.0         0.23          3.6 
       470.0         0.28          3.4 
       471.0         0.27          3.6 
       472.0         2.98          3.9 
       473.0         0.37          4.9 
       474.0         0.37          5.0 
       475.0         0.33          4.4 
       476.0         0.30          4.0 
       477.0         0.30          4.0 
       478.0         0.23          3.8 
       479.0         0.27          3.4 
       480.0         0.23          3.9 
       481.0         0.27          4.5 
       482.0         0.23          5.7 
       483.0         0.27          6.4 
       484.0         0.25          6.6 
       485.0         0.27          7.2 
       486.0         0.23          7.3 
       487.0         0.27          7.5 
       488.0         0.23          8.0 
       489.0         0.23          7.9 
       490.0         0.23          7.5 
       491.0         0.20          8.4 
       492.0         0.23          9.2 
       493.0         0.23         10.7 
       494.0         0.27         12.4 
       495.0         0.23         12.3 
       496.0         0.27         11.6 
       497.0         0.27         11.0 
       498.0         0.25         11.2 
       499.0         0.20         10.6 
       500.0         0.23         10.0 
       501.0         0.27          9.7 
       502.0         2.52         10.4 
       503.0         0.27          4.9 
       504.0         0.40          5.2 
       505.0         0.33          4.1 
       506.0         0.30          4.6 
       507.0         0.27          4.9 
       508.0         0.27          5.5 
       509.0         0.27          6.6 
       510.0         0.23          7.2 
       511.0         0.27          7.3 
       512.0         0.27          6.8 
       513.0         0.27          6.1 
       514.0         0.28          5.4 
       515.0         0.23          4.9 
       516.0         0.27          4.6 
       517.0         0.30          4.1 
       518.0         0.23          4.3 
       519.0         0.27          3.7 
       520.0         0.27          4.0 
       521.0         0.37          4.2 
       522.0         0.33          4.0 
       523.0         0.30          3.7 
       524.0         0.27          3.2 
       525.0         0.30          2.9 
       526.0         0.38          2.8 
       527.0         0.40          2.7 
       528.0         0.30          2.8 
       529.0         0.30          2.9 
       530.0         0.30          2.9 
       531.0         0.27          3.0 
       532.0         4.52          6.3 
       533.0         0.38          3.4 
       534.0         0.27          3.1 
       535.0         0.27          3.1 
       536.0         0.23          3.1 
       537.0         0.27          3.3 
       538.0         0.17          2.7 
       539.0         0.20          2.8 
       540.0         0.37          2.9 
       541.0         0.30          3.3 
       542.0         0.27          3.7 
       543.0         0.40          4.0 
       544.0         0.27          3.1 
       545.0         0.42          3.0 
       546.0         0.27          3.0 
       547.0         0.37          3.3 
       548.0         0.33          3.3 
       549.0         0.17          3.1 
       550.0         0.20          3.3 
       551.0         0.27          3.2 
       552.0         0.37          3.2 
       553.0         0.37          3.0 
       554.0         0.27          3.3 
       555.0         0.27          3.1 
       556.0         0.27          3.1 
       557.0         0.28          2.8 
       558.0         0.27          2.7 
       559.0         0.33          2.9 
       560.0         0.33          3.0 
       561.0         0.37          3.6 
       562.0         4.88          7.1 
       563.0         0.27          3.3 
       564.0         0.28          3.4 
       565.0         0.27          3.9 
       566.0         0.37          4.3 
       567.0         0.43          5.7 
       568.0         0.30          5.8 
       569.0         0.37          4.5 
       570.0         0.30          4.2 
       571.0         0.30          4.3 
       572.0         0.23          4.2 
       573.0         0.23          3.8 
       574.0         0.20          3.9 
       575.0         0.35          3.5 
       576.0         0.53          3.4 
       577.0         0.50          3.4 
