~Version Information
VERS.                      2.0: CWLS Log ASCII Standard - VERSION 2.0
WRAP.                       NO: One line per depth step
~Well Information Block
STRT.FT               655.0000: 
STOP.FT              2623.7500: 
STEP.FT                 0.2500: 
NULL.                -999.2500: 
COMP.          Pioneer Natural Resources: COMPANY
WELL.             Aviator 12-4: WELL
FLD.           Purgatoire River: FIELD
LOC.           1969' FNL & 732' FWL--: LOCATION
CNTY.               Las Animas: COUNTY
SRVC.                Patterson: SERVICE COMPANY
DATE.          Sun Apr 09 14:25:03 2006: LOG DATE
UWI.           05 071 08714 00: UNIQUE WELL ID
STAT.                 Colorado: STATE
~Curve Information Block
DEPT.FT            0 000 00 00: Depth
SN.Ohm-m                      : IEL Short Normal
SP.mV                         : IEL Spontaneous Potential
DIR.Ohm-m                     : IEL Induction Resistivity
GR.GAPI                       : Gamma Ray
~Parameter Information Block
~A  Depth        SN          SP         DIR          GR     
# ...
  1291.5000     18.1133    -81.2942     13.6075    105.9262
  1291.7500     18.2496    -81.1839     13.4064    112.0792
  1292.0000     18.3369    -81.1304     13.3416    121.5621
  1292.2500     18.3307    -81.1289     13.3835    125.9071
  1292.5000     18.2680    -81.1783     13.5137    128.3361
  1292.7500     18.2251    -81.2801     13.7300    128.0753
  1293.0000     18.2615    -81.4359     14.0445    126.3770
  1293.2500     18.3740    -81.6448     14.4751    124.4005
  1293.5000     18.5121    -81.9001     15.0348    119.4282
  1293.7500     18.6636    -82.1869     15.7226    114.6240
  1294.0000     18.9131    -82.4820     16.5197    105.9842
  1294.2500     19.3988    -82.7554     17.3927    100.2955
  1294.5000     20.2287    -82.9751     18.3024     93.9725
  1294.7500     21.4173    -83.1131     19.2128     92.0676
  1295.0000     22.8424    -83.1513     20.0936     92.6734
  1295.2500     24.3010    -83.0858     20.9169     94.8139
  1295.5000     25.6626    -82.9282     21.6551     99.8011
  1295.7500     26.9025    -82.7035     22.2864    104.1668
  1296.0000     28.0021    -82.4461     22.8037    111.9991
  1296.2500     28.9249    -82.1935     23.2205    117.4621
  1296.5000     29.6507    -81.9807     23.5676    124.1826
  1296.7500     30.1780    -81.8352     23.8870    126.6543
  1297.0000     30.5262    -81.7723     24.2264    126.5571
  1297.2500     30.7601    -81.7930     24.6371    124.0811
  1297.5000     31.0012    -81.8821     25.1701    117.6525
  1297.7500     31.3854    -82.0101     25.8685    112.4068
  1298.0000     31.9752    -82.1372     26.7566    104.6289
  1298.2500     32.7160    -82.2217     27.8274     99.9667
  1298.5000     33.4858    -82.2299     29.0322     93.6155
  1298.7500     34.1968    -82.1459     30.2813     89.6720
  1299.0000     34.8598    -81.9772     31.4634     84.7561
  1299.2500     35.5551    -81.7534     32.4804     82.8597
  1299.5000     36.3317    -81.5164     33.2734     83.0260
  1299.7500     37.1200    -81.3056     33.8249     85.0415
  1300.0000     37.7675    -81.1411     34.1485     89.6490
  1300.2500     38.1699    -81.0134     34.2893     92.8735
  1300.5000     38.3401    -80.8818     34.3321     96.9780
  1300.7500     38.3667    -80.6833     34.3913     99.0391
  1301.0000     38.3480    -80.3497     34.5728    101.0109
  1301.2500     38.3566    -79.8281     34.9293    101.5174
  1301.5000     38.4306    -79.0985     35.4380    101.1027
  1301.7500     38.5900    -78.1849     36.0180    100.2290
  1302.0000     38.8638    -77.1550     36.5856     98.4731
  1302.2500     39.2811    -76.1118     37.1113     97.1675
  1302.5000     39.8297    -75.1757     37.6301     95.0082
  1302.7500     40.4545    -74.4620     38.1933     93.4623
  1303.0000     41.1075    -74.0596     38.8102     91.5375
  1303.2500     41.7893    -74.0143     39.4388     91.0981
  1303.5000     42.5329    -74.3214     40.0279     92.3994
  1303.7500     43.3504    -74.9292     40.5623     94.4073
  1304.0000     44.1993    -75.7512     41.0638     97.8312
  1304.2500     45.0064    -76.6850     41.5609     99.3717
  1304.5000     45.7227    -77.6311     42.0720     99.2243
  1304.7500     46.3475    -78.5089     42.6176     97.3050
  1305.0000     46.9020    -79.2654     43.2301     92.4968
  1305.2500     47.3814    -79.8772     43.9334     88.8580
  1305.5000     47.7487    -80.3454     44.6975     84.3231
  1305.7500     47.9998    -80.6864     45.4110     82.7188
  1306.0000     48.2042    -80.9199     45.9107     83.3410
  1306.2500     48.4513    -81.0598     46.0692     85.8100
  1306.5000     48.7774    -81.1078     45.8851     91.5050
  1306.7500     49.1445    -81.0548     45.4975     95.4590
  1307.0000     49.4577    -80.8873     45.1061     99.5503
  1307.2500     49.5954    -80.5984     44.8588    100.2335
  1307.5000     49.4671    -80.1983     44.7821     97.7030
  1307.7500     49.0690    -79.7204     44.7863     93.8373
  1308.0000     48.4701    -79.2180     44.7366     85.7036
  1308.2500     47.7535    -78.7538     44.5460     79.4868
  1308.5000     47.0131    -78.3839     44.2284     70.3791
  1308.7500     46.3821    -78.1428     43.8758     65.2075
  1309.0000     45.9747    -78.0359     43.5906     59.7072
  1309.2500     45.8053    -78.0401     43.4339     57.6978
  1309.5000     45.8198    -78.1138     43.4155     56.5953
  1309.7500     45.9668    -78.2107     43.5103     56.3670
  1310.0000     46.1949    -78.2933     43.6782     55.3644
  1310.2500     46.4339    -78.3403     43.8754     53.8781
  1310.5000     46.6264    -78.3493     44.0699     50.9804
  1310.7500     46.7727    -78.3321     44.2611     49.2681
  1311.0000     46.9421    -78.3081     44.4912     47.7056
  1311.2500     47.2352    -78.2969     44.8284     47.3139
  1311.5000     47.7084    -78.3127     45.3309     47.4340
  1311.7500     48.3342    -78.3615     46.0134     47.8579
  1312.0000     49.0396    -78.4410     46.8397     48.7664
  1312.2500     49.7590    -78.5424     47.7455     49.4070
  1312.5000     50.4427    -78.6529     48.6707     50.2231
  1312.7500     51.0493    -78.7597     49.5730     50.4969
  1313.0000     51.5572    -78.8519     50.4066     50.0885
  1313.2500     51.9847    -78.9225     51.0958     49.1891
  1313.5000     52.3769    -78.9683     51.5395     47.4699
  1313.7500     52.7603    -78.9906     51.6531     46.7533
  1314.0000     53.1185    -78.9940     51.4026     47.3139
  1314.2500     53.3897    -78.9862     50.7948     48.8610
  1314.5000     53.4663    -78.9775     49.8499     52.2518
  1314.7500     53.2252    -78.9802     48.6020     54.7466
  1315.0000     52.5968    -79.0074     47.1172     58.4111
  1315.2500     51.6348    -79.0711     45.4947     60.6557
  1315.5000     50.5218    -79.1798     43.8421     63.2286
  1315.7500     49.4680    -79.3367     42.2545     64.0676
  1316.0000     48.5781    -79.5373     40.8063     63.9110
  1316.2500     47.8016    -79.7683     39.5365     63.2223
  1316.5000     46.9688    -80.0082     38.4180     62.1974
  1316.7500     45.8257    -80.2281     37.3330     61.8660
  1317.0000     44.0511    -80.3952     36.0896     62.0552
  1317.2500     41.3782    -80.4769     34.4976     62.6071
  1317.5000     37.8307    -80.4462     32.4697     64.0509
  1317.7500     33.8420    -80.2876     30.0784     65.5286
  1318.0000     30.0579    -80.0007     27.5184     69.0139
  1318.2500     26.9475    -79.6020     25.0085     72.5983
  1318.5000     24.5857    -79.1236     22.7091     80.4580
  1318.7500     22.7667    -78.6073     20.6960     87.4346
  1319.0000     21.2488    -78.0982     18.9787     99.8944
  1319.2500     19.9038    -77.6365     17.5318    108.6163
  1319.5000     18.7245    -77.2514     16.3196    119.9277
  1319.7500     17.7494    -76.9584     15.3101    124.8549
  1320.0000     16.9881    -76.7584     14.4789    127.1323
  1320.2500     16.4043    -76.6408     13.8101    125.7446
  1320.5000     15.9483    -76.5877     13.2929    121.6423
  1320.7500     15.5846    -76.5780     12.9170    118.9803
  1321.0000     15.2921    -76.5913     12.6681    116.5248
  1321.2500     15.0585    -76.6103     12.5254    116.0391
  1321.5000     14.8831    -76.6218     12.4623    116.3605
  1321.7500     14.7695    -76.6178     12.4493    116.6951
  1322.0000     14.7073    -76.5947     12.4574    116.7374
  1322.2500     14.6735    -76.5534     12.4615    116.3777
  1322.5000     14.6511    -76.4981     12.4436    115.2787
  1322.7500     14.6343    -76.4359     12.3965    114.2071
  1323.0000     14.6225    -76.3748     12.3245    112.5597
  1323.2500     14.6195    -76.3229     12.2412    112.1080
  1323.5000     14.6328    -76.2863     12.1644    113.6453
  1323.7500     14.6636    -76.2687     12.1092    116.2457
  1324.0000     14.7005    -76.2702     12.0841    121.1551
  1324.2500     14.7219    -76.2883     12.0912    124.0674
  1324.5000     14.7134    -76.3184     12.1323    127.2790
  1324.7500     14.6977    -76.3549     12.2139    129.0165
