~Version Information
VERS.                      2.0: CWLS Log ASCII Standard - VERSION 2.0
WRAP.                       NO: One line per depth step
~Well Information Block
STRT.FT               350.0000: 
STOP.FT              2808.2500: 
STEP.FT                 0.2500: 
NULL.                -999.2500: 
COMP.          Pioneer Natural Resources: COMPANY
WELL.          Grey Goose 33-30: WELL
FLD.           Purgatoire River: FIELD
LOC.           2136' FSL & 2065' FEL--: LOCATION
STAT.                 Colorado: State
CNTY.               Las Animas: COUNTY
CTRY. USA : Country
SECT. 30 : Section
TOWN. 32S : Township
RANG. 67W : Range
SRVC.                Patterson: SERVICE COMPANY
DATE.          Fri Nov 04 09:00:45 2005: LOG DATE
API.           05 071 08546 00: UNIQUE WELL ID
~Curve Information Block
DEPT.FT            0 000 00 00: Depth
DIR.Ohm-m                     : IEL Induction Resistivity
SN.Ohm-m                      : IEL Short Normal
SP.mV                         : IEL Spontaneous Potential
GR.GAPI                       : Gamma Ray
~Parameter Information Block
~A  Depth       DIR          SN          SP          GR     
# ...
  2125.5000      7.5202      7.3205     35.4519    138.7143
  2125.7500      7.5762      7.4562     35.1991    137.7643
  2126.0000      7.6600      7.6287     34.9030    136.9372
  2126.2500      7.7656      7.8084     34.5911    136.5335
  2126.5000      7.8827      7.9692     34.2870    135.4426
  2126.7500      7.9995      8.0990     34.0089    134.2352
  2127.0000      8.1072      8.2028     33.7691    131.9634
  2127.2500      8.2028      8.2955     33.5740    130.4044
  2127.5000      8.2882      8.3928     33.4233    128.6361
  2127.7500      8.3683      8.5036     33.3101    128.2756
  2128.0000      8.4480      8.6264     33.2208    129.0831
  2128.2500      8.5320      8.7492     33.1362    129.9596
  2128.5000      8.6260      8.8551     33.0339    130.5413
  2128.7500      8.7379      8.9334     32.8909    130.1968
  2129.0000      8.8774      8.9851     32.6873    129.1053
  2129.2500      9.0532      9.0174     32.4079    128.4107
  2129.5000      9.2701      9.0334     32.0437    127.5740
  2129.7500      9.5280      9.0326     31.5931    126.8338
  2130.0000      9.8234      9.0241     31.0612    124.7299
  2130.2500     10.1530      9.0509     30.4597    122.5734
  2130.5000     10.5171      9.2067     29.8056    118.6546
  2130.7500     10.9215      9.6287     29.1212    115.8342
  2131.0000     11.3761     10.4455     28.4322    111.4223
  2131.2500     11.8918     11.6934     27.7670    108.4832
  2131.5000     12.4743     13.2539     27.1552    104.4402
  2131.7500     13.1169     14.8761     26.6254    102.1249
  2132.0000     13.7925     16.2845     26.2046     99.4115
  2132.2500     14.4501     17.2919     25.9160     98.3189
  2132.5000     15.0206     17.8398     25.7777     97.8839
  2132.7500     15.4335     17.9665     25.8016     98.1444
  2133.0000     15.6394     17.7552     25.9915     98.9570
  2133.2500     15.6288     17.3000     26.3431     99.9802
  2133.5000     15.4329     16.6952     26.8424    103.0457
  2133.7500     15.1084     16.0297     27.4664    106.3128
  2134.0000     14.7153     15.3786     28.1837    112.4682
  2134.2500     14.2982     14.7933     28.9563    116.7259
  2134.5000     13.8804     14.2962     29.7425    122.2011
  2134.7500     13.4692     13.8836     30.4996    124.7673
  2135.0000     13.0682     13.5390     31.1878    126.6243
  2135.2500     12.6875     13.2489     31.7726    126.6731
  2135.5000     12.3453     13.0163     32.2271    125.8134
  2135.7500     12.0634     12.8628     32.5317    125.1652
  2136.0000     11.8610     12.8230     32.6737    124.3822
  2136.2500     11.7528     12.9313     32.6439    123.7644
  2136.5000     11.7507     13.2096     32.4348    122.2303
  2136.7500     11.8655     13.6621     32.0380    120.6928
  2137.0000     12.1063     14.2795     31.4448    117.6482
  2137.2500     12.4811     15.0498     30.6473    115.2095
  2137.5000     12.9972     15.9721     29.6432    111.0281
  2137.7500     13.6635     17.0637     28.4398    107.7156
  2138.0000     14.4931     18.3637     27.0589    101.0742
  2138.2500     15.5029     19.9350     25.5393     94.9288
  2138.5000     16.7094     21.8623     23.9361     82.9201
  2138.7500     18.1231     24.2427     22.3166     73.8052
  2139.0000     19.7413     27.1658     20.7543     60.9872
  2139.2500     21.5407     30.6628     19.3199     54.5316
  2139.5000     23.4686     34.6163     18.0742     49.4132
  2139.7500     25.4372     38.7015     17.0619     48.9886
  2140.0000     27.3250     42.4603     16.3092     51.7764
  2140.2500     28.9957     45.4876     15.8236     55.1676
  2140.5000     30.3314     47.5756     15.5966     61.3242
  2140.7500     31.2648     48.7242     15.6075     65.3912
  2141.0000     31.7900     49.0636     15.8272     70.3182
  2141.2500     31.9511     48.7785     16.2223     72.6642
  2141.5000     31.8292     48.0661     16.7580     75.5566
  2141.7500     31.5357     47.1146     17.4001     77.6268
  2142.0000     31.1994     46.0861     18.1168     81.1229
  2142.2500     30.9378     45.1028     18.8791     83.4723
  2142.5000     30.8230     44.2365     19.6606     86.7786
  2142.7500     30.8629     43.5058     20.4359     88.8184
  2143.0000     31.0113     42.8853     21.1785     91.2866
  2143.2500     31.2021     42.3353     21.8587     92.1203
  2143.5000     31.3876     41.8422     22.4416     91.6167
  2143.7500     31.5608     41.4430     22.8882     90.1587
  2144.0000     31.7483     41.2144     23.1571     87.0710
  2144.2500     31.9851     41.2331     23.2093     85.1434
  2144.5000     32.2924     41.5358     23.0144     83.3994
  2144.7500     32.6696     42.1081     22.5554     82.8693
  2145.0000     33.0994     42.9043     21.8338     81.5570
  2145.2500     33.5528     43.8776     20.8704     79.4033
  2145.5000     33.9890     44.9944     19.7053     73.8929
  2145.7500     34.3549     46.2288     18.3940     69.3686
  2146.0000     34.5952     47.5509     17.0026     63.0682
  2146.2500     34.6749     48.9147     15.6037     59.9262
  2146.5000     34.5995     50.2387     14.2709     56.9756
  2146.7500     34.4071     51.3840     13.0769     55.8280
  2147.0000     34.1361     52.1640     12.0912     54.7762
  2147.2500     33.7880     52.3994     11.3795     54.5346
  2147.5000     33.3119     51.9721     11.0026     55.3315
  2147.7500     32.6150     50.8224     11.0135     56.8699
  2148.0000     31.5912     48.9041     11.4534     60.6866
  2148.2500     30.1579     46.1701     12.3460     63.9967
  2148.5000     28.2926     42.6335     13.6917     69.3693
  2148.7500     26.0607     38.4586     15.4641     72.7380
  2149.0000     23.6146     33.9815     17.6096     77.1888
  2149.2500     21.1511     29.6087     20.0504     80.1919
  2149.5000     18.8457     25.6575     22.6915     86.1078
  2149.7500     16.8050     22.2632     25.4288     91.4760
  2150.0000     15.0612     19.4037     28.1586    101.1647
  2150.2500     13.5953     16.9847     30.7862    107.8908
  2150.5000     12.3648     14.9123     33.2324    117.1531
  2150.7500     11.3250     13.1230     35.4385    122.4334
  2151.0000     10.4399     11.5849     37.3687    128.5223
  2151.2500      9.6858     10.2910     39.0100    130.8289
  2151.5000      9.0488      9.2535     40.3695    130.8777
  2151.7500      8.5190      8.4896     41.4705    128.9688
  2152.0000      8.0863      7.9963     42.3465    125.5361
  2152.2500      7.7385      7.7318     43.0354    124.4595
  2152.5000      7.4623      7.6187     43.5746    125.4776
  2152.7500      7.2436      7.5673     43.9969    126.9426
  2153.0000      7.0683      7.5081     44.3289    128.0764
  2153.2500      6.9230      7.4129     44.5902    127.6539
  2153.5000      6.7961      7.2933     44.7949    126.0402
  2153.7500      6.6796      7.1799     44.9530    124.9457
  2154.0000      6.5697      7.0999     45.0718    123.7063
  2154.2500      6.4665      7.0649     45.1574    123.1139
  2154.5000      6.3719      7.0682     45.2151    122.7299
  2154.7500      6.2888      7.0909     45.2493    123.1717
  2155.0000      6.2198      7.1129     45.2634    125.4083
  2155.2500      6.1677      7.1211     45.2598    127.7850
  2155.5000      6.1343      7.1142     45.2397    131.6031
  2155.7500      6.1201      7.1013     45.2043    133.6083
  2156.0000      6.1238      7.0959     45.1545    135.0183
  2156.2500      6.1434      7.1057     45.0924    134.7895
  2156.5000      6.1779      7.1290     45.0209    133.1767
  2156.7500      6.2279      7.1597     44.9432    131.7929
  2157.0000      6.2962      7.1918     44.8619    130.0318
  2157.2500      6.3860      7.2170     44.7777    129.2547
  2157.5000      6.4986      7.2205     44.6884    128.7598
  2157.7500      6.6315      7.1830     44.5888    128.9086
  2158.0000      6.7788      7.0903     44.4709    129.8409
  2158.2500      6.9317      6.9456     44.3263    130.8208
  2158.5000      7.0822      6.7778     44.1471    132.3892
  2158.7500      7.2251      6.6376     43.9283    133.1402
