~Version Information
VERS.                      2.0: CWLS Log ASCII Standard - VERSION 2.0
WRAP.                       NO: One line per depth step
~Well Information Block
STRT.FT               -10.2500: 
STOP.FT              2871.7500: 
STEP.FT                 0.2500: 
NULL.                -999.2500: 
COMP.          Pioneer Natural Resources: COMPANY
WELL.          Grey Goose 33-30: WELL
FLD.           Purgatorie River: FIELD
LOC.           2136' FSL & 2065' FEL--: LOCATION
STAT.                       CO: State
CNTY.               Las Animas: COUNTY
CTRY. USA : Country
SECT. 30  : Section
TOWN. 32S : Township
RANG. 67W : Range
SRVC.          Patterson Wireline: SERVICE COMPANY
DATE.          Tue Dec 06 12:24:57 2005: LOG DATE
API.            05 071 0854600: UNIQUE WELL ID
~Curve Information Block
DEPT.FT            0 000 00 00: Depth
CCL.                          : Casing Collar Locator
TT3.usec                      : CBL 3' Travel Time
AMP3.mV                       : CBL 3' Amplitude
GR.GAPI                       : Gamma Ray
~Parameter Information Block
~A  Depth       CCL         TT3         AMP3         GR     
# ...
  1128.7500      0.0000    725.8524     11.3228    137.4404
  1129.0000      0.0000    721.8242     11.3319    140.1695
  1129.2500      0.0000    717.6007     11.2903    140.5366
  1129.5000      0.0000    714.5558     11.1847    137.7040
  1129.7500      0.0000    713.5807     11.0277    132.6664
  1130.0000      0.0000    714.4103     10.8520    127.2975
  1130.2500      0.0000    716.2385     10.6899    122.5732
  1130.5000      0.0000    718.1891     10.5593    118.1446
  1130.7500      0.0000    719.0190     10.4698    113.9891
  1131.0000      0.0000    717.4560     10.4312    111.4383
  1131.2500      0.0000    713.4671     10.4428    111.6101
  1131.5000      0.0000    708.5706     10.4829    113.6953
  1131.7500      0.0000    704.5123     10.5250    115.8145
  1132.0000      0.0000    701.9980     10.5605    116.9832
  1132.2500      0.0000    700.7420     10.5939    117.4507
  1132.5000      0.0000    700.2153     10.6202    117.6410
  1132.7500      0.0000    700.1223     10.6192    117.6896
  1133.0000      0.0000    700.4979     10.5739    117.8709
  1133.2500      0.0000    701.6978     10.4883    118.5227
  1133.5000      0.0000    704.2742     10.3844    119.3591
  1133.7500      0.0000    708.4794     10.2868    119.6409
  1134.0000      0.0000    713.5391     10.2086    119.3081
  1134.2500      0.0000    717.6459     10.1496    119.4626
  1134.5000      0.0000    719.2303     10.1010    121.3447
  1134.7500      0.0000    718.2314     10.0523    124.9154
  1135.0000      0.0000    715.6963     10.0015    128.5047
  1135.2500      0.0000    712.4277      9.9710    129.8978
  1135.5000      0.0000    708.6887     10.0122    127.9676
  1135.7500      0.0000    704.9118     10.1764    123.3813
  1136.0000      0.0000    701.8492     10.4702    117.8901
  1136.2500      0.0000    700.0079     10.8394    113.3332
  1136.5000      0.0000    699.4066     11.2072    111.1943
  1136.7500      0.0000    699.9190     11.5295    112.1257
  1137.0000      0.0000    701.5536     11.8152    115.2108
  1137.2500      0.0000    704.2156     12.0893    118.0913
  1137.5000      0.0000    707.3115     12.3425    118.4321
  1137.7500      0.0000    709.9385     12.5258    115.3391
  1138.0000      0.0000    711.6302     12.5987    109.4533
  1138.2500      0.0000    712.7303     12.5689    102.3044
  1138.5000      0.0000    714.0767     12.4756     95.9962
  1138.7500      0.0000    716.6135     12.3375     93.0411
  1139.0000      0.0000    720.9561     12.1313     95.2608
  1139.2500      0.0000    726.7244     11.8263    102.1007
  1139.5000      0.0000    732.4938     11.4394    110.5991
  1139.7500      0.0000    736.7968     11.0468    118.0383
  1140.0000      0.0000    738.9953     10.7374    124.3999
  1140.2500      0.0000    739.0776     10.5517    131.3783
  1140.5000      0.0000    737.0602     10.4660    139.4702
  1140.7500      0.0000    733.1194     10.4306    147.2127
  1141.0000      0.0000    728.3759     10.4164    152.7806
  1141.2500      0.0000    725.0398     10.4197    154.9102
  1141.5000      0.0000    725.0512     10.4351    152.7867
  1141.7500      0.0000    728.3839     10.4417    146.6300
  1142.0000      0.0000    733.0447     10.4213    138.3006
  1142.2500      0.0000    736.7648     10.3798    130.2342
  1142.5000      0.0000    738.3640     10.3424    123.7351
  1142.7500      0.0000    737.7538     10.3284    118.7900
  1143.0000      0.0000    735.4254     10.3327    115.1034
  1143.2500      0.0000    732.1534     10.3309    112.5394
  1143.5000      0.0000    728.5546     10.3012    110.7954
  1143.7500      0.0000    724.5347     10.2388    109.5207
  1144.0000      0.0000    719.6647     10.1511    109.1646
  1144.2500      0.0000    714.5154     10.0456    111.1248
  1144.5000      0.0000    711.1389      9.9272    116.2801
  1144.7500      0.0000    711.6317      9.8015    123.4042
  1145.0000      0.0000    716.1528      9.6732    129.4335
  1145.2500      0.0000    722.3506      9.5414    131.3251
  1145.5000      0.0000    726.6684      9.3978    128.0948
  1145.7500      0.0000    726.4828      9.2351    121.8226
  1146.0000      0.0000    721.5776      9.0618    116.5961
  1146.2500      0.0000    714.0338      8.9073    115.5207
  1146.5000      0.0000    706.6987      8.8075    118.3374
  1146.7500      0.0000    701.4517      8.7753    122.2427
  1147.0000      0.0000    698.5706      8.7826    125.0949
  1147.2500      0.0000    697.3226      8.7758    127.5746
  1147.5000      0.0000    696.8036      8.7172    132.0660
  1147.7500      0.0000    696.2941      8.6119    139.5196
  1148.0000      0.0000    695.2311      8.4927    147.8121
  1148.2500      0.0000    693.3009      8.3834    153.3321
  1148.5000      0.0000    690.8993      8.2800    154.0859
  1148.7500      0.0000    689.6143      8.1611    151.4157
  1149.0000      0.0000    691.8439      8.0167    148.7512
  1149.2500      0.0000    699.2548      7.8750    148.2878
  1149.5000      0.0000    711.2074      7.7964    148.9306
  1149.7500      0.0000    724.5735      7.8301    147.8565
  1150.0000      0.0000    735.0525      7.9760    143.4089
  1150.2500      0.0000    739.1302      8.1943    135.7049
  1150.5000      0.0000    735.8115      8.4451    125.7165
  1150.7500      0.0000    727.2449      8.7053    115.3532
  1151.0000      0.0000    717.6897      8.9521    107.6083
  1151.2500      0.0000    711.3508      9.1461    104.8952
  1151.5000      0.0000    710.3736      9.2394    107.0391
  1151.7500      0.0000    713.9368      9.2088    111.4271
  1152.0000      0.0000    718.7800      9.0863    115.1143
  1152.2500      0.0000    721.1345      8.9478    116.8437
  1152.5000      0.0000    719.0984      8.8552    117.5777
  1152.7500      0.0000    713.6510      8.8043    119.2392
  1153.0000      0.0000    707.4159      8.7337    122.5136
  1153.2500      0.0000    702.5219      8.5801    125.7802
  1153.5000      0.0000    699.5524      8.3239    126.4346
  1153.7500      0.0000    698.0157      7.9962    123.1833
  1154.0000      0.0000    697.2507      7.6607    116.9549
  1154.2500      0.0000    696.8767      7.3786    109.9533
  1154.5000      0.0000    696.7859      7.1670    104.1040
  1154.7500      0.0000    697.0424      6.9786    100.0640
  1155.0000      0.0000    698.0927      6.7316     97.3085
  1155.2500      0.0000    701.5096      6.3768     95.0248
  1155.5000      0.0000    710.8888      5.9481     92.9832
  1155.7500      0.0000    731.3566      5.5548     91.6189
  1156.0000      0.0000    765.6996      5.3159     91.1894
  1156.2500      0.0000    808.9799      5.2899     90.8846
  1156.5000      0.0000    848.2448      5.4538     89.4011
  1156.7500      0.0000    870.3091      5.7385     86.8456
  1157.0000      0.0000    870.0737      6.0731     85.4415
  1157.2500      0.0000    851.5250      6.4104     87.6099
  1157.5000      0.0000    824.0261      6.7391     93.6355
  1157.7500      0.0000    798.4084      7.0941    101.6440
  1158.0000      0.0000    781.7245      7.5523    109.4633
  1158.2500      0.0000    772.6152      8.2020    115.9748
  1158.5000      0.0000    763.7492      9.0816    121.1971
  1158.7500      0.0000    750.0555     10.1174    126.0506
  1159.0000      0.0000    733.2540     11.1243    132.0199
  1159.2500      0.0000    718.5970     11.8964    140.0516
  1159.5000      0.0000    709.5626     12.3233    149.3457
  1159.7500      0.0000    706.2557     12.4315    157.6504
  1160.0000      0.0000    706.8984     12.3365    163.1015
  1160.2500      0.0000    709.4754     12.1620    165.6746
  1160.5000      0.0000    712.5250     11.9905    166.6817
  1160.7500      0.0000    715.4048     11.8614    167.0845
  1161.0000      0.0000    717.7739     11.7889    166.9006
  1161.2500      0.0000    718.7831     11.7646    166.3369
  1161.5000      0.0000    717.4968     11.7519    166.4599
  1161.7500      0.0000    714.4512     11.7051    167.9839
  1162.0000      0.0000    712.0898     11.6081    170.1570
