~Version Information
 VERS.                                  2.0 : CWLS LAS VERSION
 WRAP.                                   NO : WRAPING MODE
 SWARE .                 MController 2.5.0N : SOFTWARE VERSION
~Well Information
 WELL.                         Mahalo 12-20 : WELL
 COMP.    Pioneer Natural Resources USA Inc : COMPANY
 FLD.                      Purgatoire River : FIELD
 LOC.                  SWNW Sec20 T33S R65W : LOCATION
 DATE.                             02/23/06 : DATE(S) LOGGED
 SRVC.       Blanco Geological Services LLC : SERVICE COMPANY
 STAT.                             Colorado : STATE
 CNTY.                           Las Animas : COUNTY
 CTRY.                                  USA : COUNTRY
 API.                       05-071-08700-00 : API NUMBER
 STRT.FT                             198.00 : START DEPTH
 STOP.FT                            1220.00 : STOP DEPTH
 STEP.FT                               1.00 : DEPTH INCREMENT
 NULL.                                -9999 : NULL VALUE
~Curve information
 DEPTH.FT                                   :
 ROP.MIN/FT                                 :
 GAS.UNITS                                  :
~ASCII Log data
# ...
       598.0         0.37          4.6 
       599.0         0.40          4.6 
       600.0         0.47          4.5 
       601.0         0.40          4.2 
       602.0         0.43          4.0 
       603.0         0.37          3.9 
       604.0         0.37          4.7 
       605.0         0.28          4.8 
       606.0         0.30          4.3 
       607.0         0.23          5.0 
       608.0         0.33          5.2 
       609.0         0.27          5.1 
       610.0         0.33          5.0 
       611.0         0.33          4.7 
       612.0         0.23          4.9 
       613.0         0.27          4.7 
       614.0         0.30          5.1 
       615.0         0.30          5.0 
       616.0         0.23          4.6 
       617.0         0.28          4.3 
       618.0         0.23          4.5 
       619.0         0.23          4.5 
       620.0         0.27          4.6 
       621.0         3.18         18.3 
       622.0         0.40          5.7 
       623.0         0.33          5.6 
       624.0         0.30          5.1 
       625.0         0.37          4.6 
       626.0         0.33          4.6 
       627.0         0.33          4.6 
       628.0         0.30          4.9 
       629.0         0.38          4.8 
       630.0         0.37          5.0 
       631.0         0.33          4.3 
       632.0         0.27          4.7 
       633.0         0.27          4.9 
       634.0         0.27          6.5 
       635.0         0.23          6.5 
       636.0         0.17          6.5 
       637.0         0.27          6.0 
       638.0         0.27          5.1 
       639.0         0.27          4.8 
       640.0         0.23          5.1 
       641.0         0.23          4.5 
       642.0         0.22          4.5 
       643.0         0.20          5.1 
       644.0         0.20          4.7 
       645.0         0.20          5.0 
       646.0         0.23          5.0 
       647.0         0.23          5.0 
       648.0         0.20          5.3 
       649.0         0.23          5.9 
       650.0         0.20          5.7 
       651.0         5.47         22.0 
       652.0         0.53          9.4 
       653.0         0.57          9.5 
       654.0         0.63          8.0 
       655.0         0.40          6.9 
       656.0         0.27          5.8 
       657.0         0.20          5.1 
       658.0         0.22          4.5 
       659.0         0.23          4.4 
       660.0         0.27          4.9 
       661.0         0.23          4.6 
       662.0         0.27          5.2 
       663.0         0.23          5.1 
       664.0         0.23          4.7 
       665.0         0.20          4.9 
       666.0         0.17          4.7 
       667.0         0.23          4.4 
       668.0         0.23          4.2 
       669.0         0.20          4.5 
       670.0         0.23          5.0 
       671.0         0.23          4.7 
       672.0         0.27          5.0 
       673.0         0.32          6.0 
       674.0         0.30          4.8 
       675.0         0.23          5.7 
       676.0         0.23          5.3 
       677.0         0.23          5.3 
       678.0         0.30          9.3 
       679.0         0.20         46.8 
       680.0         0.23         67.6 
       681.0         3.55        217.7 
       682.0         0.30         56.1 
       683.0         0.27         53.4 
       684.0         0.27         55.1 
       685.0         0.35         54.7 
       686.0         0.30         48.0 
       687.0         0.30         42.3 
       688.0         0.37         41.0 
       689.0         0.43         39.7 
       690.0         0.33         36.3 
       691.0         0.40         37.6 
       692.0         0.43         38.7 
       693.0         0.33         39.1 
       694.0         0.23         39.1 
       695.0         0.22         38.6 
       696.0         0.20         38.6 
       697.0         0.23         36.5 
       698.0         0.23         36.5 
       699.0         0.27         36.9 
       700.0         0.27         36.7 
       701.0         0.30         36.8 
       702.0         0.27         36.0 
       703.0         0.30         35.3 
       704.0         0.30         35.1 
       705.0         0.33         36.7 
       706.0         0.33         37.1 
       707.0         0.35         34.8 
       708.0         0.30         37.3 
       709.0         0.23         37.6 
       710.0         0.27         38.1 
       711.0         3.98        150.1 
       712.0         0.23         87.6 
       713.0         0.23        103.0 
       714.0         0.20        106.8 
       715.0         0.27        107.2 
       716.0         0.23        101.2 
       717.0         0.23         91.3 
       718.0         0.20         83.2 
       719.0         0.22         81.5 
       720.0         0.20         74.0 
       721.0         0.23         73.3 
       722.0         0.20         65.7 
       723.0         0.23         62.9 
       724.0         0.23         62.3 
       725.0         0.23         60.4 
       726.0         0.27         59.6 
       727.0         0.33         55.9 
       728.0         0.33         54.5 
       729.0         0.30         53.6 
       730.0         0.27         53.0 
       731.0         0.23         53.1 
       732.0         0.42         52.6 
       733.0         0.40         50.8 
       734.0         0.37         49.4 
       735.0         0.40         49.8 
       736.0         0.23         49.4 
       737.0         0.33         48.0 
       738.0         0.43         48.4 
       739.0         0.43         47.5 
       740.0         0.47         46.5 
       741.0         5.50        113.9 
       742.0         0.40         58.1 
       743.0         0.47         47.2 
       744.0         0.23         42.0 
       745.0         0.38         41.3 
       746.0         0.37         40.7 
       747.0         0.17         39.9 
       748.0         0.17         40.0 
       749.0         0.13         40.0 
       750.0         0.10         40.0 
       751.0         0.17         40.0 
       752.0         0.13         40.0 
       753.0         0.17         39.6 
       754.0         0.23         39.6 
       755.0         0.20         39.9 
       756.0         0.20         40.0 
       757.0         0.17         40.1 
       758.0         0.20         39.9 
       759.0         0.13         39.9 
       760.0         0.17         39.1 
       761.0         0.13         39.1 
       762.0         0.13         39.2 
       763.0         0.22         38.6 
       764.0         0.23         39.6 
       765.0         0.23         39.7 
       766.0         0.20         39.9 
       767.0         0.23         39.8 
       768.0         0.27         37.4 
       769.0         0.20         37.0 
       770.0         0.23         36.8 
       771.0         3.05         37.1 
       772.0         0.50        237.7 
       773.0         1.10        214.5 
       774.0         0.17         42.4 
       775.0         0.25         51.7 
       776.0         0.37         55.6 
       777.0         0.33         46.2 
       778.0         0.37         41.5 
       779.0         0.47         38.6 
       780.0         0.40         36.7 
       781.0         0.33         36.1 
       782.0         0.27         35.5 
       783.0         0.27         35.2 
       784.0         0.30         34.1 
       785.0         0.28         33.9 
       786.0         0.27         33.6 
       787.0         0.27         34.4 
       788.0         0.27         33.5 
       789.0         0.27         33.0 
       790.0         0.27         33.2 
       791.0         0.27         33.4 
       792.0         0.27         33.3 
       793.0         0.27         33.9 
       794.0         0.27         33.9 
       795.0         0.40         35.1 
       796.0         0.40         34.0 
       797.0         0.35         33.9 
