~Version Information
VERS.                      2.0: CWLS Log ASCII Standard - VERSION 2.0
WRAP.                       NO: One line per depth step
~Well Information Block
STRT.FT                -3.2500: 
STOP.FT               989.2500: 
STEP.FT                 0.2500: 
NULL.                -999.2500: 
COMP.          Pioneer Natural Resources: COMPANY
WELL.                Doc 34-30: WELL
FLD.           Purgatoire River: FIELD
LOC.           454' FSL & 1386' FEL: LOCATION
CNTY.               Las Animas: COUNTY
SRVC.                         : SERVICE COMPANY
DATE.          Wed Mar 08 14:28:55 2006: LOG DATE
UWI.           05 071 08694 00: UNIQUE WELL ID
STAT.                       CO: STATE
~Curve Information Block
DEPT.FT            0 000 00 00: Depth
GR.GAPI                       : Gamma Ray
CCL.                          : Casing Collar Locator
TT3.usec                      : CBL 3' Travel Time
AMP3.mV                       : CBL 3' Amplitude
~Parameter Information Block
~A  Depth        GR         CCL         TT3         AMP3    
# ...
   264.7500     90.3154      0.0000    651.9492      4.2418
   265.0000     96.3050      0.0000    654.0212      4.1727
   265.2500    103.3929      0.0000    654.6871      4.1816
   265.5000    110.4460      0.0000    652.7461      4.2700
   265.7500    115.8329      0.0000    649.1078      4.4178
   266.0000    118.3911      0.0000    646.2419      4.5992
   266.2500    118.0661      0.0000    646.3747      4.7835
   266.5000    115.7535      0.0000    649.6771      4.9371
   266.7500    112.7181      0.0000    654.3194      5.0311
   267.0000    110.1631      0.0000    658.2509      5.0497
   267.2500    108.9915      0.0000    660.6477      4.9961
   267.5000    109.4867      0.0000    661.8276      4.8911
   267.7500    111.0421      0.0000    662.3990      4.7674
   268.0000    112.4160      0.0000    662.6882      4.6578
   268.2500    112.4440      0.0000    662.6533      4.5792
   268.5000    110.6121      0.0000    661.9978      4.5266
   268.7500    107.1421      0.0000    660.3918      4.4856
   269.0000    102.7783      0.0000    657.8956      4.4491
   269.2500     98.5358      0.0000    655.3435      4.4222
   269.5000     95.4020      0.0000    654.0186      4.4137
   269.7500     93.9896      0.0000    654.5428      4.4227
   270.0000     94.3251      0.0000    656.1724      4.4333
   270.2500     95.8514      0.0000    657.4012      4.4239
   270.5000     97.5951      0.0000    657.2131      4.3862
   270.7500     98.4689      0.0000    655.8989      4.3330
   271.0000     97.6681      0.0000    655.1638      4.2874
   271.2500     94.9866      0.0000    657.4197      4.2658
   271.5000     90.8393      0.0000    664.4500      4.2700
   271.7500     86.0294      0.0000    676.4954      4.2874
   272.0000     81.4384      0.0000    692.8893      4.2979
   272.2500     77.9070      0.0000    713.2598      4.2836
   272.5000     76.4022      0.0000    737.0522      4.2393
   272.7500     78.0099      0.0000    761.9802      4.1734
   273.0000     83.2326      0.0000    785.1742      4.0986
   273.2500     91.1320      0.0000    806.5733      4.0249
   273.5000     99.4194      0.0000    828.5848      3.9598
   273.7500    105.6048      0.0000    851.7019      3.9106
   274.0000    108.2003      0.0000    873.5004      3.8810
   274.2500    107.0924      0.0000    891.0070      3.8693
   274.5000    102.9827      0.0000    899.3871      3.8693
   274.7500     96.7175      0.0000    890.2550      3.8745
   275.0000     89.4734      0.0000    858.3764      3.8785
   275.2500     83.2996      0.0000    811.0413      3.8742
   275.5000     80.5665      0.0000    766.1762      3.8572
   275.7500     82.4823      0.0000    740.1516      3.8299
   276.0000     88.3685      0.0000    738.4181      3.7999
   276.2500     96.1713      0.0000    754.2583      3.7726
   276.5000    103.2517      0.0000    772.1348      3.7506
   276.7500    107.2362      0.0000    775.5145      3.7370
   277.0000    107.1205      0.0000    758.2601      3.7352
   277.2500    103.7850      0.0000    728.9490      3.7428
   277.5000     99.0720      0.0000    701.6242      3.7507
   277.7500     94.2547      0.0000    683.8344      3.7507
   278.0000     89.4173      0.0000    674.7924      3.7427
   278.2500     84.1400      0.0000    671.0219      3.7332
   278.5000     78.5958      0.0000    670.0240      3.7290
   278.7500     73.8142      0.0000    670.2129      3.7338
   279.0000     70.7094      0.0000    670.9772      3.7479
   279.2500     69.0114      0.0000    674.2169      3.7669
   279.5000     67.5672      0.0000    683.8107      3.7819
   279.7500     65.7411      0.0000    700.5041      3.7870
   280.0000     64.1675      0.0000    716.3235      3.7871
   280.2500     63.9599      0.0000    717.3987      3.7933
   280.5000     65.3835      0.0000    696.0987      3.8113
   280.7500     67.4715      0.0000    659.4390      3.8373
   281.0000     68.8100      0.0000    622.8786      3.8648
   281.2500     68.5816      0.0000    597.3256      3.8914
   281.5000     67.0106      0.0000    583.9486      3.9200
   281.7500     65.0900      0.0000    578.4615      3.9541
   282.0000     64.0027      0.0000    576.6286      3.9932
   282.2500     64.6214      0.0000    576.1798      4.0313
   282.5000     67.1566      0.0000    576.2499      4.0592
   282.7500     71.0123      0.0000    576.5586      4.0697
   283.0000     75.0887      0.0000    576.9516      4.0627
   283.2500     78.4201      0.0000    577.3596      4.0465
   283.5000     80.5820      0.0000    577.8519      4.0341
   283.7500     81.5699      0.0000    578.6772      4.0380
   284.0000     81.5419      0.0000    580.1210      4.0684
   284.2500     80.9064      0.0000    582.1266      4.1303
   284.5000     80.4968      0.0000    584.0075      4.2209
   284.7500     81.2069      0.0000    584.8625      4.3323
   285.0000     83.1298      0.0000    584.6839      4.4611
   285.2500     85.1998      0.0000    584.9431      4.6193
   285.5000     85.9827      0.0000    587.6187      4.8339
   285.7500     84.8837      0.0000    593.4294      5.1363
   286.0000     82.5535      0.0000    601.0921      5.5452
   286.2500     80.3124      0.0000    608.3805      6.0577
   286.5000     79.2339      0.0000    614.0814      6.6513
   286.7500     79.5381      0.0000    619.2573      7.2898
   287.0000     80.6946      0.0000    626.9158      7.9244
   287.2500     82.0826      0.0000    639.5873      8.4962
   287.5000     83.4526      0.0000    655.1200      8.9527
   287.7500     84.8096      0.0000    664.3979      9.2714
   288.0000     86.1799      0.0000    656.4647      9.4674
   288.2500     87.7753      0.0000    629.0948      9.5757
   288.5000     90.2039      0.0000    592.9502      9.6289
   288.7500     93.8094      0.0000    562.7130      9.6466
   289.0000     97.5071      0.0000    545.0978      9.6361
   289.2500     99.0555      0.0000    536.7864      9.6014
   289.5000     97.1095      0.0000    531.6874      9.5470
   289.7500     92.4863      0.0000    527.3370      9.4696
   290.0000     87.0005      0.0000    524.8395      9.3445
   290.2500     81.7851      0.0000    525.3671      9.1362
   290.5000     77.2403      0.0000    528.1749      8.8410
   290.7500     73.8688      0.0000    531.1606      8.5236
   291.0000     72.2958      0.0000    532.3611      8.2977
   291.2500     72.6025      0.0000    531.0029      8.2573
   291.5000     74.0873      0.0000    527.4441      8.4257
   291.7500     75.7609      0.0000    522.1312      8.7630
   292.0000     76.9845      0.0000    514.9296      9.2009
   292.2500     77.7825      0.0000    505.7988      9.6637
   292.5000     78.7102      0.0000    495.7105     10.0839
   292.7500     80.3260      0.0000    486.1493     10.4257
   293.0000     82.7506      0.0000    477.6690     10.6997
   293.2500     85.8540      0.0000    469.4956     10.9496
   293.5000     89.7283      0.0000    460.7941     11.2276
   293.7500     94.5371      0.0000    451.9608     11.5719
   294.0000     99.7655      0.0000    444.3821     11.9772
   294.2500    103.9425      0.0000    439.1472     12.3636
   294.5000    105.5210      0.0000    436.3434     12.5994
   294.7500    104.2080      0.0000    435.4912     12.6023
   295.0000    101.3521      0.0000    436.3428     12.4341
   295.2500     98.9262      0.0000    439.2021     12.2647
   295.5000     98.0887      0.0000    444.5211     12.2153
   295.7500     98.6600      0.0000    452.0822     12.2495
   296.0000     99.6597      0.0000    460.5447     12.2289
   296.2500     99.9516      0.0000    468.0057     12.0541
   296.5000     98.5386      0.0000    473.1601     11.7402
   296.7500     94.9444      0.0000    475.9037     11.3865
   297.0000     89.7445      0.0000    476.9581     11.1068
   297.2500     84.6164      0.0000    477.1533     10.9742
   297.5000     81.4985      0.0000    477.0385     10.9960
   297.7500     81.2481      0.0000    476.9258     11.1215
   298.0000     82.8260      0.0000    477.1311     11.2768
