~Version Information
VERS.                      2.0: CWLS Log ASCII Standard - VERSION 2.0
WRAP.                       NO: One line per depth step
~Well Information Block
STRT.FT               550.0000: 
STOP.FT              1500.5000: 
STEP.FT                 0.2500: 
NULL.                -999.2500: 
COMP.          Pioneer Natural Resources: COMPANY
WELL.          Surtees 23-34 Tr: WELL
FLD.           Purgatoire River: FIELD
LOC.           1559' FSL & 1997' FWL: LOCATION
PROV.                 Colorado: PROVINCE
CNTY.               Las Animas: COUNTRY
SRVC.                Patterson: SERVICE COMPANY
DATE.          Tue Jul 26 23:47:42 2005: LOG DATE
UWI.           05 071 08449 00: UNIQUE WELL ID
~Curve Information Block
DEPT.FT            0 000 00 00: Depth
SN.Ohm-m                      : IEL Short Normal
SP.mV                         : IEL Spontaneous Potential
DIR.Ohm-m                     : IEL Induction Resistivity
GR.GAPI                       : Gamma Ray
~Parameter Information Block
~A  Depth        SN          SP         DIR          GR     
# ...
  1019.0000     16.0356    -20.5365     14.0314    132.6252
  1019.2500     15.7317    -20.6966     13.8636    129.9097
  1019.5000     15.5595    -20.8460     13.7132    126.2054
  1019.7500     15.3849    -20.9457     13.5681    124.6882
  1020.0000     15.0662    -20.9857     13.4074    124.3600
  1020.2500     14.5521    -20.9821     13.2147    125.3886
  1020.5000     13.9895    -20.9632     12.9926    128.1402
  1020.7500     13.6221    -20.9564     12.7640    130.0821
  1021.0000     13.5535    -20.9733     12.5579    131.9007
  1021.2500     13.7016    -21.0014     12.3929    132.0394
  1021.5000     13.9659    -21.0149     12.2701    130.9261
  1021.7500     14.2799    -21.0028     12.1787    129.6911
  1022.0000     14.5524    -20.9870     12.1076    127.7528
  1022.2500     14.7180    -21.0151     12.0542    126.8229
  1022.5000     14.7949    -21.1311     12.0247    126.5922
  1022.7500     14.8352    -21.3495     12.0274    127.2431
  1023.0000     14.8726    -21.6484     12.0670    128.8999
  1023.2500     14.9055    -21.9850     12.1438    130.1353
  1023.5000     14.9248    -22.3194     12.2570    131.7609
  1023.7500     14.9778    -22.6265     12.4058    132.2677
  1024.0000     15.1113    -22.8941     12.5901    131.1113
  1024.2500     15.2938    -23.1179     12.8111    128.7845
  1024.5000     15.5066    -23.3035     13.0728    123.9000
  1024.7500     15.7832    -23.4701     13.3829    120.8062
  1025.0000     16.1347    -23.6444     13.7508    117.7971
  1025.2500     16.5774    -23.8443     14.1816    116.9471
  1025.5000     17.1556    -24.0644     14.6715    116.6377
  1025.7500     17.8490    -24.2747     15.2045    116.5971
  1026.0000     18.5429    -24.4342     15.7560    116.2525
  1026.2500     19.1621    -24.5088     16.3007    115.4882
  1026.5000     19.7914    -24.4834     16.8232    112.7048
  1026.7500     20.5582    -24.3644     17.3249    109.4707
  1027.0000     21.4585    -24.1739     17.8231    103.1637
  1027.2500     22.3992    -23.9440     18.3444     98.9471
  1027.5000     23.3212    -23.7109     18.9144     94.4087
  1027.7500     24.2034    -23.5070     19.5454     93.1742
  1028.0000     24.9952    -23.3466     20.2288     93.7055
  1028.2500     25.6177    -23.2187     20.9333     94.8465
  1028.5000     26.0299    -23.0985     21.6167     96.1692
  1028.7500     26.2687    -22.9774     22.2451     96.1970
  1029.0000     26.4796    -22.8866     22.8098     94.8224
  1029.2500     26.8318    -22.8882     23.3274     93.3546
  1029.5000     27.3257    -23.0370     23.8214     91.2727
  1029.7500     27.8527    -23.3445     24.3001     90.2863
  1030.0000     28.3869    -23.7723     24.7475     89.3151
  1030.2500     28.9581    -24.2540     25.1331     88.8086
  1030.5000     29.5567    -24.7232     25.4334     88.1915
  1030.7500     30.1179    -25.1385     25.6471     88.0213
  1031.0000     30.5683    -25.4929     25.7926     88.4616
  1031.2500     30.8856    -25.8108     25.8944     89.3806
  1031.5000     31.1140    -26.1335     25.9756     91.8300
  1031.7500     31.3377    -26.5039     26.0648     94.0740
  1032.0000     31.5896    -26.9514     26.2006     97.7496
  1032.2500     31.7869    -27.4800     26.4163     99.8334
  1032.5000     31.8617    -28.0655     26.7073    101.3083
  1032.7500     31.9400    -28.6688     27.0141    110.8811
  1033.0000     32.2372    -29.2579     27.2509    108.0416
  1033.2500     32.7411    -29.8146     27.3734    105.5939
  1033.5000     33.1735    -30.3193     27.4312    101.8555
  1033.7500     33.3718    -30.7420     27.5512    108.0817
  1034.0000     33.5088    -31.0547     27.8680    102.6200
  1034.2500     33.8217    -31.2513     28.4504     98.8505
  1034.5000     34.3689    -31.3513     29.2738     94.4441
  1034.7500     35.0955    -31.3874     30.2450     92.6929
  1035.0000     35.9567    -31.3897     31.2646     91.2038
  1035.2500     36.9383    -31.3770     32.2802     90.3244
  1035.5000     37.9591    -31.3581     33.2864     88.4818
  1035.7500     38.8665    -31.3363     34.2741     86.8579
  1036.0000     39.6221    -31.3108     35.1834     83.9823
  1036.2500     40.3494    -31.2782     35.9145     81.7479
  1036.5000     41.1199    -31.2366     36.3938     77.7058
  1036.7500     41.8353    -31.1886     36.6377     74.6498
  1037.0000     42.4162    -31.1349     36.7514     70.4085
  1037.2500     42.9836    -31.0623     36.8714     68.4140
  1037.5000     43.6751    -30.9435     37.0984     66.9206
  1037.7500     44.4048    -30.7557     37.4703     66.5120
  1038.0000     45.0157    -30.5015     37.9718     65.7456
  1038.2500     45.5128    -30.2012     38.5567     64.7088
  1038.5000     45.9900    -29.8608     39.1677     62.2782
  1038.7500     46.4680    -29.4600     39.7531     60.3807
  1039.0000     46.9126    -28.9841     40.2778     57.7687
  1039.2500     47.3808    -28.4631     40.7222     56.2701
  1039.5000     48.0061    -27.9664     41.0730     54.0063
  1039.7500     48.8032    -27.5553     41.3181     52.3642
  1040.0000     49.6376    -27.2395     41.4571     50.1740
  1040.2500     50.3860    -26.9744     41.5082     49.3303
  1040.5000     51.0003    -26.6926     41.4848     49.3217
  1040.7500     51.4472    -26.3393     41.3636     50.1086
  1041.0000     51.6796    -25.8913     41.0800     52.4122
  1041.2500     51.6456    -25.3595     40.5734     54.6499
  1041.5000     51.2902    -24.7803     39.8397     58.6661
  1041.7500     50.5473    -24.2021     38.9381     61.5293
  1042.0000     49.3588    -23.6650     37.9501     66.2580
  1042.2500     47.7204    -23.1787     36.9389     70.0998
  1042.5000     45.7416    -22.7164     35.9444     77.3558
  1042.7500     43.6537    -22.2372     35.0001     83.0900
  1043.0000     41.6345    -21.7224     34.1404     92.4571
  1043.2500     39.6775    -21.1917     33.3906     98.7454
  1043.5000     37.7558    -20.6846     32.7555    107.1376
  1043.7500     35.9968    -20.2316     32.2245    111.3080
  1044.0000     34.5914    -19.8376     31.7896    114.7185
  1044.2500     33.6119    -19.4865     31.4575    115.3129
  1044.5000     32.9544    -19.1572     31.2380    114.7509
  1044.7500     32.4374    -18.8378     31.1180    113.8494
  1045.0000     32.0376    -18.5308     31.0479    111.5956
  1045.2500     31.9720    -18.2471     30.9601    109.2102
  1045.5000     32.4442    -17.9991     30.8072    104.2686
  1045.7500     33.4068    -17.7972     30.5898    100.3927
  1046.0000     34.5906    -17.6504     30.3518     94.5082
  1046.2500     35.6764    -17.5642     30.1558     91.0005
  1046.5000     36.4554    -17.5342     30.0607     87.1036
  1046.7500     36.8847    -17.5431     30.1124     85.7337
  1047.0000     37.0143    -17.5711     30.3416     85.5502
  1047.2500     36.9021    -17.6077     30.7610     86.3315
  1047.5000     36.6198    -17.6523     31.3515     87.9732
  1047.7500     36.2585    -17.7052     32.0330     88.9618
  1048.0000     35.9060    -17.7636     32.6455     90.0426
  1048.2500     35.6569    -17.8251     32.9831     90.5375
  1048.5000     35.6242    -17.8812     32.9002     90.9392
  1048.7500     35.8532    -17.9091     32.4136     90.8673
  1049.0000     36.1774    -17.8794     31.6974     90.2158
  1049.2500     36.2789    -17.7762     30.9827     89.6577
  1049.5000     36.0287    -17.6058     30.4610     89.3114
  1049.7500     35.6318    -17.3837     30.2479     89.6939
  1050.0000     35.3203    -17.1224     30.3841     91.2006
  1050.2500     35.1540    -16.8349     30.8454     92.5562
  1050.5000     35.1797    -16.5488     31.5485     94.3798
  1050.7500     35.4995    -16.3023     32.3618     95.0889
  1051.0000     36.1452    -16.1228     33.1348     95.3335
  1051.2500     37.0633    -16.0111     33.7493     95.1709
  1051.5000     38.1892    -15.9507     34.1688     94.3976
  1051.7500     39.4562    -15.9246     34.4433     93.0175
  1052.0000     40.8251    -15.9214     34.6638     88.8273
  1052.2500     42.2955    -15.9310     34.9057     84.8492
