~Version Information
VERS.                      2.0: CWLS Log ASCII Standard - VERSION 2.0
WRAP.                       NO: One line per depth step
~Well Information Block
STRT.FT                -8.0000: 
STOP.FT              1472.2500: 
STEP.FT                 0.2500: 
NULL.                -999.2500: 
COMP.          Pioneer Natural Resources: COMPANY
WELL.           Amore 32-09 Tr: WELL
FLD.           Purgatoire River: FIELD
LOC.           1941' FNL & 2297' FEL--: LOCATION
PROV.                       CO: PROVINCE
CNTY.               Las Animas: COUNTRY
SRVC.          Patterson Wireline: SERVICE COMPANY
DATE.          Tue Nov 22 11:37:00 2005: LOG DATE
UWI.           05 071 08584 00: UNIQUE WELL ID
~Curve Information Block
DEPT.FT            0 000 00 00: Depth
CCL.                          : Casing Collar Locator
TT3.usec                      : CBL 3' Travel Time
AMP3.mV                       : CBL 3' Amplitude
GR.GAPI                       : Gamma Ray
~Parameter Information Block
~A  Depth       CCL         TT3         AMP3         GR     
# ...
   293.5000      0.0000    747.5660      7.5786     55.3672
   293.7500      0.0000    747.9297      7.5771     54.3925
   294.0000      0.0000    754.3437      7.5446     54.0651
   294.2500      0.0000    775.1884      7.4344     53.9360
   294.5000      0.0000    817.2761      7.2244     53.6767
   294.7500      0.0000    877.1291      6.9652     53.4142
   295.0000      0.0000    940.1376      6.7549     53.6028
   295.2500      0.0000    992.7410      6.6573     54.4343
   295.5000      0.0000   1033.3198      6.6546     55.5225
   295.7500     -2.0000   1066.7349      6.6782     56.2448
   296.0000      0.0000   1091.1514      6.6737     56.3006
   296.2500      0.0000   1095.6899      6.6458     55.8853
   296.5000      0.0000   1070.2523      6.6605     55.3151
   296.7500      0.0000   1015.4471      6.8011     54.6077
   297.0000      0.0000    944.2952      7.0991     53.5912
   297.2500      0.0000    875.1121      7.5042     52.3631
   297.5000      0.0000    821.2975      7.9303     51.4171
   297.7500      0.0000    786.4099      8.3168     51.3151
   298.0000      0.0000    766.8749      8.6339     52.3033
   298.2500      0.0000    757.1944      8.8607     54.0783
   298.5000      0.0000    752.8929      8.9869     55.8343
   298.7500      0.0000    751.1324      9.0214     56.7326
   299.0000      0.0000    750.4003      8.9866     56.4845
   299.2500      0.0000    750.0429      8.9081     55.4635
   299.5000      0.0000    749.8336      8.8089     54.3504
   299.7500      0.0000    749.7087      8.7056     53.8067
   300.0000      0.0000    749.6429      8.6076     54.2694
   300.2500      0.0000    749.6314      8.5226     55.6793
   300.5000      0.0000    749.7088      8.4623     57.3868
   300.7500      0.0000    749.9380      8.4387     58.6328
   301.0000      0.0000    750.3488      8.4524     59.1897
   301.2500      0.0000    750.8734      8.4850     59.4347
   301.5000      0.0000    751.4023      8.5075     59.9355
   301.7500      0.0000    751.9473      8.4978     61.0357
   302.0000      0.0000    752.7542      8.4562     62.5396
   302.2500      0.0000    754.1675      8.4069     63.6043
   302.5000      0.0000    756.1951      8.3839     63.1994
   302.7500      0.0000    758.1609      8.4110     61.0734
   303.0000      0.0000    759.0867      8.4882     58.2563
   303.2500      0.0000    758.7740      8.5934     56.2140
   303.5000      0.0000    758.3165      8.6961     55.3637
   303.7500      0.0000    759.1276      8.7732     54.7302
   304.0000      0.0000    761.4491      8.8158     53.2030
   304.2500      0.0000    764.0076      8.8295     50.7765
   304.5000      0.0000    765.0659      8.8278     48.3221
   304.7500      0.0000    763.7248      8.8236     46.5600
   305.0000      0.0000    760.4393      8.8224     45.7621
   305.2500      0.0000    756.5535      8.8227     46.2467
   305.5000      0.0000    753.3316      8.8196     48.3729
   305.7500      0.0000    751.2787      8.8080     51.7028
   306.0000      0.0000    750.2038      8.7852     54.6859
   306.2500      0.0000    749.6827      8.7510     55.7117
   306.5000      0.0000    749.3948      8.7056     54.4489
   306.7500      0.0000    749.1970      8.6493     52.0178
   307.0000      0.0000    749.0567      8.5892     49.9607
   307.2500      0.0000    748.9642      8.5454     49.1429
   307.5000      0.0000    748.8779      8.5423     49.4605
   307.7500      0.0000    748.7574      8.5921     50.3766
   308.0000      0.0000    748.6182      8.6857     51.7547
   308.2500      0.0000    748.5268      8.7955     54.1641
   308.5000      0.0000    748.5439      8.8853     58.1486
   308.7500      0.0000    748.6895      8.9254     62.9830
   309.0000      0.0000    748.9584      8.9023     66.4849
   309.2500      0.0000    749.3384      8.8188     66.6422
   309.5000      0.0000    749.7971      8.6893     63.5482
   309.7500      0.0000    750.2616      8.5383     59.4219
   310.0000      0.0000    750.6273      8.3961     56.6564
   310.2500      0.0000    750.8079      8.2904     56.0866
   310.5000      0.0000    750.7913      8.2415     57.0991
   310.7500      0.0000    750.6465      8.2590     58.8174
   311.0000      0.0000    750.4597      8.3344     60.6431
   311.2500      0.0000    750.2708      8.4371     61.9752
   311.5000      0.0000    750.0919      8.5231     62.2476
   311.7500      0.0000    749.9548      8.5549     61.4692
   312.0000      0.0000    749.8842      8.5235     60.2988
   312.2500      0.0000    749.8264      8.4563     59.3756
   312.5000      0.0000    749.6648      8.4036     58.7521
   312.7500      0.0000    749.3266      8.4068     58.0016
   313.0000      0.0000    748.8530      8.4749     56.6514
   313.2500      0.0000    748.3595      8.5873     54.3653
   313.5000      0.0000    747.9538      8.7107     51.0063
   313.7500      0.0000    747.7276      8.8114     46.9875
   314.0000      0.0000    747.8335      8.8597     43.5840
   314.2500      0.0000    748.5626      8.8385     42.4113
   314.5000      0.0000    750.2333      8.7608     44.1814
   314.7500      0.0000    752.7660      8.6810     47.9812
   315.0000      0.0000    755.3106      8.6695     51.9134
   315.2500      0.0000    756.6681      8.7532     54.4180
   315.5000      0.0000    756.4834      8.8826     54.9393
   315.7500      0.0000    755.8000      8.9729     53.5647
   316.0000      0.0000    755.9891      8.9801     50.5699
   316.2500      0.0000    757.2372      8.9269     46.6191
   316.5000      0.0000    758.5547      8.8643     43.0021
   316.7500      0.0000    759.1901      8.8223     41.1148
   317.0000      0.0000    759.3428      8.7941     41.5727
   317.2500      0.0000    759.2672      8.7568     43.8821
   317.5000      0.0000    758.4739      8.7020     46.8335
   317.7500      0.0000    756.4406      8.6471     49.1712
   318.0000      0.0000    753.5945      8.6119     50.1504
   318.2500      0.0000    750.9924      8.5832     49.7525
   318.5000      0.0000    749.2819      8.5197     48.4255
   318.7500      0.0000    748.3629      8.4039     46.6808
   319.0000      0.0000    747.8341      8.2766     45.0013
   319.2500      0.0000    747.4296      8.2046     43.8594
   319.5000      0.0000    747.0860      8.2208     43.4330
   319.7500      0.0000    746.8176      8.3059     43.3379
   320.0000      0.0000    746.6302      8.4141     43.0213
   320.2500      0.0000    746.5068      8.5039     42.5306
   320.5000      0.0000    746.4240      8.5539     42.6342
   320.7500      0.0000    746.3632      8.5675     44.0143
   321.0000      0.0000    746.3243      8.5637     46.4796
   321.2500      0.0000    746.3318      8.5548     49.1425
   321.5000      0.0000    746.4178      8.5329     51.3223
   321.7500      0.0000    746.5959      8.4798     53.1673
   322.0000      0.0000    746.8499      8.3909     55.4685
   322.2500      0.0000    747.1487      8.2816     58.9348
   322.5000      0.0000    747.4689      8.1755     63.4479
   322.7500      0.0000    747.8068      8.0897     67.9714
   323.0000      0.0000    748.1702      8.0283     71.4567
   323.2500      0.0000    748.5529      7.9789     73.9283
   323.5000      0.0000    748.9427      7.9180     76.4019
   323.7500      0.0000    749.4059      7.8297     79.6668
   324.0000      0.0000    750.2048      7.7195     83.4171
   324.2500      0.0000    751.7227      7.6090     86.5967
   324.5000      0.0000    754.0069      7.5156     88.3244
   324.7500      0.0000    756.2798      7.4390     88.5320
   325.0000      0.0000    757.2303      7.3649     88.0122
   325.2500      0.0000    756.1544      7.2874     87.6681
   325.5000      0.0000    753.6763      7.2275     87.3665
   325.7500      0.0000    751.1229      7.2264     85.8388
   326.0000      0.0000    749.3870      7.3106     82.2547
   326.2500      0.0000    748.5435      7.4642     77.7332
   326.5000      0.0000    748.2435      7.6378     74.8799
   326.7500      0.0000    748.1619      7.7851     75.8891
