~Version Information
VERS.                      2.0: CWLS Log ASCII Standard - VERSION 2.0
WRAP.                       NO: One line per depth step
~Well Information Block
STRT.FT                -1.5000: 
STOP.FT              2898.5000: 
STEP.FT                 0.2500: 
NULL.                -999.2500: 
COMP.          Pioneer Natural Resources: COMPANY
WELL.          Hanginstone 21-27: WELL
FLD.           Purgatoire River: FIELD
LOC.           1186' FNL & 1606' FWL--: LOCATION
PROV.                 Colorado: PROVINCE
CNTY.               Las Animas: COUNTRY
SRVC.                Patterson: SERVICE COMPANY
DATE.          Mon Jan 23 11:03:53 2006: LOG DATE
UWI.           05 071 08632 00: UNIQUE WELL ID
~Curve Information Block
DEPT.FT            0 000 00 00: Depth
CCL.                          : Casing Collar Locator
TT3.usec                      : CBL 3' Travel Time
AMP3.mV                       : CBL 3' Amplitude
GR.GAPI                       : Gamma Ray
~Parameter Information Block
~A  Depth       CCL         TT3         AMP3         GR     
# ...
  1137.5000      0.0000    799.7194      9.6573     92.5321
  1137.7500      0.0000    811.4063      9.5575     97.4726
  1138.0000      0.0000    824.9911      9.5334    103.8595
  1138.2500      0.0000    836.9051      9.5265    111.1899
  1138.5000      0.0000    844.3095      9.4105    118.4968
  1138.7500      0.0000    846.3264      9.0894    124.5034
  1139.0000      0.0000    844.3239      8.5805    127.8284
  1139.2500      0.0000    840.9653      7.9997    127.4728
  1139.5000      0.0000    838.2083      7.4680    123.4011
  1139.7500      0.0000    835.9047      7.0395    116.8749
  1140.0000      0.0000    832.6528      6.7065    110.1712
  1140.2500      0.0000    827.9282      6.4475    105.3595
  1140.5000      0.0000    822.8265      6.2579    102.8008
  1140.7500      0.0000    818.8630      6.1389    100.9218
  1141.0000      0.0000    816.7828      6.0683     97.9387
  1141.2500      0.0000    816.7004      5.9959     94.0253
  1141.5000      0.0000    818.8254      5.8772     91.6609
  1141.7500      0.0000    823.5323      5.7203     93.7892
  1142.0000      0.0000    830.5826      5.5947    101.5710
  1142.2500      0.0000    838.4596      5.5830    113.5145
  1142.5000      0.0000    844.7762      5.7173    126.4388
  1142.7500      0.0000    847.5022      5.9629    137.4418
  1143.0000      0.0000    845.9474      6.2535    145.5862
  1143.2500      0.0000    841.0293      6.5292    151.9959
  1143.5000      0.0000    835.0144      6.7424    158.0229
  1143.7500      0.0000    830.7115      6.8553    163.3211
  1144.0000      0.0000    830.1503      6.8496    166.1076
  1144.2500      0.0000    833.4655      6.7401    165.2058
  1144.5000      0.0000    838.9041      6.5734    161.5023
  1144.7500      0.0000    844.0272      6.4057    157.5368
  1145.0000      0.0000    847.0525      6.2693    155.6541
  1145.2500      0.0000    847.1429      6.1566    156.0469
  1145.5000      0.0000    843.6957      6.0423    156.4266
  1145.7500      0.0000    835.8323      5.9226    153.9257
  1146.0000      0.0000    822.9035      5.8282    147.5430
  1146.2500      0.0000    805.5328      5.8008    138.9290
  1146.5000      0.0000    786.0857      5.8583    131.0712
  1146.7500      0.0000    767.9692      5.9753    126.2043
  1147.0000      0.0000    754.1822      6.0903    124.7012
  1147.2500      0.0000    746.2513      6.1443    125.6660
  1147.5000      0.0000    744.4852      6.1261    128.0889
  1147.7500      0.0000    748.9396      6.0837    130.9246
  1148.0000      0.0000    759.4172      6.0883    132.3087
  1148.2500      0.0000    774.1995      6.1888    129.7460
  1148.5000      0.0000    789.5863      6.3885    122.0670
  1148.7500      0.0000    801.7936      6.6469    111.1581
  1149.0000      0.0000    809.4235      6.8996    100.9152
  1149.2500      0.0000    813.7228      7.0945     94.2597
  1149.5000      0.0000    816.9146      7.2228     91.5316
  1149.7500      0.0000    820.8152      7.3163     91.3851
  1150.0000      0.0000    826.4071      7.4150     92.3870
  1150.2500      0.0000    833.6066      7.5357     93.7261
  1150.5000      0.0000    841.2037      7.6608     94.8838
  1150.7500      0.0000    847.5519      7.7485     95.0647
  1151.0000      0.0000    851.6721      7.7616     93.4750
  1151.2500      0.0000    853.6989      7.6986     90.3759
  1151.5000      0.0000    854.4219      7.5992     87.1726
  1151.7500      0.0000    854.6107      7.5147     84.8390
  1152.0000      0.0000    854.7084      7.4779     82.5685
  1152.2500      0.0000    854.8643      7.4974     78.6194
  1152.5000      0.0000    855.0731      7.5573     72.5469
  1152.7500      0.0000    855.3008      7.6156     66.0569
  1153.0000      0.0000    855.5490      7.6232     61.3573
  1153.2500      0.0000    855.8355      7.5641     59.1141
  1153.5000      0.0000    856.1437      7.4693     58.5511
  1153.7500      0.0000    856.4034      7.3906     59.1764
  1154.0000      0.0000    856.5201      7.3635     61.4978
  1154.2500      0.0000    856.3232      7.3826     65.8312
  1154.5000      0.0000    855.2905      7.3999     70.9237
  1154.7500      0.0000    852.0798      7.3566     74.1260
  1155.0000      0.0000    844.4017      7.2344     72.9568
  1155.2500      0.0000    830.1664      7.0747     66.8636
  1155.5000      0.0000    809.8633      6.9442     57.8935
  1155.7500      0.0000    788.0928      6.8876     49.4019
  1156.0000      0.0000    771.7759      6.9083     43.6106
  1156.2500      0.0000    765.7565      6.9739     40.4375
  1156.5000      0.0000    769.4371      7.0304     38.8170
  1156.7500      0.0000    777.1049      7.0316     38.6690
  1157.0000      0.0000    781.4959      6.9677     41.0542
  1157.2500      0.0000    778.1815      6.8645     46.5824
  1157.5000      0.0000    767.9272      6.7577     54.1766
  1157.7500      0.0000    755.3257      6.6751     61.4258
  1158.0000      0.0000    744.9824      6.6330     65.7578
  1158.2500      0.0000    738.7503      6.6341     65.3456
  1158.5000      0.0000    735.9188      6.6664     59.7446
  1158.7500      0.0000    734.9537      6.7145     50.4464
  1159.0000      0.0000    734.7238      6.7715     40.7327
  1159.2500      0.0000    734.7156      6.8381     34.2012
  1159.5000      0.0000    734.7921      6.9102     32.5943
  1159.7500      0.0000    735.0012      6.9727     34.7854
  1160.0000      0.0000    735.5055      7.0051     38.2532
  1160.2500      0.0000    736.5979      6.9977     41.6478
  1160.5000      0.0000    738.5913      6.9721     45.3844
  1160.7500      0.0000    741.4297      6.9835     49.7106
  1161.0000      0.0000    744.2792      7.0853     53.3769
  1161.2500      0.0000    745.8179      7.2811     54.9309
  1161.5000      0.0000    745.3237      7.5160     54.3625
  1161.7500      0.0000    743.4233      7.7180     52.5477
  1162.0000      0.0000    741.6414      7.8435     49.8127
  1162.2500      0.0000    741.5311      7.8908     46.0854
  1162.5000      0.0000    744.3767      7.8890     42.1238
  1162.7500      0.0000    751.0126      7.8821     39.8336
  1163.0000      0.0000    760.7709      7.9088     41.2688
  1163.2500      0.0000    770.2411      7.9768     47.4271
  1163.5000      0.0000    773.9642      8.0548     57.9034
  1163.7500      0.0000    767.8964      8.0901     71.5148
  1164.0000      0.0000    753.1173      8.0302     86.9363
  1164.2500      0.0000    736.2895      7.8392    102.6748
  1164.5000      0.0000    725.9728      7.5234    117.0342
  1164.7500      0.0000    727.2323      7.1580    128.7745
  1165.0000      0.0000    738.5730      6.8589    137.7859
  1165.2500      0.0000    754.0488      6.7031    144.9560
  1165.5000      2.0000    768.7393      6.6768    151.5031
  1165.7500      2.0000    781.7595      6.6934    158.2765
  1166.0000     -2.0000    794.2118      6.6490    165.2594
  1166.2500      0.0000    806.1137      6.4829    171.4768
  1166.5000      0.0000    816.1495      6.2205    175.3529
  1166.7500      0.0000    822.9295      5.9657    175.4054
  1167.0000      0.0000    825.5140      5.8388    171.2067
  1167.2500      0.0000    823.6975      5.9111    163.9463
  1167.5000      0.0000    818.6563      6.1852    155.9683
  1167.7500      0.0000    813.0067      6.6053    149.8754
  1168.0000      0.0000    809.4882      7.0706    147.8352
  1168.2500      0.0000    809.2299      7.4668    150.7498
  1168.5000      0.0000    811.2575      7.7214    157.2776
  1168.7500      0.0000    813.6980      7.8325    163.9785
  1169.0000      0.0000    815.3362      7.8408    167.0795
  1169.2500      0.0000    816.1577      7.7882    164.4062
  1169.5000      0.0000    817.0107      7.7147    155.9555
  1169.7500      0.0000    819.0615      7.6682    143.3842
  1170.0000      0.0000    823.1111      7.6799    129.4432
  1170.2500      0.0000    828.6858      7.7325    117.4778
  1170.5000      0.0000    833.5654      7.7749    110.2883
  1170.7500      0.0000    834.6893      7.7706    108.3988
