~Version Information
VERS.                      2.0: CWLS Log ASCII Standard - VERSION 2.0
WRAP.                       NO: One line per depth step
~Well Information Block
STRT.FT               460.0000: 
STOP.FT              2311.7500: 
STEP.FT                 0.2500: 
NULL.                -999.2500: 
COMP.          Pioneer Natural Resources: COMPANY
WELL.          McDonald 33-31 R: WELL
FLD.           Purgatoire River: FIELD
LOC.           1386' FSL & 1926' FEL: LOCATION
STAT.                 Colorado: State
CNTY.               Las Animas: COUNTY
CTRY.                      USA: Country
SECT.                       31: Section
TOWN.                      32S: Township
RANG.                      66W: Range
SRVC.                Patterson: SERVICE COMPANY
DATE.          Fri Sep 23 00:08:18 2005: LOG DATE
API.           05 071 08533 00: API#
~Curve Information Block
DEPT.FT            0 000 00 00: Depth
SN.Ohm-m                      : IEL Short Normal
SP.mV                         : IEL Spontaneous Potential
DIR.Ohm-m                     : IEL Induction Resistivity
GR.GAPI                       : Gamma Ray
~Parameter Information Block
~A  Depth        SN          SP         DIR          GR     
# ...
   594.0000     -0.3299   -418.0716      9.8084    127.4961
   594.2500     -0.3011   -417.9275      9.6624    127.0973
   594.5000     -0.2813   -417.7789      9.4792    127.2276
   594.7500     -0.2757   -417.6462      9.2747    127.2785
   595.0000     -0.2757   -417.5527      9.0685    126.4868
   595.2500     -0.2680   -417.5189      8.8794    125.3221
   595.5000     -0.2441   -417.5570      8.7226    123.1272
   595.7500     -0.2101   -417.6656      8.6092    121.7910
   596.0000     -0.1844   -417.8292      8.5455    120.6716
   596.2500     -0.1815   -418.0204      8.5343    120.6834
   596.5000     -0.1999   -418.2067      8.5734    121.1501
   596.7500     -0.2292   -418.3581      8.6566    120.8923
   597.0000     -0.2610   -418.4536      8.7748    118.6396
   597.2500     -0.2888   -418.4849      8.9190    116.1724
   597.5000     -0.3061   -418.4557      9.0834    112.5470
   597.7500     -0.3106   -418.3777      9.2646    110.9110
   598.0000     -0.3055   -418.2652      9.4582    109.8912
   598.2500     -0.2962   -418.1316      9.6536    110.0049
   598.5000     -0.2879   -417.9866      9.8329    111.2185
   598.7500     -0.2847   -417.8373      9.9748    112.7084
   599.0000     -0.2850   -417.6899     10.0618    115.4782
   599.2500     -0.2858   -417.5518     10.0861    116.9857
   599.5000     -0.2896   -417.4323     10.0521    117.6071
   599.7500     -0.3018   -417.3410      9.9755    116.9786
   600.0000     -0.3210   -417.2849      9.8797    116.0205
   600.2500     -0.3363   -417.2654      9.7904    116.5385
   600.5000     -0.3372   -417.2768      9.7288    120.1045
   600.7500     -0.3207   -417.3071      9.7068    123.9723
   601.0000     -0.2940   -417.3418      9.7253    129.9360
   601.2500     -0.2688   -417.3687      9.7776    132.7486
   601.5000     -0.2534   -417.3821      9.8538    134.5977
   601.7500     -0.2486   -417.3842      9.9451    134.8443
   602.0000     -0.2501   -417.3833     10.0459    134.7035
   602.2500     -0.2514   -417.3904     10.1551    134.0897
   602.5000     -0.2473   -417.4146     10.2761    131.4580
   602.7500     -0.2420   -417.4599     10.4161    128.5040
   603.0000     -0.2469   -417.5248     10.5826    123.4958
   603.2500     -0.2654   -417.6039     10.7804    120.7197
   603.5000     -0.2864   -417.6902     11.0087    118.1080
   603.7500     -0.2970   -417.7777     11.2589    117.0994
   604.0000     -0.2945   -417.8619     11.5136    115.8421
   604.2500     -0.2837   -417.9394     11.7480    114.9772
   604.5000     -0.2703   -418.0071     11.9350    113.7545
   604.7500     -0.2599   -418.0613     12.0530    113.0731
   605.0000     -0.2543   -418.0981     12.0933    112.4186
   605.2500     -0.2489   -418.1129     12.0620    112.4336
   605.5000     -0.2391   -418.1020     11.9788    113.5482
   605.7500     -0.2257   -418.0623     11.8712    115.1064
   606.0000     -0.2112   -417.9937     11.7655    118.2200
   606.2500     -0.1952   -417.9001     11.6785    120.1736
   606.5000     -0.1741   -417.7917     11.6114    121.6553
   606.7500     -0.1449   -417.6863     11.5500    121.3072
   607.0000     -0.1117   -417.6082     11.4715    119.2868
   607.2500     -0.0886   -417.5839     11.3554    117.7384
   607.5000     -0.0903   -417.6356     11.1909    116.5785
   607.7500     -0.1176   -417.7746     10.9773    117.0729
   608.0000     -0.1562   -417.9962     10.7191    119.4789
   608.2500     -0.1888   -418.2803     10.4210    121.5744
   608.5000     -0.2072   -418.5958     10.0878    124.6385
   608.7500     -0.2149   -418.9087      9.7283    126.7135
   609.0000     -0.2217   -419.1903      9.3580    130.4166
   609.2500     -0.2328   -419.4228      8.9984    133.2263
   609.5000     -0.2446   -419.6012      8.6710    137.0177
   609.7500     -0.2529   -419.7307      8.3929    138.6428
   610.0000     -0.2612   -419.8222      8.1736    139.2192
   610.2500     -0.2748   -419.8878      8.0161    138.4493
   610.5000     -0.2905   -419.9363      7.9200    136.2325
   610.7500     -0.2976   -419.9714      7.8843    134.6202
   611.0000     -0.2890   -419.9921      7.9086    132.7741
   611.2500     -0.2697   -419.9934      7.9940    131.9198
   611.5000     -0.2497   -419.9691      8.1409    130.4218
   611.7500     -0.2330   -419.9141      8.3476    128.8480
   612.0000     -0.2177   -419.8275      8.6075    125.9312
   612.2500     -0.2073   -419.7133      8.9085    124.4106
   612.5000     -0.2118   -419.5805      9.2344    123.9973
   612.7500     -0.2332   -419.4406      9.5669    124.9442
   613.0000     -0.2572   -419.3044      9.8878    126.9711
   613.2500     -0.2670   -419.1789     10.1806    127.8930
   613.5000     -0.2589   -419.0659     10.4313    127.8128
   613.7500     -0.2409   -418.9623     10.6313    126.7735
   614.0000     -0.2215   -418.8621     10.7790    124.4123
   614.2500     -0.2067   -418.7580     10.8795    122.8126
   614.5000     -0.2035   -418.6446     10.9417    120.7565
   614.7500     -0.2155   -418.5200     10.9742    119.5971
   615.0000     -0.2345   -418.3872     10.9845    118.6387
   615.2500     -0.2419   -418.2540     10.9794    119.2836
   615.5000     -0.2253   -418.1318     10.9658    123.2609
   615.7500     -0.1904   -418.0338     10.9490    127.5319
   616.0000     -0.1543   -417.9711     10.9303    133.5916
   616.2500     -0.1314   -417.9490     10.9059    135.5118
   616.5000     -0.1269   -417.9643     10.8703    133.8730
   616.7500     -0.1392   -418.0049     10.8227    130.4447
   617.0000     -0.1618   -418.0522     10.7694    124.0229
   617.2500     -0.1877   -418.0866     10.7224    119.8850
   617.5000     -0.2132   -418.0935     10.6925    114.6892
   617.7500     -0.2339   -418.0684     10.6844    112.1832
   618.0000     -0.2412   -418.0178     10.6948    110.4611
   618.2500     -0.2294   -417.9566     10.7144    110.8723
   618.5000     -0.2038   -417.9018     10.7306    113.3484
   618.7500     -0.1773   -417.8658     10.7295    115.5699
   619.0000     -0.1641   -417.8528     10.6981    118.6983
   619.2500     -0.1729   -417.8580     10.6264    120.3229
   619.5000     -0.1986   -417.8715     10.5130    121.9316
   619.7500     -0.2211   -417.8839     10.3677    122.4714
   620.0000     -0.2228   -417.8907     10.2093    122.5633
   620.2500     -0.2062   -417.8935     10.0588    122.2806
   620.5000     -0.1901   -417.8985      9.9312    121.8241
   620.7500     -0.1911   -417.9131      9.8321    121.7488
   621.0000     -0.2108   -417.9418      9.7599    121.9637
   621.2500     -0.2359   -417.9833      9.7116    122.2217
   621.5000     -0.2512   -418.0301      9.6862    122.9572
   621.7500     -0.2554   -418.0689      9.6863    123.8195
   622.0000     -0.2624   -418.0833      9.7160    125.3460
   622.2500     -0.2828   -418.0575      9.7791    126.1462
   622.5000     -0.3093   -417.9818      9.8782    126.8927
   622.7500     -0.3242   -417.8580     10.0170    127.3812
   623.0000     -0.3168   -417.7029     10.2019    128.4353
   623.2500     -0.2912   -417.5463     10.4419    129.0406
   623.5000     -0.2631   -417.4253     10.7449    128.5487
   623.7500     -0.2498   -417.3716     11.1132    126.6403
   624.0000     -0.2554   -417.4012     11.5426    121.2715
   624.2500     -0.2674   -417.5074     12.0281    116.4836
   624.5000     -0.2696   -417.6626     12.5714    108.4107
   624.7500     -0.2577   -417.8294     13.1854    102.6968
   625.0000     -0.2393   -417.9750     13.8893     93.8465
   625.2500     -0.2234   -418.0857     14.6969     88.1637
   625.5000     -0.2142   -418.1722     15.6020     81.2608
   625.7500     -0.2098   -418.2658     16.5650     78.3774
   626.0000     -0.2046   -418.4056     17.5054     76.6363
   626.2500     -0.1950   -418.6223     18.3089     76.6492
   626.5000     -0.1824   -418.9258     18.8557     77.6635
   626.7500     -0.1679   -419.2985     19.0651     79.1896
   627.0000     -0.1530   -419.6979     18.9321     83.8609
   627.2500     -0.1458   -420.0663     18.5282     88.8774
