~Version Information
VERS.                      2.0: CWLS Log ASCII Standard - VERSION 2.0
WRAP.                       NO: One line per depth step
~Well Information Block
STRT.FT               230.0000: 
STOP.FT               706.5000: 
STEP.FT                 0.1000: 
NULL.                -999.2500: 
COMP.          Pioneer Natural Resources: COMPANY
WELL.          Razor Clam 23-27: WELL
FLD.           Purgatoire River: FIELD
LOC.           2499' FSL & 2636' FWL: LOCATION
CNTY.               Las Animas: COUNTY
SRVC.                Patterson: SERVICE COMPANY
DATE.          Mon Feb 13 07:31:47 2006: LOG DATE
UWI.           05 071 08667 00: UNIQUE WELL ID
STAT.                 Colorado: STATE
~Curve Information Block
DEPT.FT            0 000 00 00: Depth
DCAL.in                       : CDL Caliper
RHOB.g/cc                     : CDL Bulk Density
RHOC.g/cc                     : CDL Density Correction
DPOR.pu                       : CDL Density Porosity
GR.GAPI                       : Gamma Ray
NPOR.pu                       : Neutron Porosity
~Parameter Information Block
~A  Depth       DCAL        RHOB        RHOC        DPOR         GR         NPOR    
# ...
   354.8000      8.0119      2.4770      0.0719     10.4853    136.9572     26.8707
   354.9000      8.0119      2.4847      0.0639     10.0188    143.0114     26.6345
   355.0000      8.0141      2.4894      0.0301      9.7326    146.5853     26.7569
   355.1000      8.0141      2.4985      0.0332      9.1821    146.7856     26.8855
   355.2000      8.0141      2.5123      0.0951      8.3471    145.0747     26.8692
   355.3000      8.0166      2.5228      0.0537      7.7069    143.9241     26.9343
   355.4000      8.0166      2.5288      0.1167      7.3429    140.7537     27.1446
   355.5000      8.0154      2.5267      0.1337      7.4754    136.4078     26.9885
   355.6000      8.0154      2.5133      0.1017      8.2864    136.2738     26.3901
   355.7000      8.0154      2.4971      0.0627      9.2658    140.5867     26.1619
   355.8000      8.0175      2.4937      0.0106      9.4736    147.1004     26.7071
   355.9000      8.0175      2.5045      0.0708      8.8198    154.0849     27.3306
   356.0000      8.0188      2.5058      0.0909      8.7411    155.9001     27.5962
   356.1000      8.0188      2.4867      0.0470      9.8983    153.3479     27.7177
   356.2000      8.0188      2.4699      0.0678     10.9140    154.3690     27.3720
   356.3000      8.0146      2.4701      0.0593     10.9030    159.9686     26.4732
   356.4000      8.0146      2.4709      0.1167     10.8537    164.4082     25.9469
   356.5000      8.0127      2.4617      0.0467     11.4108    160.3402     26.1982
   356.6000      8.0127      2.4590      0.0519     11.5749    150.0089     26.5041
   356.7000      8.0127      2.4626      0.0754     11.3549    146.2023     26.3319
   356.8000      8.0101      2.4554      0.0656     11.7964    149.4751     26.1273
   356.9000      8.0101      2.4478      0.0479     12.2538    146.3131     26.5065
   357.0000      8.0107      2.4632      0.0499     11.3184    137.2659     27.0310
   357.1000      8.0107      2.4940      0.0847      9.4535    137.5779     26.8507
   357.2000      8.0107      2.5112      0.1221      8.4102    144.7276     26.1955
   357.3000      8.0194      2.5058      0.0884      8.7397    144.7878     25.7957
   357.4000      8.0194      2.4959      0.0458      9.3366    138.6758     25.8690
   357.5000      8.0173      2.4932      0.0820      9.5042    131.5827     26.0255
   357.6000      8.0173      2.4883      0.0557      9.7990    128.1674     25.6617
   357.7000      8.0173      2.4725      0.0636     10.7573    131.7230     25.2021
   357.8000      8.0203      2.4524      0.0257     11.9775    133.8199     25.3578
   357.9000      8.0203      2.4462     -0.0104     12.3504    131.3779     25.8075
   358.0000      8.0230      2.4603      0.0234     11.4955    134.0061     25.9905
   358.1000      8.0230      2.4815      0.0209     10.2113    143.4058     25.9222
   358.2000      8.0230      2.4904      0.0559      9.6751    154.7841     25.6740
   358.3000      8.0192      2.4767      0.0461     10.5025    165.3696     25.1674
   358.4000      8.0192      2.4604     -0.0002     11.4895    167.5497     24.7840
   358.5000      8.0111      2.4683      0.0164     11.0095    156.6844     24.9426
   358.6000      8.0111      2.4859      0.0733      9.9434    144.3056     25.3929
   358.7000      8.0111      2.4829      0.0572     10.1250    140.1295     25.5804
   358.8000      7.9996      2.4659      0.0391     11.1574    141.7766     25.5231
   358.9000      7.9996      2.4583      0.0514     11.6188    146.0946     25.5589
   359.0000      8.0019      2.4648      0.0644     11.2259    150.6825     25.5629
   359.1000      8.0019      2.4743      0.1029     10.6476    153.6145     25.4409
   359.2000      8.0019      2.4757      0.0643     10.5661    153.6556     25.7785
   359.3000      8.0128      2.4645      0.1046     11.2443    153.3360     26.8729
   359.4000      8.0128      2.4454      0.0718     12.3977    155.2019     27.8966
   359.5000      8.0179      2.4324      0.0652     13.1865    151.9138     28.0567
   359.6000      8.0179      2.4343      0.0377     13.0714    145.3144     27.3406
   359.7000      8.0179      2.4483      0.0369     12.2254    148.7832     26.4823
   359.8000      8.0159      2.4619      0.0531     11.3976    160.0031     26.2509
   359.9000      8.0159      2.4600      0.1077     11.5161    165.0321     26.4668
   360.0000      7.9976      2.4528      0.0350     11.9519    157.5707     26.7501
   360.1000      7.9976      2.4717      0.0656     10.8069    144.6178     27.1879
   360.2000      7.9976      2.5102      0.1587      8.4731    138.5527     27.6758
   360.3000      7.9953      2.5357      0.1481      6.9243    141.3278     27.4322
   360.4000      7.9953      2.5465      0.1105      6.2718    144.2825     26.1737
   360.5000      7.9948      2.5549      0.1072      5.7657    142.3004     24.8872
   360.6000      7.9948      2.5595      0.1056      5.4847    137.0444     24.5621
   360.7000      7.9948      2.5597      0.1329      5.4734    128.6868     25.2028
   360.8000      8.0124      2.5593      0.1228      5.4973    118.2613     26.0409
   360.9000      8.0124      2.5541      0.1429      5.8094    115.7242     26.4396
   361.0000      7.9963      2.5326      0.1494      7.1172    125.9848     26.2321
   361.1000      7.9963      2.5022      0.0277      8.9579    139.8025     25.8032
   361.2000      7.9963      2.4909      0.0539      9.6425    147.4125     25.7107
   361.3000      8.0110      2.5008      0.1003      9.0399    145.4068     26.1252
   361.4000      8.0110      2.5110      0.0941      8.4233    138.3541     26.8386
   361.5000      8.0326      2.5144      0.0356      8.2159    133.5179     27.3361
   361.6000      8.0326      2.5158      0.0610      8.1343    128.4956     27.0353
   361.7000      8.0326      2.5162      0.0265      8.1112    118.2341     26.0546
   361.8000      8.0299      2.5177      0.0460      8.0194    109.8206     25.2433
   361.9000      8.0299      2.5307      0.0199      7.2276    111.1788     24.6285
   362.0000      8.0221      2.5634      0.0650      5.2504    117.0242     23.8128
   362.1000      8.0221      2.5967      0.0888      3.2291    118.4665     23.0865
   362.2000      8.0221      2.6011      0.0977      2.9607    113.2618     22.4460
   362.3000      8.0312      2.5815      0.0708      4.1507    102.2533     21.7107
   362.4000      8.0312      2.5672      0.0390      5.0203     88.6702     21.3818
   362.5000      8.0313      2.5621      0.0688      5.3283     75.9227     21.6111
   362.6000      8.0313      2.5519      0.0249      5.9464     63.5592     21.6013
   362.7000      8.0313      2.5335      0.0119      7.0630     54.5050     20.9923
   362.8000      8.0299      2.5058      0.0328      8.7400     54.9140     20.4812
   362.9000      8.0299      2.4747     -0.0461     10.6239     62.2779     20.6405
   363.0000      8.0248      2.4586     -0.0290     11.5987     69.2542     21.0640
   363.1000      8.0248      2.4614     -0.0275     11.4300     71.4343     20.9572
   363.2000      8.0248      2.4730     -0.0092     10.7281     68.2922     20.1265
   363.3000      8.0226      2.4894     -0.0086      9.7336     62.8623     18.9180
   363.4000      8.0226      2.5093      0.0159      8.5279     56.8189     18.1913
   363.5000      8.0137      2.5228      0.0478      7.7104     51.2560     18.8061
   363.6000      8.0137      2.5181      0.0301      7.9953     48.7323     20.3136
   363.7000      8.0137      2.4999      0.0178      9.0993     50.2263     20.8935
   363.8000      8.0200      2.4831      0.0118     10.1164     53.9320     19.7309
   363.9000      8.0200      2.4754     -0.0017     10.5839     55.5559     18.5244
   364.0000      8.0207      2.4778      0.0127     10.4384     52.6507     18.9124
   364.1000      8.0207      2.4863      0.0212      9.9185     48.3427     20.1289
   364.2000      8.0207      2.4932      0.0174      9.5012     48.5529     20.2070
   364.3000      8.0191      2.4945     -0.0055      9.4267     55.8882     19.1142
