~Version Information
VERS.                      2.0: CWLS Log ASCII Standard - VERSION 2.0
WRAP.                       NO: One line per depth step
~Well Information Block
STRT.FT               880.0000: 
STOP.FT              1996.5000: 
STEP.FT                 0.1000: 
NULL.                -999.2500: 
COMP.          Petrogulf Corporation: COMPANY
WELL.          Collister 17-31R: WELL
FLD.           Purgatorie River: FIELD
LOC.           962' FNL & 1520' FEL: LOCATION
PROV.                 Colorado: PROVINCE
CNTY.               Las Animas: COUNTRY
SRVC.                Patterson: SERVICE COMPANY
DATE.          Mon Sep 26 09:28:52 2005: LOG DATE
UWI.                          : UNIQUE WELL ID
~Curve Information Block
DEPT.FT            0 000 00 00: Depth
DCAL.in                       : CDL Caliper
RHOB.g/cc                     : CDL Bulk Density
RHOC.g/cc                     : CDL Density Correction
DPOR.pu                       : CDL Density Porosity
GR.GAPI                       : Gamma Ray
NPOR.pu                       : Neutron Porosity
~Parameter Information Block
~A  Depth       DCAL        RHOB        RHOC        DPOR         GR         NPOR    
# ...
  1177.6000      7.8812      2.6270      0.0972      1.3934    153.8859     26.7910
  1177.7000      7.8812      2.6269      0.0906      1.4022    155.7209     26.7685
  1177.8000      7.8387      2.6341      0.1126      0.9608    155.8769     26.5422
  1177.9000      7.8387      2.6516      0.1071     -0.0948    151.0438     26.4192
  1178.0000      7.8381      2.6663      0.1063     -0.9865    143.2713     26.5690
  1178.1000      7.8381      2.6769      0.0871     -1.6291    139.4577     26.9424
  1178.2000      7.8381      2.6922      0.1276     -2.5563    141.1684     27.4818
  1178.3000      7.8631      2.7102      0.1397     -3.6469    141.9848     28.1294
  1178.4000      7.8631      2.7215      0.1282     -4.3363    137.7352     28.7046
  1178.5000      7.8829      2.7173      0.1293     -4.0788    133.2815     28.9091
  1178.6000      7.8829      2.6934      0.0852     -2.6281    135.6311     28.6975
  1178.7000      7.8829      2.6680      0.0669     -1.0923    143.2160     28.3501
  1178.8000      7.8993      2.6631      0.0716     -0.7925    148.7928     28.1584
  1178.9000      7.8993      2.6741      0.0977     -1.4585    148.7351     28.3394
  1179.0000      7.8854      2.6846      0.0946     -2.0998    145.1125     28.7160
  1179.1000      7.8854      2.6937      0.0692     -2.6512    142.1201     28.9478
  1179.2000      7.8854      2.7085      0.0891     -3.5452    140.7789     29.0166
  1179.3000      7.8789      2.7182      0.0811     -4.1327    141.2507     28.9312
  1179.4000      7.8789      2.7050      0.0856     -3.3333    144.3040     28.7952
  1179.5000      7.8743      2.6711      0.0648     -1.2772    147.1021     28.7916
  1179.6000      7.8743      2.6385      0.0595      0.6945    146.3663     28.8225
  1179.7000      7.8743      2.6313      0.0552      1.1317    143.9285     28.7106
  1179.8000      7.8603      2.6501      0.0909     -0.0043    143.7251     28.5111
  1179.9000      7.8603      2.6676      0.1077     -1.0661    146.0046     28.3688
  1180.0000      7.8666      2.6599      0.0864     -0.5972    148.8501     28.2577
  1180.1000      7.8666      2.6342      0.0404      0.9566    150.7057     28.1760
  1180.2000      7.8666      2.6188      0.0662      1.8923    149.9817     28.3507
  1180.3000      7.8857      2.6258      0.0995      1.4685    147.4689     28.8107
  1180.4000      7.8857      2.6469      0.1052      0.1857    146.0404     29.2182
  1180.5000      7.8556      2.6724      0.1050     -1.3602    145.0080     29.2665
  1180.6000      7.8556      2.6977      0.0751     -2.8929    143.3621     29.0572
  1180.7000      7.8556      2.7163      0.1380     -4.0154    141.7904     28.8976
  1180.8000      7.8444      2.7135      0.1322     -3.8461    140.2522     28.7671
  1180.9000      7.8444      2.6873      0.0955     -2.2622    139.0095     28.7452
  1181.0000      7.8548      2.6553      0.0862     -0.3192    137.9357     29.1696
  1181.1000      7.8548      2.6338      0.0063      0.9825    136.4523     29.7227
  1181.2000      7.8548      2.6279      0.0164      1.3405    137.4780     29.7417
  1181.3000      7.8647      2.6294     -0.0043      1.2488    141.0392     29.3601
  1181.4000      7.8647      2.6310      0.0340      1.1522    144.9315     29.0659
  1181.5000      7.8644      2.6326      0.0326      1.0518    150.2028     28.9723
  1181.6000      7.8644      2.6406      0.0413      0.5718    153.4772     29.0682
  1181.7000      7.8644      2.6611      0.0503     -0.6741    149.8070     29.2253
  1181.8000      7.8953      2.6891      0.0778     -2.3724    141.7958     29.0573
  1181.9000      7.8953      2.7261      0.0482     -4.6095    133.8867     28.4289
  1182.0000      7.8776      2.7836      0.1317     -8.0994    128.9019     27.8180
  1182.1000      7.8776      2.8549      0.1140    -12.4181    128.8423     27.6622
  1182.2000      7.8776      2.9178      0.1674    -16.2304    130.8810     27.8008
  1182.3000      7.8399      2.9495      0.1493    -18.1537    131.2514     28.0363
  1182.4000      7.8399      2.9416      0.0809    -17.6731    131.3663     28.5164
  1182.5000      7.8342      2.9079      0.0212    -15.6286    133.6459     29.0417
  1182.6000      7.8342      2.8628      0.0382    -12.8953    137.5442     29.2118
  1182.7000      7.8342      2.8099      0.0157     -9.6916    141.2077     29.0377
  1182.8000      7.8362      2.7634     -0.0383     -6.8733    142.0928     28.7474
  1182.9000      7.8362      2.7451     -0.0688     -5.7666    138.9147     28.4707
  1183.0000      7.8469      2.7495     -0.0299     -6.0327    134.7642     28.3291
  1183.1000      7.8469      2.7500     -0.0296     -6.0583    132.9644     28.4740
  1183.2000      7.8469      2.7355     -0.0053     -5.1845    132.7077     28.6813
  1183.3000      7.8689      2.7192     -0.0075     -4.1960    129.2196     28.6992
  1183.4000      7.8689      2.7143      0.0412     -3.8982    121.5135     28.6006
  1183.5000      7.9046      2.7115      0.0790     -3.7266    116.7798     28.3312
  1183.6000      7.9046      2.6966      0.0837     -2.8267    120.0114     27.8954
  1183.7000      7.9046      2.6752     -0.0028     -1.5299    126.4628     27.4692
  1183.8000      7.9179      2.6619     -0.0178     -0.7235    130.3318     27.2160
  1183.9000      7.9179      2.6519      0.0948     -0.1124    131.2740     27.2802
  1184.0000      7.9010      2.6307      0.0239      1.1721    129.2523     27.6249
  1184.1000      7.9010      2.6110      0.0271      2.3655    123.3603     27.9280
  1184.2000      7.9010      2.6092      0.0513      2.4755    116.3860     27.8741
  1184.3000      7.8443      2.6103      0.0950      2.4041    114.2313     27.5701
  1184.4000      7.8443      2.5955      0.0608      3.3003    119.1020     27.3145
  1184.5000      7.8675      2.5713      0.0349      4.7724    127.8092     27.1552
  1184.6000      7.8675      2.5563     -0.0321      5.6797    136.0007     27.1035
  1184.7000      7.8675      2.5517      0.0591      5.9557    140.6805     27.1410
  1184.8000      7.9039      2.5427      0.0093      6.5028    142.7898     27.1275
  1184.9000      7.9039      2.5308      0.0080      7.2223    143.7280     27.0687
  1185.0000      7.9136      2.5248      0.0126      7.5892    143.1556     27.1677
  1185.1000      7.9136      2.5252     -0.0075      7.5647    142.2950     27.6844
  1185.2000      7.9136      2.5342      0.0077      7.0185    142.1407     28.6117
  1185.3000      7.9096      2.5473      0.0489      6.2221    143.2569     29.4020
  1185.4000      7.9096      2.5552      0.0852      5.7430    145.2672     29.5424
  1185.5000      7.8673      2.5592      0.0787      5.5031    144.8880     29.1513
  1185.6000      7.8673      2.5631      0.1268      5.2691    141.9044     28.7621
  1185.7000      7.8673      2.5638      0.0817      5.2242    140.1964     28.5744
  1185.8000      7.8635      2.5628      0.0862      5.2846    139.1213     28.2876
  1185.9000      7.8635      2.5655      0.0731      5.1219    136.7007     27.7732
  1186.0000      7.8822      2.5727      0.0774      4.6829    133.2355     27.3742
  1186.1000      7.8822      2.5853      0.0475      3.9193    129.4528     27.2794
  1186.2000      7.8822      2.6081      0.1043      2.5376    127.3684     27.3094
  1186.3000      7.9142      2.6397      0.0962      0.6257    127.5536     27.4512
  1186.4000      7.9142      2.6721      0.0754     -1.3423    128.2312     27.7362
  1186.5000      7.9116      2.6947      0.1302     -2.7077    125.9747     27.9214
  1186.6000      7.9116      2.7022      0.0728     -3.1628    120.6545     27.9421
  1186.7000      7.9116      2.7022      0.1094     -3.1634    117.0898     27.8727
  1186.8000      7.9137      2.6975      0.0739     -2.8775    119.6821     27.6215
  1186.9000      7.9137      2.6873      0.0622     -2.2589    126.6246     27.3295
  1187.0000      7.9139      2.6767      0.0358     -1.6195    131.1444     27.3228
  1187.1000      7.9139      2.6677      0.0437     -1.0710    129.7379     27.6272
