~Version Information
VERS.                      2.0: CWLS Log ASCII Standard - VERSION 2.0
WRAP.                       NO: One line per depth step
~Well Information Block
STRT.FT                10.0000: 
STOP.FT               907.0000: 
STEP.FT                 0.1000: 
NULL.                -999.2500: 
COMP.          Pioneer Natural Resources: COMPANY
WELL.           Hartford 31-18: WELL
FLD.           Purgatorie River: FIELD
LOC.           375' FNL & 1660' FEL: LOCATION
PROV.                 Colorado: PROVINCE
CNTY.               Las Animas: COUNTRY
SRVC.                Patterson: SERVICE COMPANY
DATE.          Mon Nov 21 07:39:41 2005: LOG DATE
UWI.            05-071-08555              : UNIQUE WELL ID
~Curve Information Block
DEPT.FT            0 000 00 00: Depth
DCAL.in                       : CDL Caliper
RHOB.g/cc                     : CDL Bulk Density
RHOC.g/cc                     : CDL Density Correction
DPOR.pu                       : CDL Density Porosity
GR.GAPI                       : Gamma Ray
NPOR.pu                       : Neutron Porosity
~Parameter Information Block
~A  Depth       DCAL        RHOB        RHOC        DPOR         GR         NPOR    
    10.0000     -3.1029      2.1443      2.3855     -0.0101    127.5263     27.5084
    10.1000     -3.1029      2.2032      2.4693     -0.0089    130.7456     27.4798
    10.2000     -3.1029      2.2206      2.5220     -0.0086    134.3827     27.3703
    10.3000     -3.1029      2.1904      2.4494     -0.0092    137.1615     26.9618
    10.4000     -3.1029      2.1346      2.4565     -0.0103    136.5126     26.7158
    10.5000     -3.1029      2.0792      2.3632     -0.0114    133.8850     26.7483
    10.6000     -3.1029      2.0440      2.3673     -0.0121    133.3238     27.0067
    10.7000     -3.1029      2.0413      2.3547     -0.0122    135.8012     27.4244
    10.8000     -3.1029      2.0766      2.3977     -0.0115    139.6769     27.5738
    10.9000     -3.1029      2.1437      2.4465     -0.0101    139.2944     27.3107
    11.0000     -3.1029      2.2254      2.4896     -0.0085    134.0415     27.0366
    11.1000     -3.1029      2.2999      2.5814     -0.0070    131.4705     27.1904
    11.2000     -3.1029      2.3422      2.6254     -0.0062    134.4718     27.7874
    11.3000     -3.1029      2.3369      2.6281     -0.0063    139.5925     28.3284
    11.4000     -3.1029      2.2938      2.5378     -0.0071    142.1366     28.6687
    11.5000     -3.1029      2.2353      2.5522     -0.0083    139.6147     28.7064
    11.6000     -3.1029      2.1703      2.4745     -0.0096    134.8172     28.0743
    11.7000     -3.1029      2.1091      2.4221     -0.0108    133.0703     27.2804
    11.8000     -3.1029      2.0774      2.3797     -0.0115    135.6862     27.1018
    11.9000     -3.1029      2.0975      2.3711     -0.0111    138.5430     27.3875
    12.0000     -3.1029      2.1617      2.4432     -0.0098    140.5184     27.6767
    12.1000     -3.1029      2.2347      2.5277     -0.0083    144.3366     27.7746
    12.2000     -3.1029      2.2843      2.5439     -0.0073    149.3681     27.7291
    12.3000     -3.1029      2.2978      2.5525     -0.0070    152.6749     27.6037
    12.4000     -3.1029      2.2752      2.5340     -0.0075    151.4003     27.4419
    12.5000     -3.1029      2.2269      2.5112     -0.0085    145.6797     27.3664
    12.6000     -3.1029      2.1654      2.4966     -0.0097    138.9205     27.3947
    12.7000     -3.1029      2.0986      2.4226     -0.0110    136.5789     27.4999
    12.8000     -3.1029      2.0392      2.3775     -0.0122    142.3021     27.7047
    12.9000     -3.1029      2.0118      2.3041     -0.0128    149.9435     27.9653
    13.0000     -3.1029      2.0402      2.3341     -0.0122    151.3769     28.3339
    13.1000     -3.1029      2.1221      2.4246     -0.0106    149.3603     28.6974
    13.2000     -3.1029      2.2305      2.5132     -0.0084    149.0507     28.7239
    13.3000     -3.1029      2.3315      2.5956     -0.0064    148.5829     28.4452
    13.4000     -3.1029      2.3997      2.6139     -0.0050    145.6043     28.2917
    13.5000     -3.1029      2.4257      2.6262     -0.0045    143.4204     28.2929
    13.6000     -3.1029      2.4100      2.6201     -0.0048    144.8359     28.1794
    13.7000     -3.1029      2.3581      2.5603     -0.0058    145.2434     28.1104
    13.8000     -3.1029      2.2839      2.4578     -0.0073    142.8456     28.2794
    13.9000     -3.1029      2.2009      2.4498     -0.0090    142.8389     28.5136
    14.0000     -3.1029      2.1225      2.3525     -0.0106    145.0399     28.5990
    14.1000     -3.1029      2.0686      2.3324     -0.0116    143.0113     28.4754
    14.2000     -3.1029      2.0458      2.3658     -0.0121    137.7458     28.3768
    14.3000     -3.1029      2.0448      2.3634     -0.0121    136.8879     28.6971
    14.4000     -3.1029      2.0574      2.3826     -0.0119    141.1455     29.3358
    14.5000     -3.1029      2.0795      2.4264     -0.0114    145.5250     29.7702
    14.6000     -3.1029      2.1088      2.4509     -0.0108    146.5734     29.8313
    14.7000     -3.1029      2.1386      2.4880     -0.0102    144.3318     29.7918
    14.8000     -3.1029      2.1603      2.4884     -0.0098    143.0412     29.9562
    14.9000     -3.1029      2.1723      2.4903     -0.0096    146.4702     30.4292
    15.0000     -3.1029      2.1736      2.5469     -0.0095    154.0986     30.8558
    15.1000     -3.1029      2.1610      2.5399     -0.0098    162.2381     30.9729
    15.2000     -3.1029      2.1419      2.5033     -0.0102    167.5243     31.0770
    15.3000     -3.1029      2.1290      2.4815     -0.0104    169.1451     31.1627
    15.4000     -3.1029      2.1266      2.5189     -0.0105    166.8342     30.9791
    15.5000     -3.1029      2.1308      2.4954     -0.0104    160.1188     30.9098
    15.6000     -3.1029      2.1368      2.5284     -0.0103    151.9015     31.2179
    15.7000     -3.1029      2.1439      2.4988     -0.0101    148.5445     31.3711
    15.8000     -3.1029      2.1529      2.5499     -0.0099    151.0687     31.1557
    15.9000     -3.1029      2.1606      2.5457     -0.0098    152.3121     31.0356
    16.0000     -3.1029      2.1664      2.5602     -0.0097    150.7099     31.1554
    16.1000     -3.1029      2.1746      2.5459     -0.0095    150.2783     31.2744
    16.2000     -3.1029      2.1900      2.5699     -0.0092    147.9548     31.4606
    16.3000     -3.1029      2.2093      2.5974     -0.0088    141.5712     31.7016
    16.4000     -3.1029      2.2222      2.5974     -0.0086    137.0559     31.6394
    16.5000     -3.1029      2.2250      2.5971     -0.0085    137.4846     31.2593
    16.6000     -3.1029      2.2236      2.5957     -0.0085    139.6745     31.0517
    16.7000     -3.1029      2.2253      2.6006     -0.0085    140.5807     31.1737
    16.8000     -3.1029      2.2372      2.5760     -0.0083    139.7312     31.2621
    16.9000     -3.1029      2.2550      2.6203     -0.0079    137.6813     31.0790
    17.0000     -3.1029      2.2584      2.6494     -0.0078    137.3040     30.9295
    17.1000     -3.1029      2.2406      2.5698     -0.0082    138.8755     31.2337
    17.2000     -3.1029      2.2168      2.5893     -0.0087    138.1511     31.7289
    17.3000     -3.1029      2.1958      2.5725     -0.0091    136.1449     31.8200
    17.4000     -3.1029      2.1739      2.5654     -0.0095    138.6816     31.6296
    17.5000     -3.1029      2.1534      2.5222     -0.0099    146.8949     31.5656
    17.6000     -3.1029      2.1438      2.5075     -0.0101    154.1070     31.6745
    17.7000     -3.1029      2.1414      2.5399     -0.0102    154.7216     31.7300
    17.8000     -3.1029      2.1374      2.5032     -0.0103    151.6522     31.4416
    17.9000     -3.1029      2.1373      2.5239     -0.0103    149.3951     31.0320
    18.0000     -3.1029      2.1374      2.5896     -0.0103    148.9952     30.8671
    18.1000     -3.1029      2.1231      2.5476     -0.0105    150.9936     30.8239
    18.2000     -3.1029      2.1010      2.5077     -0.0110    153.9980     30.7230
    18.3000     -3.1029      2.0913      2.5371     -0.0112    153.5818     30.5870
    18.4000     -3.1029      2.0958      2.5325     -0.0111    150.9487     30.3155
    18.5000     -3.1029      2.1039      2.5421     -0.0109    150.9575     29.8654
    18.6000     -3.1029      2.1116      2.5678     -0.0108    152.7818     29.5417
    18.7000     -3.1029      2.1230      2.5653     -0.0105    152.6625     29.5515
    18.8000     -3.1029      2.1392      2.5709     -0.0102    151.5934     29.7589
    18.9000     -3.1029      2.1538      2.5841     -0.0099    154.6324     30.0389
    19.0000     -3.1029      2.1628      2.5702     -0.0098    161.3772     30.2119
    19.1000     -3.1029      2.1675      2.5851     -0.0097    165.4086     30.1342
    19.2000     -3.1029      2.1713      2.5549     -0.0096    165.0488     29.8330
    19.3000     -3.1029      2.1783      2.5793     -0.0094    164.0603     29.6417
    19.4000     -3.1029      2.1884      2.5786     -0.0092    164.9564     29.8189
    19.5000     -3.1029      2.1951      2.6018     -0.0091    167.9900     30.1689
