~Version Information
VERS.                      2.0: CWLS Log ASCII Standard - VERSION 2.0
WRAP.                       NO: One line per depth step
~Well Information Block
STRT.FT               620.0000: 
STOP.FT              3067.2000: 
STEP.FT                 0.1000: 
NULL.                -999.2500: 
COMP.          Pioneer Natural Resources: COMPANY
WELL.          Interceptor 43-13 Kv: WELL
FLD.           Purgatoire River: FIELD
LOC.           2073' FSL & 519' FEL--: LOCATION
PROV.                 Colorado: PROVINCE
CNTY.               Las Animas: COUNTRY
SRVC.                Patterson: SERVICE COMPANY
DATE.          Sat Jan 14 20:27:27 2006: LOG DATE
UWI.           05 071 08655 00: UNIQUE WELL ID
~Curve Information Block
DEPT.FT            0 000 00 00: Depth
DCAL.in                       : CDL Caliper
RHOB.g/cc                     : CDL Bulk Density
RHOC.g/cc                     : CDL Density Correction
DPOR.pu                       : CDL Density Porosity
NPOR.pu                       : Neutron Porosity
GR.GAPI                       : Gamma Ray
~Parameter Information Block
~A  Depth       DCAL        RHOB        RHOC        DPOR        NPOR         GR     
# ...
  1100.0000      8.0232      2.5122      0.0015      8.3485     21.9577     80.3504
  1100.1000      8.0232      2.5120      0.0047      8.3644     21.7720     81.0001
  1100.2000      8.0232      2.5148      0.0146      8.1954     21.8628     81.7108
  1100.3000      8.0213      2.5126      0.0489      8.3274     22.1133     80.6891
  1100.4000      8.0213      2.5017     -0.0015      8.9861     22.1345     77.5545
  1100.5000      8.0206      2.4947     -0.0378      9.4151     21.8290     75.9823
  1100.6000      8.0206      2.4982      0.0264      9.2014     21.5373     75.5970
  1100.7000      8.0206      2.5008      0.0190      9.0449     21.3511     73.9738
  1100.8000      8.0202      2.4919      0.0272      9.5788     21.1761     72.7219
  1100.9000      8.0202      2.4747     -0.0276     10.6223     21.1956     74.7770
  1101.0000      8.0191      2.4629      0.0128     11.3375     21.3677     78.7173
  1101.1000      8.0191      2.4718     -0.0095     10.8010     21.3659     79.9761
  1101.2000      8.0191      2.5010      0.0178      9.0299     21.2441     77.1120
  1101.3000      8.0199      2.5264      0.0568      7.4926     21.1980     70.5138
  1101.4000      8.0199      2.5308      0.0383      7.2229     21.0967     63.3854
  1101.5000      8.0206      2.5262      0.0236      7.5020     20.7936     63.9877
  1101.6000      8.0206      2.5260      0.0674      7.5126     20.4671     72.0688
  1101.7000      8.0206      2.5278      0.0427      7.4079     20.2852     76.5614
  1101.8000      8.0201      2.5273      0.0333      7.4335     20.0618     73.1148
  1101.9000      8.0201      2.5284      0.0442      7.3668     19.8343     69.2325
  1102.0000      8.0216      2.5341      0.0536      7.0220     19.8401     70.8004
  1102.1000      8.0216      2.5405      0.0688      6.6361     19.8694     74.4487
  1102.2000      8.0216      2.5459      0.0388      6.3101     19.5983     77.4075
  1102.3000      8.0237      2.5537      0.0424      5.8391     19.1996     80.5165
  1102.4000      8.0237      2.5561      0.0757      5.6880     19.1419     79.4329
  1102.5000      8.0242      2.5421      0.0496      6.5371     19.6341     73.1935
  1102.6000      8.0242      2.5196      0.0320      7.9020     20.4216     68.2596
  1102.7000      8.0242      2.5048      0.0274      8.7995     20.9557     66.1675
  1102.8000      8.0236      2.5046      0.0426      8.8117     20.9515     64.9707
  1102.9000      8.0236      2.5081      0.0583      8.5979     20.6804     65.2459
  1103.0000      8.0218      2.4999      0.0633      9.0977     20.4034     67.8797
  1103.1000      8.0218      2.4883      0.0129      9.7988     20.2369     72.8601
  1103.2000      8.0218      2.4898      0.0589      9.7117     20.2572     78.2425
  1103.3000      8.0221      2.4949      0.0671      9.4009     20.3100     81.2579
  1103.4000      8.0221      2.4883      0.0367      9.7981     20.2970     81.6302
  1103.5000      8.0239      2.4780     -0.0016     10.4222     20.2846     79.3010
  1103.6000      8.0239      2.4847     -0.0080     10.0211     20.2600     75.5176
  1103.7000      8.0239      2.5124      0.0461      8.3380     20.1496     73.4606
  1103.8000      8.0231      2.5418      0.0756      6.5565     19.9973     72.7061
  1103.9000      8.0231      2.5568      0.0888      5.6469     20.0280     70.3489
  1104.0000      8.0196      2.5594      0.0818      5.4888     20.2638     68.3959
  1104.1000      8.0196      2.5591      0.0582      5.5101     20.5109     68.2225
  1104.2000      8.0196      2.5584      0.0745      5.5509     20.7232     67.1631
  1104.3000      8.0178      2.5527      0.0666      5.8991     20.8947     65.9761
  1104.4000      8.0178      2.5425      0.0697      6.5142     20.8663     67.1615
  1104.5000      8.0193      2.5356      0.0398      6.9314     20.6182     69.0945
  1104.6000      8.0193      2.5356      0.0580      6.9322     20.4010     69.6376
  1104.7000      8.0193      2.5361      0.0347      6.9051     20.3794     70.3808
  1104.8000      8.0210      2.5323      0.0334      7.1327     20.6070     73.5890
  1104.9000      8.0210      2.5253      0.0451      7.5570     20.8911     77.6989
  1105.0000      8.0215      2.5187      0.0077      7.9582     20.9663     79.2186
  1105.1000      8.0215      2.5162      0.0358      8.1117     20.9408     76.6932
  1105.2000      8.0215      2.5116      0.0522      8.3875     21.0109     72.3385
  1105.3000      8.0211      2.5008      0.0234      9.0426     21.1833     69.4345
  1105.4000      8.0211      2.4876      0.0086      9.8427     21.2272     68.6728
  1105.5000      8.0211      2.4808     -0.0039     10.2537     20.9453     70.0096
  1105.6000      8.0211      2.4902     -0.0031      9.6852     20.4536     74.1085
  1105.7000      8.0211      2.5002      0.0812      9.0804     20.0742     79.1936
  1105.8000      8.0213      2.4955     -0.0018      9.3610     20.1004     81.5081
  1105.9000      8.0213      2.4998     -0.0090      9.1054     20.2508     79.3105
  1106.0000      8.0208      2.5174      0.0462      8.0372     20.1218     75.0498
  1106.1000      8.0208      2.5196      0.0925      7.9005     19.8266     69.9297
  1106.2000      8.0208      2.5025      0.0294      8.9390     19.5055     64.9149
  1106.3000      8.0224      2.4854      0.0598      9.9777     19.1573     64.2291
  1106.4000      8.0224      2.4832     -0.0081     10.1086     18.9581     67.4648
  1106.5000      8.0236      2.5017      0.0441      8.9853     19.0445     70.0947
  1106.6000      8.0236      2.5261      0.0498      7.5065     19.2105     70.2877
  1106.7000      8.0236      2.5404      0.0416      6.6407     19.1793     68.4705
  1106.8000      8.0224      2.5401      0.0892      6.6598     18.9535     66.8725
  1106.9000      8.0224      2.5254      0.0291      7.5504     18.8034     67.1778
  1107.0000      8.0205      2.5092      0.0349      8.5332     18.9486     67.0275
  1107.1000      8.0205      2.5053      0.0431      8.7711     19.2550     65.8487
  1107.2000      8.0205      2.5136      0.0746      8.2692     19.3370     66.9918
  1107.3000      8.0198      2.5250      0.0815      7.5738     19.0195     69.5684
  1107.4000      8.0198      2.5355      0.0524      6.9365     18.9003     71.7971
  1107.5000      8.0189      2.5419      0.0548      6.5490     19.3833     75.2937
  1107.6000      8.0189      2.5349      0.0733      6.9772     19.8636     78.7685
  1107.7000      8.0189      2.5181      0.0275      7.9945     19.8249     80.8978
  1107.8000      8.0200      2.5094     -0.0034      8.5225     19.5333     83.8647
  1107.9000      8.0200      2.5062      0.0684      8.7147     19.2515     86.4860
  1108.0000      8.0230      2.4936      0.0500      9.4796     18.9953     85.8793
  1108.1000      8.0230      2.4847      0.0344     10.0199     18.7364     83.4466
  1108.2000      8.0230      2.4976      0.0330      9.2377     18.4085     81.0437
  1108.3000      8.0234      2.5102      0.1122      8.4732     18.1555     78.7172
  1108.4000      8.0234      2.4945      0.0383      9.4217     18.1789     76.7932
  1108.5000      8.0212      2.4680     -0.0094     11.0303     18.1939     75.8876
  1108.6000      8.0212      2.4640      0.0148     11.2708     17.9590     75.9170
  1108.7000      8.0212      2.4913      0.0614      9.6184     17.9431     77.2075
  1108.8000      8.0205      2.5333      0.0752      7.0727     18.4137     78.3176
  1108.9000      8.0205      2.5657      0.0678      5.1081     18.8772     76.4089
  1109.0000      8.0205      2.5737      0.0817      4.6237     18.9277     72.0783
  1109.1000      8.0205      2.5557      0.1028      5.7135     18.7918     68.1660
  1109.2000      8.0205      2.5254      0.0321      7.5516     18.9264     69.9939
  1109.3000      8.0180      2.5060     -0.0016      8.7296     19.4867     79.4010
  1109.4000      8.0180      2.5039      0.0390      8.8560     20.1847     85.6755
  1109.5000      8.0157      2.5063      0.0438      8.7094     20.5944     81.2398
