~Version Information
VERS.                      2.0: CWLS Log ASCII Standard - VERSION 2.0
WRAP.                       NO: One line per depth step
~Well Information Block
STRT.FT                 0.0000: 
STOP.FT               988.7500: 
STEP.FT                 0.2500: 
NULL.                -999.2500: 
COMP.          Pioneer Natural Resources: COMPANY
WELL.             Quartz 13-22: WELL
FLD.           Purgatoire River: FIELD
LOC.           1933' FSL & 675' FWL --------: LOCATION
PROV.                 Colorado: PROVINCE
CNTY.               Las Animas: COUNTRY
SRVC.                         : SERVICE COMPANY
DATE.          Thu Dec 22 09:29:32 2005: LOG DATE
UWI.                          : UNIQUE WELL ID
~Curve Information Block
DEPT.FT            0 000 00 00: Depth
CCL.                          : Casing Collar Locator
TT3.usec                      : CBL 3' Travel Time
AMP3.mV                       : CBL 3' Amplitude
AMP5.mV                       : CBL 5' Amplitude
GR.GAPI                       : Gamma Ray
~Parameter Information Block
~A  Depth       CCL         TT3         AMP3        AMP5         GR     
# ...
   140.0000      0.0000    773.4205     13.5823      3.1502     83.9024
   140.2500      0.0000    773.5268     13.7708      3.2007     79.0866
   140.5000      0.0000    773.6224     13.9224      3.3149     74.5375
   140.7500      0.0000    773.7097     14.0483      3.5008     70.3405
   141.0000      0.0000    773.8049     14.1782      3.7342     66.9090
   141.2500      0.0000    773.9211     14.3547      3.9769     64.8083
   141.5000      0.0000    774.0300     14.6267      4.1910     64.4213
   141.7500      0.0000    774.0584     15.0357      4.3565     65.7902
   142.0000      0.0000    773.9432     15.5960      4.4845     68.5124
   142.2500      0.0000    773.6785     16.2722      4.6030     71.4246
   142.5000      0.0000    773.3054     16.9720      4.7271     72.5983
   142.7500      0.0000    772.8432     17.5804      4.8582     70.3079
   143.0000      0.0000    772.2020     18.0254      5.0128     64.3577
   143.2500      0.0000    771.1162     18.3062      5.2158     56.4924
   143.5000      0.0000    769.2598     18.4497      5.4417     49.5868
   143.7500      0.0000    766.6396     18.4701      5.5838     46.1342
   144.0000      0.0000    763.9274     18.3898      5.5194     46.7148
   144.2500      0.0000    762.0564     18.2728      5.2074     49.5030
   144.5000      0.0000    761.2651     18.1964      4.7215     51.6107
   144.7500      0.0000    760.9062     18.1903      4.2023     51.2645
   145.0000      0.0000    760.4651     18.2211      3.7812     48.7875
   145.2500      0.0000    760.2057     18.2324      3.5382     45.8390
   145.5000      0.0000    760.4254     18.1821      3.5027     44.3625
   145.7500      0.0000    760.7889     18.0493      3.6608     46.3059
   146.0000      0.0000    760.9998     17.8300      3.9577     53.3038
   146.2500      0.0000    761.4722     17.5409      4.3216     65.3783
   146.5000      0.0000    762.5706     17.2177      4.7092     79.8631
   146.7500      0.0000    763.6616     16.8975      5.1084     92.4877
   147.0000      0.0000    763.7656     16.6030      5.4859    100.1005
   147.2500      0.0000    763.0039     16.3533      5.7685    102.3363
   147.5000      0.0000    762.6979     16.1861      5.9070    100.9290
   147.7500      0.0000    763.8829     16.1442      5.9370     98.0708
   148.0000      0.0000    766.1769     16.2287      5.9365     95.5512
   148.2500      0.0000    768.2272     16.3764      5.9306     94.7369
   148.5000      0.0000    768.7542     16.4918      5.8656     96.3632
   148.7500      0.0000    766.9172     16.5025      5.6669     99.9033
   149.0000      0.0000    762.2900     16.3893      5.3056    103.4887
   149.2500      0.0000    755.1968     16.1748      4.8317    105.0407
   149.5000      0.0000    747.0460     15.8922      4.3707    103.7146
   149.7500      0.0000    739.7679     15.5582      4.0753    100.1027
   150.0000      0.0000    734.6241     15.1683      4.0366     95.2653
   150.2500      0.0000    731.6371     14.7135      4.2161     89.9783
   150.5000      0.0000    730.1202     14.2037      4.4749     84.5920
   150.7500      0.0000    729.5701     13.6704      4.6806     79.0017
   151.0000      0.0000    730.1393     13.1451      4.7841     72.8861
   151.2500      0.0000    732.5084     12.6436      4.8021     66.3884
   151.5000      0.0000    737.2161     12.1779      4.7515     60.4388
   151.7500      0.0000    743.6692     11.7760      4.6085     56.0724
   152.0000      0.0000    749.7222     11.4759      4.3227     53.4541
   152.2500      0.0000    752.8073     11.2987      3.8731     51.7532
   152.5000      0.0000    752.0620     11.2297      3.3337     49.8989
   152.7500      0.0000    749.3250     11.2277      2.8814     47.2975
   153.0000      0.0000    747.6069     11.2520      2.7106     43.9900
   153.2500      0.0000    748.3912     11.2826      2.9038     40.5572
   153.5000      0.0000    750.5118     11.3194      3.3634     37.8884
   153.7500      0.0000    751.5754     11.3677      3.8582     36.6240
   154.0000      0.0000    750.0973     11.4295      4.1505     36.5998
   154.2500      0.0000    746.2665     11.4999      4.1061     36.9390
   154.5000      0.0000    741.3455     11.5616      3.7254     36.7602
   154.7500      0.0000    736.7813     11.5844      3.1158     35.7472
   155.0000      0.0000    733.5288     11.5413      2.4519     34.1058
   155.2500      0.0000    731.7447     11.4289      1.9213     32.2057
   155.5000      0.0000    731.0099     11.2716      1.6579     30.4410
   155.7500      0.0000    730.8381     11.1078      1.7015     29.3790
   156.0000      0.0000    731.0369     10.9690      1.9975     29.8018
   156.2500      0.0000    731.8168     10.8629      2.4240     32.3860
   156.5000      0.0000    733.6815     10.7729      2.8472     37.3300
   156.7500      0.0000    737.0397     10.6713      3.1831     44.2471
   157.0000      0.0000    741.6799     10.5352      3.4052     52.2223
   157.2500      0.0000    746.5750     10.3558      3.4931     60.0657
   157.5000      0.0000    750.2225     10.1428      3.4102     66.9522
   157.7500      0.0000    751.3464      9.9231      3.1535     72.8290
   158.0000      0.0000    749.7913      9.7300      2.8073     77.8826
   158.2500      0.0000    747.1178      9.5928      2.5257     81.9253
   158.5000      0.0000    745.8086      9.5325      2.4476     84.8566
   158.7500      0.0000    747.2546      9.5535      2.6055     87.2909
   159.0000      0.0000    750.6940      9.6332      2.8882     90.0494
   159.2500      0.0000    754.3764      9.7263      3.0941     93.2037
   159.5000      0.0000    757.1352      9.7906      3.0529     95.9572
   159.7500      0.0000    758.3193      9.8186      2.7373     97.3293
   160.0000      0.0000    757.0856      9.8486      2.2823     96.9162
   160.2500      0.0000    753.0490      9.9392      1.9002     95.2020
   160.5000      0.0000    747.5826     10.1204      1.7660     93.2656
   160.7500      0.0000    743.5586     10.3663      1.9528     92.1532
   161.0000      0.0000    743.2980     10.6194      2.4228     92.3304
   161.2500      0.0000    746.6331     10.8378      3.0386     93.4455
   161.5000      0.0000    750.8005     11.0152      3.5985     94.6651
   161.7500      0.0000    752.3376     11.1629      3.9036     95.4992
   162.0000      0.0000    749.5867     11.2831      3.8367     96.2048
   162.2500      0.0000    743.7198     11.3666      3.4224     97.1449
   162.5000      0.0000    737.4451     11.4172      2.8354     98.0000
   162.7500      0.0000    732.8836     11.4679      2.3285     97.9708
   163.0000      0.0000    730.6724     11.5595      2.1127     96.7448
   163.2500      0.0000    730.6234     11.7056      2.2726     94.9677
   163.5000      0.0000    732.6014     11.8854      2.7471     93.4594
   163.7500      0.0000    736.4539     12.0666      3.3602     92.0079
   164.0000      0.0000    741.1689     12.2309      3.8925     89.3978
   164.2500      0.0000    744.6078     12.3838      4.1724     84.9777
   164.5000      0.0000    744.7823     12.5521      4.1377     80.0121
   164.7500      0.0000    741.6210     12.7703      3.8443     77.1387
   165.0000      0.0000    737.1444     13.0606      3.4361     78.4247
   165.2500      0.0000    733.8815     13.4207      3.0819     83.9662
   165.5000      0.0000    733.3707     13.8342      2.8986     91.9484
   165.7500      0.0000    735.8626     14.2971      2.9178     99.5756
   166.0000      0.0000    740.7313     14.8274      3.1121    104.2343
   166.2500      0.0000    746.9902     15.4346      3.4180    104.5599
   166.5000      0.0000    753.7075     16.0800      3.7251    101.0617
   166.7500      0.0000    760.1009     16.6839      3.8926     95.8896
   167.0000      0.0000    765.4394     17.1755      3.8391     91.5401
   167.2500      0.0000    769.2077     17.5232      3.6219     89.1855
   167.5000      0.0000    771.3691     17.7242      3.4005     88.1571
   167.7500      0.0000    772.1900     17.7967      3.3131     87.1779
