~Version Information
VERS.                      2.0: CWLS Log ASCII Standard - VERSION 2.0
WRAP.                       NO: One line per depth step
~Well Information Block
STRT.FT               260.0000: 
STOP.FT              1230.0000: 
STEP.FT                 0.2500: 
NULL.                -999.2500: 
COMP.          Pioneer Natural Resources: COMPANY
WELL.             Mahalo 12-20: WELL
FLD.           Purgatoire River: FIELD
LOC.           1689' FNL & 479' FWL: LOCATION
CNTY.               Las Animas: COUNTY
SRVC.                Patterson: SERVICE COMPANY
DATE.          Thu Feb 23 20:25:01 2006: LOG DATE
UWI.           05 071 08700 00: UNIQUE WELL ID
STAT.                 Colorado: STATE
~Curve Information Block
DEPT.FT            0 000 00 00: Depth
SN.Ohm-m                      : IEL Short Normal
SP.mV                         : IEL Spontaneous Potential
DIR.Ohm-m                     : IEL Induction Resistivity
GR.GAPI                       : Gamma Ray
~Parameter Information Block
~A  Depth        SN          SP         DIR          GR     
# ...
  1064.0000     18.0524     58.1631     18.2368     60.0214
  1064.2500     18.1907     58.1465     18.3263     62.6041
  1064.5000     18.0350     58.1223     18.3948     66.4614
  1064.7500     17.6234     58.0842     18.4550     68.6571
  1065.0000     17.1898     58.0222     18.4793     71.1670
  1065.2500     16.9241     57.9302     18.4008     72.3038
  1065.5000     16.7465     57.8117     18.1554     73.0877
  1065.7500     16.4249     57.6815     17.7392     72.9021
  1066.0000     15.9228     57.5632     17.2254     71.7239
  1066.2500     15.4348     57.4812     16.7205     70.8173
  1066.5000     15.1006     57.4494     16.3079     70.5234
  1066.7500     14.8841     57.4636     16.0252     71.5705
  1067.0000     14.7152     57.5039     15.8725     74.8885
  1067.2500     14.6120     57.5454     15.8306     77.5631
  1067.5000     14.6370     57.5707     15.8743     80.4765
  1067.7500     14.7936     57.5781     15.9779     80.7346
  1068.0000     15.0213     57.5813     16.1169     77.9147
  1068.2500     15.2655     57.6013     16.2677     74.2785
  1068.5000     15.5136     57.6557     16.4113     67.9351
  1068.7500     15.7859     57.7499     16.5387     64.2575
  1069.0000     16.0825     57.8754     16.6565     60.6542
  1069.2500     16.3530     58.0135     16.7841     59.4679
  1069.5000     16.5692     58.1436     16.9423     58.7912
  1069.7500     16.7332     58.2478     17.1394     58.6475
  1070.0000     16.8214     58.3138     17.3602     58.3383
  1070.2500     16.8512     58.3371     17.5701     57.8178
  1070.5000     16.9024     58.3232     17.7376     56.3814
  1070.7500     16.9905     58.2859     17.8582     55.1951
  1071.0000     17.0289     58.2401     17.9567     53.9464
  1071.2500     16.9653     58.1941     18.0615     53.9108
  1071.5000     16.8529     58.1476     18.1779     54.9526
  1071.7500     16.7487     58.0949     18.2849     55.8359
  1072.0000     16.6535     58.0320     18.3584     56.4583
  1072.2500     16.5788     57.9603     18.3962     56.2115
  1072.5000     16.5410     57.8857     18.4260     55.3420
  1072.7500     16.5080     57.8145     18.4905     54.8894
  1073.0000     16.4748     57.7497     18.6235     54.7082
  1073.2500     16.5030     57.6894     18.8305     54.7699
  1073.5000     16.5899     57.6276     19.0818     54.9528
  1073.7500     16.6207     57.5594     19.3237     55.3204
  1074.0000     16.5238     57.4870     19.5032     56.7794
  1074.2500     16.3701     57.4237     19.5902     58.5026
  1074.5000     16.2574     57.3923     19.5846     61.9345
  1074.7500     16.1788     57.4162     19.5052     64.3223
  1075.0000     16.0838     57.5098     19.3742     66.9507
  1075.2500     15.9856     57.6719     19.2084     67.5230
  1075.5000     15.9263     57.8879     19.0196     66.5247
  1075.7500     15.8955     58.1374     18.8227     65.1606
  1076.0000     15.8481     58.4004     18.6453     63.4242
  1076.2500     15.7648     58.6610     18.5281     63.0048
  1076.5000     15.6547     58.9133     18.5143     63.3264
  1076.7500     15.5256     59.1636     18.6328     63.5096
  1077.0000     15.3753     59.4208     18.8851     62.3113
  1077.2500     15.2093     59.6833     19.2441     59.9938
  1077.5000     15.0522     59.9411     19.6647     54.4539
  1077.7500     14.9609     60.1875     20.1005     50.1957
  1078.0000     15.0015     60.4195     20.5140     44.6791
  1078.2500     15.1899     60.6224     20.8741     42.1082
  1078.5000     15.4489     60.7646     21.1489     39.5959
  1078.7500     15.6309     60.8149     21.3069     38.2831
  1079.0000     15.6360     60.7662     21.3325     36.2205
  1079.2500     15.4944     60.6415     21.2354     34.8166
  1079.5000     15.3183     60.4807     21.0450     33.3626
  1079.7500     15.1646     60.3200     20.7959     33.3642
  1080.0000     14.9511     60.1808     20.5223     35.4077
  1080.2500     14.6184     60.0691     20.2593     38.1539
  1080.5000     14.3410     59.9818     20.0420     43.8883
  1080.7500     14.3515     59.9116     19.8981     48.2835
  1081.0000     14.6262     59.8492     19.8372     54.7061
  1081.2500     14.9398     59.7841     19.8458     58.4603
  1081.5000     15.0843     59.7088     19.8870     63.3306
  1081.7500     14.9991     59.6245     19.9062     66.4130
  1082.0000     14.8006     59.5405     19.8407     71.2784
  1082.2500     14.6377     59.4606     19.6322     74.7015
  1082.5000     14.5553     59.3728     19.2443     79.7839
  1082.7500     14.5241     59.2574     18.6769     82.8120
  1083.0000     14.5065     59.1061     17.9711     86.1468
  1083.2500     14.4702     58.9322     17.1947     87.4076
  1083.5000     14.4007     58.7628     16.4161     88.4713
  1083.7500     14.3158     58.6239     15.6829     89.2366
  1084.0000     14.2445     58.5304     15.0161     90.8759
  1084.2500     14.1927     58.4829     14.4179     92.0427
  1084.5000     14.1141     58.4676     13.8846     93.5006
  1084.7500     13.9204     58.4608     13.4161     94.4323
  1085.0000     13.5761     58.4359     13.0177     96.4265
  1085.2500     13.1444     58.3741     12.6964     98.3803
  1085.5000     12.7125     58.2702     12.4549    102.0193
  1085.7500     12.3517     58.1307     12.2881    104.4884
  1086.0000     12.1190     57.9664     12.1842    107.3479
  1086.2500     12.0191     57.7862     12.1279    108.3610
  1086.5000     12.0317     57.5985     12.1053    108.8774
  1086.7500     12.1395     57.4182     12.1082    109.2281
  1087.0000     12.2902     57.2722     12.1359    110.6215
  1087.2500     12.4600     57.1953     12.1943    111.8280
  1087.5000     12.7365     57.2163     12.2925    112.3563
  1087.7500     13.2365     57.3414     12.4383    110.9239
  1088.0000     13.9985     57.5514     12.6351    105.7596
  1088.2500     14.9386     57.8137     12.8775    100.9546
  1088.5000     15.8499     58.0978     13.1476     93.7307
  1088.7500     16.5421     58.3792     13.4129     90.0875
  1089.0000     16.9798     58.6383     13.6313     87.3061
  1089.2500     17.1988     58.8624     13.7623     86.9027
  1089.5000     17.2028     59.0520     13.7824     87.1828
  1089.7500     17.0233     59.2173     13.6921     87.5036
  1090.0000     16.7397     59.3679     13.5136     88.4593
  1090.2500     16.3951     59.5019     13.2816     89.8297
  1090.5000     15.9937     59.6040     13.0345     93.1618
  1090.7500     15.5305     59.6503     12.8065     95.8095
  1091.0000     14.9810     59.6186     12.6220     99.1748
  1091.2500     14.3821     59.4997     12.4903    100.4533
  1091.5000     13.8726     59.3022     12.4043    100.7670
  1091.7500     13.5556     59.0499     12.3451    100.0506
  1092.0000     13.4149     58.7749     12.2935     97.3216
  1092.2500     13.4007     58.5071     12.2417     93.8237
  1092.5000     13.5011     58.2675     12.1976     85.1439
  1092.7500     13.7208     58.0687     12.1784     77.1212
  1093.0000     14.0675     57.9239     12.1962     63.2998
  1093.2500     14.5646     57.8533     12.2500     54.5395
  1093.5000     15.2312     57.8778     12.3288     45.2993
  1093.7500     16.0430     58.0028     12.4236     43.2387
  1094.0000     16.9093     58.2105     12.5365     47.2967
  1094.2500     17.6631     58.4688     12.6791     54.2174
  1094.5000     18.1130     58.7488     12.8619     68.3664
  1094.7500     18.1644     59.0360     13.0802     78.4648
  1095.0000     17.8757     59.3280     13.3081     92.0577
  1095.2500     17.3894     59.6252     13.5030     99.2423
  1095.5000     16.8387     59.9224     13.6238    106.7701
  1095.7500     16.2910     60.2070     13.6494    109.8938
  1096.0000     15.7568     60.4615     13.5850    112.8559
  1096.2500     15.2606     60.6709     13.4512    114.1809
  1096.5000     14.8538     60.8293     13.2687    114.7448
  1096.7500     14.5602     60.9424     13.0519    113.4338
  1097.0000     14.3702     61.0262     12.8167    108.7816
  1097.2500     14.2573     61.0994     12.5914    104.9687
