~Version Information
VERS.                      2.0: CWLS Log ASCII Standard - VERSION 2.0
WRAP.                       NO: One line per depth step
~Well Information Block
STRT.FT               230.0000: 
STOP.FT              1028.0000: 
STEP.FT                 0.2500: 
NULL.                -999.2500: 
COMP.          Pioneer Natural Resources: COMPANY
WELL.              Gough 14-29: WELL
FLD.           Purgatoire River: FIELD
LOC.           1199' FSL & 676' FWL: LOCATION
PROV.                 Colorado: PROVINCE
CNTY.               Las Animas: COUNTRY
SRVC.                Patterson: SERVICE COMPANY
DATE.          Thu Dec 22 16:27:18 2005: LOG DATE
UWI.           05 071 08612 00: UNIQUE WELL ID
~Curve Information Block
DEPT.FT            0 000 00 00: Depth
SN.Ohm-m                      : IEL Short Normal
SP.mV                         : IEL Spontaneous Potential
DIR.Ohm-m                     : IEL Induction Resistivity
GR.GAPI                       : Gamma Ray
~Parameter Information Block
SNDERRM.mmho-m         10.0000: Medium Sonde Error Correction
~A  Depth        SN          SP         DIR          GR     
# ...
   833.0000     18.9539     44.0735     17.6993     71.1872
   833.2500     18.7182     43.1678     17.4449     70.3734
   833.5000     18.6940     42.2889     17.2064     69.3705
   833.7500     18.9285     41.4827     17.0121     68.4197
   834.0000     19.3507     40.7831     16.8961     66.1754
   834.2500     19.7766     40.2057     16.8802     64.6000
   834.5000     20.0519     39.7499     16.9664     63.6768
   834.7500     20.1579     39.4038     17.1420     64.5978
   835.0000     20.1936     39.1504     17.3922     67.8204
   835.2500     20.2839     38.9723     17.7066     70.3116
   835.5000     20.4814     38.8534     18.0783     73.0624
   835.7500     20.7759     38.7794     18.4986     73.7474
   836.0000     21.1182     38.7370     18.9531     72.7723
   836.2500     21.4153     38.7126     19.4240     70.7817
   836.5000     21.6792     38.6924     19.8938     66.0902
   836.7500     22.0716     38.6648     20.3446     62.3022
   837.0000     22.6467     38.6256     20.7543     56.8512
   837.2500     23.2684     38.5828     21.0931     54.0883
   837.5000     23.8200     38.5586     21.3275     51.8939
   837.7500     24.2766     38.5839     21.4283     51.4774
   838.0000     24.6265     38.6860     21.3802     51.1573
   838.2500     24.8613     38.8750     21.1907     50.6306
   838.5000     24.9881     39.1403     20.8908     50.0676
   838.7500     24.9838     39.4582     20.5272     50.9582
   839.0000     24.7812     39.8058     20.1450     55.5797
   839.2500     24.3104     40.1687     19.7747     60.7005
   839.5000     23.5610     40.5413     19.4255     70.0678
   839.7500     22.6448     40.9204     19.0884     76.6738
   840.0000     21.7365     41.2985     18.7457     86.2323
   840.2500     20.9502     41.6626     18.3832     91.8424
   840.5000     20.3114     41.9980     18.0007     98.2670
   840.7500     19.7740     42.2920     17.6161    101.1559
   841.0000     19.2654     42.5339     17.2609    104.1468
   841.2500     18.7821     42.7181     16.9677    105.7008
   841.5000     18.4328     42.8542     16.7561    107.2085
   841.7500     18.3863     42.9724     16.6224    107.0565
   842.0000     18.6582     43.1149     16.5394    104.2970
   842.2500     19.0120     43.3182     16.4658    101.0389
   842.5000     19.2319     43.5996     16.3620     95.6289
   842.7500     19.2951     43.9561     16.2015     92.6717
   843.0000     19.2163     44.3714     15.9737     90.1495
   843.2500     18.9710     44.8242     15.6810     89.8924
   843.5000     18.6039     45.2944     15.3356     91.6804
   843.7500     18.2926     45.7657     14.9573     94.2171
   844.0000     18.1978     46.2257     14.5718     99.2391
   844.2500     18.2596     46.6662     14.2066    102.5046
   844.5000     18.2709     47.0805     13.8864    105.6277
   844.7500     18.0756     47.4617     13.6266    106.0977
   845.0000     17.6343     47.7991     13.4299    105.2800
   845.2500     17.0318     48.0780     13.2868    104.7977
   845.5000     16.4683     48.2824     13.1811    105.2367
   845.7500     16.1548     48.4015     13.0976    106.0138
   846.0000     16.1477     48.4369     13.0272    106.7404
   846.2500     16.3175     48.4037     12.9687    106.5696
   846.5000     16.5108     48.3256     12.9243    105.4346
   846.7500     16.6953     48.2311     12.8949    104.2360
   847.0000     16.9097     48.1515     12.8764    101.8773
   847.2500     17.1384     48.1164     12.8618    100.0085
   847.5000     17.2990     48.1447     12.8460     97.0932
   847.7500     17.3316     48.2405     12.8302     95.4142
   848.0000     17.2843     48.3978     12.8201     94.0229
   848.2500     17.2863     48.6071     12.8205     94.1007
   848.5000     17.3805     48.8553     12.8302     95.3941
   848.7500     17.4916     49.1229     12.8430     96.5486
   849.0000     17.6040     49.3844     12.8524     98.1368
   849.2500     17.7882     49.6112     12.8550     99.0651
   849.5000     18.0357     49.7792     12.8486    100.2659
   849.7500     18.1988     49.8775     12.8280    100.7547
   850.0000     18.1278     49.9139     12.7851    100.7552
   850.2500     17.8406     49.9094     12.7139    100.4491
   850.5000     17.4974     49.8881     12.6181    100.3125
   850.7500     17.2266     49.8719     12.5129    100.8523
   851.0000     17.0695     49.8787     12.4216    102.8235
   851.2500     17.0147     49.9223     12.3707    104.5443
   851.5000     17.0045     50.0095     12.3842    106.0227
   851.7500     16.9816     50.1401     12.4786    105.0075
   852.0000     16.9395     50.3102     12.6580     99.3063
   852.2500     16.9242     50.5182     12.9129     93.1051
   852.5000     16.9941     50.7702     13.2241     82.3136
   852.7500     17.1900     51.0808     13.5706     75.6130
   853.0000     17.5186     51.4692     13.9365     68.3200
   853.2500     17.9389     51.9499     14.3137     65.9385
   853.5000     18.4230     52.5248     14.6998     66.3635
   853.7500     18.9609     53.1820     15.0918     69.0689
   854.0000     19.4766     53.9014     15.4776     75.5000
   854.2500     19.8702     54.6581     15.8290     80.2277
   854.5000     20.1315     55.4189     16.1025     86.1597
   854.7500     20.3427     56.1384     16.2514     88.8636
   855.0000     20.5707     56.7662     16.2457     91.4094
   855.2500     20.7756     57.2661     16.0863     92.6539
   855.5000     20.8382     57.6343     15.8038     94.5423
   855.7500     20.6489     57.8987     15.4436     95.8876
   856.0000     20.1998     58.0999     15.0501     97.8426
   856.2500     19.6120     58.2696     14.6595     98.9947
   856.5000     18.9945     58.4210     14.3007    100.4198
   856.7500     18.3438     58.5514     13.9978    101.1735
   857.0000     17.6809     58.6497     13.7689    102.1414
   857.2500     17.1178     58.7019     13.6250    102.8084
   857.5000     16.7426     58.6967     13.5703    104.0092
   857.7500     16.6039     58.6303     13.6051    104.9439
   858.0000     16.7339     58.5072     13.7274    106.3902
   858.2500     17.0598     58.3358     13.9332    107.1766
   858.5000     17.4058     58.1208     14.2134    107.5845
   858.7500     17.6667     57.8626     14.5539    107.0867
   859.0000     17.9429     57.5643     14.9398    104.8036
   859.2500     18.4690     57.2395     15.3653    101.9099
   859.5000     19.4153     56.9137     15.8381     95.1395
   859.7500     20.7335     56.6194     16.3751     89.5355
   860.0000     22.1523     56.3869     16.9895     81.6716
   860.2500     23.4091     56.2358     17.6791     77.8813
   860.5000     24.5023     56.1703     18.4217     74.5591
   860.7500     25.5610     56.1770     19.1771     73.2859
   861.0000     26.5087     56.2283     19.8890     71.7445
   861.2500     27.0588     56.2903     20.4816     70.8193
   861.5000     27.0368     56.3372     20.8605     70.2173
   861.7500     26.5580     56.3627     20.9335     70.9845
   862.0000     25.8679     56.3795     20.6518     74.7445
   862.2500     25.1138     56.4069     20.0412     79.0146
   862.5000     24.2862     56.4574     19.1916     87.2083
   862.7500     23.3338     56.5299     18.2144     93.1251
   863.0000     22.2869     56.6103     17.2082    101.6858
   863.2500     21.2445     56.6781     16.2469    106.8925
   863.5000     20.2779     56.7145     15.3801    113.5641
   863.7500     19.3709     56.7073     14.6358    116.9061
   864.0000     18.4794     56.6490     14.0216    119.7696
   864.2500     17.6563     56.5364     13.5295    120.3171
   864.5000     16.9803     56.3757     13.1427    119.7918
   864.7500     16.4287     56.1847     12.8420    118.9838
   865.0000     15.9763     55.9852     12.6092    117.5954
   865.2500     15.6821     55.7911     12.4304    116.7826
   865.5000     15.6182     55.6044     12.2989    116.0145
   865.7500     15.7842     55.4224     12.2182    115.7127
   866.0000     16.0878     55.2454     12.2011    114.8436
   866.2500     16.4071     55.0779     12.2640    113.5524
