~Version Information
VERS.                      2.0: CWLS Log ASCII Standard - VERSION 2.0
WRAP.                       NO: One line per depth step
~Well Information Block
STRT.FT               615.0000: 
STOP.FT              2815.0000: 
STEP.FT                 0.2500: 
NULL.                -999.2500: 
COMP.          Pioneer Natural Resources: COMPANY
WELL.              Loews 41-32: WELL
FLD.           Purgatoire River: FIELD
LOC.           751' FNL & 128' FEL: LOCATION
CNTY.               Las Animas: COUNTY
SRVC.                Patterson: SERVICE COMPANY
DATE.          Sun Feb 12 02:27:11 2006: LOG DATE
UWI.           05 071 08693 00: UNIQUE WELL ID
STAT.                 Colorado: STATE
~Curve Information Block
DEPT.FT            0 000 00 00: Depth
SN.Ohm-m                      : IEL Short Normal
SP.mV                         : IEL Spontaneous Potential
DIR.Ohm-m                     : IEL Induction Resistivity
GR.GAPI                       : Gamma Ray
~Parameter Information Block
~A  Depth        SN          SP         DIR          GR     
# ...
   749.0000   2000.0000   2000.0000     22.3255    131.5396
   749.2500   2000.0000   2000.0000     21.7050    137.8000
   749.5000   2000.0000   2000.0000     21.2000    144.9530
   749.7500   2000.0000   2000.0000     20.8030    148.2384
   750.0000   2000.0000   2000.0000     20.4982    151.2243
   750.2500   2000.0000   2000.0000     20.2720    151.9407
   750.5000   2000.0000   2000.0000     20.1121    151.2899
   750.7500   2000.0000   2000.0000     20.0014    150.1323
   751.0000   2000.0000   2000.0000     19.9189    148.1142
   751.2500   2000.0000   2000.0000     19.8492    146.7088
   751.5000   2000.0000   2000.0000     19.7941    144.2309
   751.7500   2000.0000   2000.0000     19.7736    142.1908
   752.0000   2000.0000   2000.0000     19.8136    138.5684
   752.2500   2000.0000   2000.0000     19.9301    135.9257
   752.5000   2000.0000   2000.0000     20.1191    132.2839
   752.7500   2000.0000   2000.0000     20.3575    130.7427
   753.0000   2000.0000   2000.0000     20.6069    130.8840
   753.2500   2000.0000   2000.0000     20.8211    132.7885
   753.5000   2000.0000   2000.0000     20.9582    137.3900
   753.7500   2000.0000   2000.0000     21.0001    140.4681
   754.0000   2000.0000   2000.0000     20.9676    143.1994
   754.2500   2000.0000   2000.0000     20.9155    143.4734
   754.5000   2000.0000   2000.0000     20.9113    142.9557
   754.7500   2000.0000   2000.0000     21.0090    143.2063
   755.0000   2000.0000   2000.0000     21.2297    145.3202
   755.2500   2000.0000   2000.0000     21.5527    147.3317
   755.5000   2000.0000   2000.0000     21.9190    149.4390
   755.7500   2000.0000   2000.0000     22.2462    149.2697
   756.0000   2000.0000   2000.0000     22.4524    145.5256
   756.2500   2000.0000   2000.0000     22.4776    140.3718
   756.5000   2000.0000   2000.0000     22.2968    129.0479
   756.7500   2000.0000   2000.0000     21.9230    120.2504
   757.0000   2000.0000   2000.0000     21.4027    108.6976
   757.2500   2000.0000   2000.0000     20.8017    104.2461
   757.5000   2000.0000   2000.0000     20.1849    104.2451
   757.7500   2000.0000   2000.0000     19.5954    108.3094
   758.0000   2000.0000   2000.0000     19.0441    118.8005
   758.2500   2000.0000   2000.0000     18.5153    127.9057
   758.5000   2000.0000   2000.0000     17.9814    143.4046
   758.7500   2000.0000   2000.0000     17.4180    153.8339
   759.0000   2000.0000   2000.0000     16.8121    167.5540
   759.2500   2000.0000   2000.0000     16.1644    174.7897
   759.5000   2000.0000   2000.0000     15.4892    182.9863
   759.7500   2000.0000   2000.0000     14.8135    187.0128
   760.0000   2000.0000   2000.0000     14.1712    190.7537
   760.2500   2000.0000   2000.0000     13.5949    191.2651
   760.5000   2000.0000   2000.0000     13.1071    188.8211
   760.7500   2000.0000   2000.0000     12.7149    185.5849
   761.0000   2000.0000   2000.0000     12.4117    179.7020
   761.2500   2000.0000   2000.0000     12.1844    175.7197
   761.5000   2000.0000   2000.0000     12.0223    170.5064
   761.7500   2000.0000   2000.0000     11.9194    168.0635
   762.0000   2000.0000   2000.0000     11.8712    166.4895
   762.2500   2000.0000   2000.0000     11.8687    166.7221
   762.5000   2000.0000   2000.0000     11.8977    168.3590
   762.7500   2000.0000   2000.0000     11.9435    169.8732
   763.0000   2000.0000   2000.0000     11.9955    171.9021
   763.2500   2000.0000   2000.0000     12.0495    172.5757
   763.5000   2000.0000   2000.0000     12.1043    172.0962
   763.7500   2000.0000   2000.0000     12.1579    170.8037
   764.0000   2000.0000   2000.0000     12.2061    167.6077
   764.2500   2000.0000   2000.0000     12.2459    164.7930
   764.5000   2000.0000   2000.0000     12.2794    160.0356
   764.7500   2000.0000   2000.0000     12.3148    157.0186
   765.0000   2000.0000   2000.0000     12.3613    153.9862
   765.2500   2000.0000   2000.0000     12.4260    153.6264
   765.5000   2000.0000   2000.0000     12.5170    155.5224
   765.7500   2000.0000   2000.0000     12.6483    157.4907
   766.0000   2000.0000   2000.0000     12.8367    159.6698
   766.2500   2000.0000   2000.0000     13.0893    160.2856
   766.5000   2000.0000   2000.0000     13.3887    160.9193
   766.7500   2000.0000   2000.0000     13.6946    161.9750
   767.0000   2000.0000   2000.0000     13.9640    164.9988
   767.2500   2000.0000   2000.0000     14.1768    167.3642
   767.5000   2000.0000   2000.0000     14.3419    169.4373
   767.7500   2000.0000   2000.0000     14.4833    168.9409
   768.0000   2000.0000   2000.0000     14.6231    165.5822
   768.2500   2000.0000   2000.0000     14.7791    162.7520
   768.5000   2000.0000   2000.0000     14.9682    160.0365
   768.7500   2000.0000   2000.0000     15.2053    159.9239
   769.0000   2000.0000   2000.0000     15.4905    161.5663
   769.2500   2000.0000   2000.0000     15.7939    162.9703
   769.5000   2000.0000   2000.0000     16.0557    164.6087
   769.7500   2000.0000   2000.0000     16.2108    165.1584
   770.0000   2000.0000   2000.0000     16.2251    164.4538
   770.2500   2000.0000   2000.0000     16.1130    162.4292
   770.5000   2000.0000   2000.0000     15.9204    157.2079
   770.7500   2000.0000   2000.0000     15.6926    153.3465
   771.0000   2000.0000   2000.0000     15.4578    149.3502
   771.2500   2000.0000   2000.0000     15.2292    148.5622
   771.5000   2000.0000   2000.0000     15.0158    149.7507
   771.7500   2000.0000   2000.0000     14.8289    151.5167
   772.0000   2000.0000   2000.0000     14.6818    154.9905
   772.2500   2000.0000   2000.0000     14.5829    157.6617
   772.5000   2000.0000   2000.0000     14.5299    161.6097
   772.7500   2000.0000   2000.0000     14.5106    163.6246
   773.0000   2000.0000   2000.0000     14.5105    164.7101
   773.2500   2000.0000   2000.0000     14.5218    163.7989
   773.5000   2000.0000   2000.0000     14.5474    160.0081
   773.7500   2000.0000   2000.0000     14.5974    156.2681
   774.0000   2000.0000   2000.0000     14.6810    150.2334
   774.2500   2000.0000   2000.0000     14.7994    146.9962
   774.5000   2000.0000   2000.0000     14.9458    144.6638
   774.7500   2000.0000   2000.0000     15.1121    144.8694
   775.0000   2000.0000   2000.0000     15.2961    147.2752
   775.2500   2000.0000   2000.0000     15.5008    150.1709
   775.5000   2000.0000   2000.0000     15.7259    156.5040
   775.7500   2000.0000   2000.0000     15.9609    161.5548
   776.0000   2000.0000   2000.0000     16.1891    168.4394
   776.2500   2000.0000   2000.0000     16.3978    171.6571
   776.5000   2000.0000   2000.0000     16.5875    174.5485
   776.7500   2000.0000   2000.0000     16.7681    175.9196
   777.0000   2000.0000   2000.0000     16.9513    177.9235
   777.2500   2000.0000   2000.0000     17.1456    178.9755
   777.5000   2000.0000   2000.0000     17.3609    179.0412
   777.7500   2000.0000   2000.0000     17.6122    177.6086
   778.0000   2000.0000   2000.0000     17.9145    173.3412
   778.2500   2000.0000   2000.0000     18.2694    169.6159
   778.5000   2000.0000   2000.0000     18.6522    163.8411
   778.7500   2000.0000   2000.0000     19.0138    160.2826
   779.0000   2000.0000   2000.0000     19.3003    155.4467
   779.2500   2000.0000   2000.0000     19.4795    152.5033
   779.5000   2000.0000   2000.0000     19.5555    148.8658
   779.7500   2000.0000   2000.0000     19.5622    147.2867
   780.0000   2000.0000   2000.0000     19.5461    146.0145
   780.2500   2000.0000   2000.0000     19.5473    145.3019
   780.5000   2000.0000   2000.0000     19.5854    143.7582
   780.7500   2000.0000   2000.0000     19.6541    142.7987
   781.0000   2000.0000   2000.0000     19.7308    142.9843
   781.2500   2000.0000   2000.0000     19.7959    144.6648
   781.5000   2000.0000   2000.0000     19.8493    148.4603
   781.7500   2000.0000   2000.0000     19.9107    150.5440
   782.0000   2000.0000   2000.0000     20.0061    151.4696
   782.2500   2000.0000   2000.0000     20.1557    150.5304
