~Version Information
VERS.                      2.0: CWLS Log ASCII Standard - VERSION 2.0
WRAP.                       NO: One line per depth step
~Well Information Block
STRT.FT               -14.0000: 
STOP.FT               951.0000: 
STEP.FT                 0.2500: 
NULL.                -999.2500: 
COMP.          Pioneer Natural Resources: COMPANY
WELL.             Giggle 21-22: WELL
FLD.           Purgatoire River: FIELD
LOC.           950' FNL & 2094' FWL: LOCATION
CNTY.               Las Animas: COUNTY
SRVC.                         : SERVICE COMPANY
DATE.          Mon Apr 17 17:51:33 2006: LOG DATE
UWI.           05 071 08726 00: UNIQUE WELL ID
STAT.                       CO: STATE
~Curve Information Block
DEPT.FT            0 000 00 00: Depth
CCL.                          : Casing Collar Locator
TT3.usec                      : CBL 3' Travel Time
AMP3.mV                       : CBL 3' Amplitude
GR.GAPI                       : Gamma Ray
~Parameter Information Block
~A  Depth       CCL         TT3         AMP3         GR     
# ...
   220.5000      0.0000    768.5616      5.3818     32.0023
   220.7500      0.0000    771.5169      5.4754     34.3392
   221.0000      0.0000    775.7244      5.5551     36.5813
   221.2500      0.0000    781.3217      5.5962     38.0557
   221.5000      0.0000    788.8128      5.5858     38.9677
   221.7500      0.0000    798.1965      5.5289     39.7668
   222.0000      0.0000    808.7152      5.4504     40.6367
   222.2500      0.0000    819.2086      5.3791     41.8532
   222.5000      0.0000    827.8367      5.3264     44.1678
   222.7500      0.0000    831.6334      5.2822     48.3693
   223.0000      0.0000    827.7635      5.2320     54.7133
   223.2500      0.0000    816.1384      5.1803     62.9829
   223.5000      0.0000    800.3907      5.1490     72.6012
   223.7500      0.0000    785.5714      5.1564     82.3444
   224.0000      0.0000    774.8778      5.2033     90.4102
   224.2500      0.0000    768.7888      5.2762     95.2557
   224.5000      0.0000    766.4993      5.3557     96.4874
   224.7500      0.0000    767.2000      5.4220     95.0703
   225.0000      0.0000    770.4763      5.4612     92.7266
   225.2500      0.0000    776.2095      5.4749     91.0850
   225.5000      0.0000    783.6589      5.4798     91.3193
   225.7500      0.0000    790.3442      5.4939     94.1069
   226.0000      0.0000    792.9360      5.5199     99.2508
   226.2500      0.0000    790.0441      5.5434    105.3592
   226.5000      0.0000    783.6454      5.5514    110.4178
   226.7500      0.0000    777.6672      5.5518    112.8753
   227.0000      0.0000    775.6979      5.5690    112.1707
   227.2500      0.0000    779.5983      5.6172    108.5146
   227.5000      0.0000    788.7146      5.6799    102.4782
   227.7500      0.0000    799.5004      5.7231     94.8106
   228.0000      0.0000    806.7426      5.7277     86.5900
   228.2500      0.0000    807.0206      5.6970     79.3349
   228.5000      0.0000    801.6498      5.6392     74.4823
   228.7500      0.0000    795.5714      5.5638     72.4728
   229.0000      0.0000    793.4063      5.5036     72.5688
   229.2500      0.0000    797.5640      5.5081     73.8408
   229.5000      0.0000    809.1480      5.5853     76.1389
   229.7500      0.0000    827.6492      5.6682     79.7612
   230.0000      0.0000    848.9196      5.6789     84.2803
   230.2500      0.0000    866.2665      5.6125     88.2941
   230.5000      0.0000    875.2606      5.5289     90.6825
   230.7500      0.0000    875.7505      5.4793     91.8730
   231.0000      5.0000    868.6265      5.4699     93.3309
   231.2500      2.7576    853.3235      5.4827     95.7430
   231.5000      0.0000    830.3384      5.5079     98.2017
   231.7500      0.0000    804.7699      5.5561     99.3999
   232.0000      0.0000    785.0710      5.6464     99.2331
   232.2500      0.0000    777.0057      5.7725     98.8541
   232.5000      0.0000    778.5324      5.8854     99.3202
   232.7500      0.0000    781.5695      5.9334    100.4393
   233.0000      0.0000    779.5777      5.9107    100.9235
   233.2500      0.0000    772.7614      5.8501     99.6568
   233.5000      0.0000    765.7195      5.7787     96.9587
   233.7500      0.0000    761.8245      5.7036     94.6301
   234.0000      0.0000    760.8381      5.6267     94.5180
   234.2500      0.0000    760.7784      5.5564     96.7287
   234.5000      0.0000    760.7809      5.5068     99.2711
   234.7500      0.0000    762.2285      5.4916     99.7359
   235.0000      0.0000    767.3607      5.5211     97.2375
   235.2500      0.0000    776.2923      5.5996     92.5488
   235.5000      0.0000    785.4418      5.7183     86.7958
   235.7500      0.0000    789.8899      5.8446     80.5123
   236.0000      0.0000    787.7311      5.9268     73.6543
   236.2500      0.0000    781.5341      5.9136     66.0325
   236.5000      0.0000    775.5659      5.7801     57.9235
   236.7500      0.0000    772.5763      5.5566     50.4947
   237.0000      0.0000    773.2457      5.3300     45.3147
   237.2500      0.0000    777.3636      5.1960     43.1257
   237.5000      0.0000    784.5358      5.1963     43.2493
   237.7500      0.0000    793.9290      5.3029     44.4094
   238.0000      0.0000    803.8060      5.4484     46.0175
   238.2500      0.0000    811.6710      5.5652     48.3598
   238.5000      0.0000    815.3378      5.6124     51.4209
   238.7500      0.0000    814.3955      5.5859     53.9768
   239.0000      0.0000    810.8839      5.5092     54.5257
   239.2500      0.0000    808.5604      5.4115     53.0455
   239.5000      0.0000    811.0581      5.3125     51.2307
   239.7500      0.0000    819.5635      5.2180     51.0152
   240.0000      0.0000    831.3925      5.1229     53.3648
   240.2500      0.0000    841.3744      5.0192     58.1600
   240.5000      0.0000    845.3112      4.9072     64.3609
   240.7500      0.0000    841.9833      4.8044     70.2584
   241.0000      0.0000    832.3339      4.7441     74.2657
   241.2500      0.0000    818.4610      4.7536     75.8111
   241.5000      0.0000    803.9755      4.8263     75.3678
   241.7500      0.0000    793.7258      4.9211     73.6480
   242.0000      0.0000    791.4596      4.9928     71.0351
   242.2500      0.0000    797.5151      5.0235     67.9846
   242.5000      0.0000    808.7505      5.0282     65.7700
   242.7500      0.0000    820.5203      5.0420     66.3333
   243.0000      0.0000    829.3164      5.1012     70.8004
   243.2500      0.0000    834.3647      5.2225     77.8798
   243.5000      0.0000    836.6249      5.3941     84.0735
   243.7500      0.0000    836.2001      5.5880     86.0087
   244.0000      0.0000    831.0015      5.7778     82.8446
   244.2500      0.0000    818.3137      5.9437     76.5606
   244.5000      0.0000    798.3201      6.0728     70.2117
   244.7500      0.0000    776.7728      6.1605     65.9220
   245.0000      0.0000    762.9395      6.2107     64.0753
   245.2500      0.0000    762.6851      6.2354     63.8674
   245.5000      0.0000    773.4666      6.2503     64.3967
   245.7500      0.0000    786.9677      6.2636     65.3647
   246.0000      0.0000    795.8343      6.2701     67.0201
   246.2500      0.0000    797.4550      6.2638     69.6797
   246.5000      0.0000    793.2026      6.2469     73.2134
   246.7500      0.0000    786.3093      6.2192     76.8710
   247.0000      0.0000    780.5322      6.1691     79.7001
   247.2500      0.0000    779.2383      6.0924     81.1162
   247.5000      0.0000    784.0678      6.0131     80.9638
   247.7500      0.0000    793.6597      5.9710     79.3515
   248.0000      0.0000    803.8283      5.9870     76.8702
   248.2500      0.0000    810.2289      6.0474     74.7033
   248.5000      0.0000    811.6708      6.1217     73.8584
   248.7500      0.0000    810.7690      6.1860     74.2143
   249.0000      0.0000    811.3129      6.2281     74.9177
   249.2500      0.0000    815.1188      6.2416     75.7932
   249.5000      0.0000    821.0148      6.2301     77.5868
   249.7500      0.0000    826.1449      6.2129     80.5370
   250.0000      0.0000    828.0815      6.2117     83.5146
   250.2500      0.0000    826.1750      6.2243     85.1252
   250.5000      0.0000    821.4460      6.2244     85.1832
   250.7500      0.0000    815.1294      6.1863     84.7553
   251.0000      0.0000    807.0630      6.1038     85.0516
   251.2500      0.0000    795.9644      5.9884     86.3816
   251.5000      0.0000    781.7496      5.8641     87.8834
   251.7500      0.0000    767.0716      5.7625     88.1397
   252.0000      0.0000    755.6434      5.7088     86.2300
   252.2500      0.0000    748.6577      5.7074     82.3273
   252.5000      0.0000    742.5461      5.7457     77.4760
   252.7500      0.0000    730.5844      5.8038     73.0247
   253.0000      0.0000    707.7941      5.8553     70.1467
   253.2500      0.0000    675.2340      5.8759     69.4508
   253.5000      0.0000    639.6709      5.8647     70.7262
   253.7500     -2.1149    609.7014      5.8471     73.0719
