~Version Information
 VERS.                                  2.0 : CWLS LAS VERSION
 WRAP.                                   NO : WRAPING MODE
 SWARE .                 MController 2.5.0N : SOFTWARE VERSION
~Well Information
 WELL.                        Cleaver 24-12 : WELL
 COMP.    Pioneer Natural Resources USA Inc : COMPANY
 FLD.                      Purgatoire River : FIELD
 LOC.                SE/SW Sec 12 T32S R67W : LOCATION
 DATE.                         1/05-06/2006 : DATE(S) LOGGED
 SRVC.       BLANCO Geological Services LLC : SERVICE COMPANY
 STAT.                                   CO : STATE
 CNTY.                           Las Animas : COUNTY
 CTRY.                                  USA : COUNTRY
 API.                       05-071-08634-00 : API NUMBER
 STRT.FT                             461.00 : START DEPTH
 STOP.FT                            3055.00 : STOP DEPTH
 STEP.FT                               1.00 : DEPTH INCREMENT
 NULL.                                -9999 : NULL VALUE
~Curve information
 DEPTH.FT                                   :
 ROP.MIN/FT                                 :
 GAS.UNITS                                  :
~ASCII Log data
# ...
      2861.0         0.43         53.1 
      2862.0         0.33         24.8 
      2863.0         0.33         31.0 
      2864.0         0.37         60.3 
      2865.0         0.40         52.3 
      2866.0         0.80         46.6 
      2867.0         0.68         54.8 
      2868.0         0.33         36.9 
      2869.0         0.40          6.4 
      2870.0         0.43         48.2 
      2871.0         0.37         27.2 
      2872.0         0.87         27.1 
      2873.0         0.57          7.6 
      2874.0         0.82         18.1 
      2875.0         0.37         16.0 
      2876.0         9.62         63.7 
      2877.0         0.73         65.2 
      2878.0         0.70         62.5 
      2879.0         0.70         62.0 
      2880.0         0.62         57.3 
      2881.0         0.67         83.2 
      2882.0         0.13         69.0 
      2883.0         0.30         46.2 
      2884.0         0.23         27.5 
      2885.0         0.43         42.5 
      2886.0         0.57         35.5 
      2887.0         0.60         39.1 
      2888.0         0.78         40.4 
      2889.0         0.87         44.2 
      2890.0         0.80         36.1 
      2891.0         0.70         30.7 
      2892.0         0.58         29.3 
      2893.0         0.40         16.0 
      2894.0         0.37         12.2 
      2895.0         0.43         18.9 
      2896.0         0.47         20.9 
      2897.0         0.47         18.0 
      2898.0         0.33         17.1 
      2899.0         0.27         10.1 
      2900.0         0.43         16.0 
      2901.0         0.58         23.7 
      2902.0         0.23         15.2 
      2903.0         0.37         50.3 
      2904.0         0.27         34.9 
      2905.0         0.17         34.9 
      2906.0        21.00        205.5 
      2907.0         1.08        167.3 
      2908.0         1.13        237.7 
      2909.0         1.40        127.2 
      2910.0         0.85         23.9 
      2911.0         0.60         37.4 
      2912.0         0.53         21.8 
      2913.0         0.37          8.2 
      2914.0         0.47         34.2 
      2915.0         0.70         49.8 
      2916.0         0.68         38.5 
      2917.0         1.33         56.4 
      2918.0         0.47         42.8 
      2919.0         0.43         48.8 
      2920.0         0.33         37.0 
      2921.0         0.40         25.7 
      2922.0         0.42         23.7 
      2923.0         0.47          9.3 
      2924.0         0.47          2.3 
      2925.0         0.43          0.3 
      2926.0         0.63         45.3 
      2927.0         0.87         44.2 
      2928.0         1.05         55.5 
      2929.0         1.07         63.3 
      2930.0         0.93         60.1 
      2931.0         1.08         42.1 
      2932.0         1.00         33.5 
      2933.0         1.10         20.5 
      2934.0         1.32         19.6 
      2935.0         1.13         15.3 
      2936.0        11.93         84.4 
      2937.0         0.80        115.0 
      2938.0         0.50        119.0 
      2939.0         0.40        159.8 
      2940.0         0.63        175.9 
      2941.0         0.67        195.6 
      2942.0         0.88        232.4 
      2943.0         0.60        178.1 
      2944.0         0.70        139.2 
      2945.0         0.70        136.5 
      2946.0         0.65        131.2 
      2947.0         0.63        147.9 
      2948.0         0.63        134.3 
      2949.0         0.67        111.0 
      2950.0         0.67         50.9 
      2951.0         0.68         40.2 
      2952.0         0.63         37.5 
      2953.0         0.60         35.7 
      2954.0         0.60         25.0 
      2955.0         0.67         32.3 
      2956.0         0.70         46.1 
      2957.0         0.68         41.4 
      2958.0         0.67         57.4 
      2959.0         0.57         49.7 
      2960.0         0.57         53.0 
      2961.0         0.60         67.4 
      2962.0         0.62         60.7 
      2963.0         0.57         71.6 
      2964.0         0.57         57.2 
      2965.0         0.60         59.2 
      2966.0        12.80        187.6 
      2967.0         1.93        212.7 
      2968.0         0.85        295.2 
      2969.0         0.73        229.0 
      2970.0         0.87        243.4 
      2971.0         0.90        222.3 
      2972.0         0.85        251.9 
      2973.0         0.63        221.3 
      2974.0         0.63        216.7 
      2975.0         0.67        110.4 
      2976.0         0.75         58.4 
      2977.0         0.70         45.5 
      2978.0         0.63         35.3 
      2979.0         0.63         31.1 
      2980.0         0.70         30.0 
      2981.0         0.78         30.8 
      2982.0         0.83         45.3 
      2983.0         0.80         47.1 
      2984.0         0.57         53.3 
      2985.0         0.67         70.6 
      2986.0         0.68         70.5 
      2987.0         0.60         63.2 
      2988.0         0.50         65.4 
      2989.0         0.53         76.3 
      2990.0         0.57         94.0 
      2991.0         0.57        106.4 
      2992.0         0.55        119.6 
      2993.0         0.70        128.1 
      2994.0         0.83        117.8 
      2995.0         0.80         91.0 
      2996.0        17.67        367.8 
      2997.0         1.00         92.3 
      2998.0         0.57         48.7 
      2999.0         0.53         42.4 
      3000.0         0.60         42.6 
      3001.0         0.82         57.8 
      3002.0         0.80         66.5 
      3003.0         0.73         71.7 
      3004.0         0.77         64.1 
      3005.0         0.72         56.3 
      3006.0         0.63         63.8 
      3007.0         0.67         64.8 
      3008.0         0.73         72.6 
      3009.0         0.60         51.3 
      3010.0         0.62         64.6 
      3011.0         0.60         72.9 
      3012.0         0.60         84.7 
      3013.0         0.60         78.3 
      3014.0         0.60         82.9 
      3015.0         0.63         95.8 
      3016.0         0.82         87.4 
      3017.0         0.67         65.6 
      3018.0         0.70         48.5 
      3019.0         0.67         45.4 
      3020.0         0.67         58.1 
      3021.0         0.72         73.2 
      3022.0         0.70         54.0 
      3023.0         0.67         70.8 
      3024.0         0.70         68.4 
      3025.0         1.02         82.6 
      3026.0         3.72         84.3 
      3027.0         0.90         87.7 
      3028.0         0.80        130.2 
      3029.0         0.92        152.7 
      3030.0         1.23        162.9 
      3031.0         1.10        139.4 
      3032.0         1.05        142.7 
      3033.0         1.03        113.9 
      3034.0         0.97        140.3 
      3035.0         1.07         95.1 
      3036.0         1.22        154.7 
      3037.0         1.13         87.5 
      3038.0         0.73         18.6 
      3039.0         0.88         25.1 
      3040.0         0.93         27.9 
      3041.0         0.73         31.4 
      3042.0         1.38         39.1 
      3043.0         0.67         39.2 
      3044.0         0.47         43.4 
      3045.0         0.77         56.6 
      3046.0         0.77         54.3 
      3047.0         0.68         52.2 
      3048.0         0.87      -9999.0 
      3049.0         0.73      -9999.0 
      3050.0         1.85      -9999.0 
      3051.0         0.50      -9999.0 
      3052.0         0.60      -9999.0 
      3053.0         0.77      -9999.0 
      3054.0         0.27      -9999.0 
      3055.0         0.47      -9999.0 
