~Version Information
VERS.                      2.0: CWLS Log ASCII Standard - VERSION 2.0
WRAP.                       NO: One line per depth step
~Well Information Block
STRT.FT               230.2000: 
STOP.FT              1518.7000: 
STEP.FT                 0.1000: 
NULL.                -999.2500: 
COMP.          Pioneer Natural Resources: COMPANY
WELL.          Mow 8-14-33-67 Tr: WELL
FLD.           Purgatoire River: FIELD
LOC.           2258' FNL & 929' FEL: LOCATION
PROV.                 Colorado: PROVINCE
CNTY.               Las Animas: COUNTRY
SRVC.                Patterson: SERVICE COMPANY
DATE.          Mon Jan 30 11:22:55 2006: LOG DATE
UWI.           05 071 08684 00: UNIQUE WELL ID
~Curve Information Block
DEPT.FT            0 000 00 00: Depth
DCAL.in                       : CDL Caliper
DPOR.pu                       : CDL Density Porosity
RHOB.g/cc                     : CDL Bulk Density
RHOC.g/cc                     : CDL Density Correction
GR.GAPI                       : Gamma Ray
~Parameter Information Block
~A  Depth       DCAL        DPOR        RHOB        RHOC         GR     
# ...
   846.2000      7.9579     -6.4182      2.7559      0.2113     93.7460
   846.3000      7.9569     -5.7909      2.7455      0.1595     93.9191
   846.4000      7.9569     -3.8235      2.7131      0.1137    100.3386
   846.5000      7.9397     -1.6315      2.6769      0.0620    104.4392
   846.6000      7.9397      0.5929      2.6402     -0.0481    109.5850
   846.7000      7.9397      2.3545      2.6112     -0.0153    119.6534
   846.8000      7.9261      3.4645      2.5928     -0.0518    122.1696
   846.9000      7.9261      4.4332      2.5769     -0.0234    111.5363
   847.0000      7.9327      5.7771      2.5547     -0.0602    101.3450
   847.1000      7.9327      7.5382      2.5256      0.0485    100.6562
   847.2000      7.9327      9.8138      2.4881      0.0903    106.6735
   847.3000      7.9474     12.2744      2.4475      0.0856    110.8243
   847.4000      7.9474     13.6860      2.4242      0.0119    108.4752
   847.5000      7.9550     13.4078      2.4288      0.0546    106.6504
   847.6000      7.9550     12.4025      2.4454      0.0460    112.6606
   847.7000      7.9550     11.9291      2.4532      0.1114    122.0982
   847.8000      7.9574     12.2263      2.4483      0.0562    121.9941
   847.9000      7.9574     12.7618      2.4394      0.0668    115.1683
   848.0000      7.9532     12.7975      2.4388      0.0224    115.5299
   848.1000      7.9532     11.8703      2.4541      0.0401    117.0548
   848.2000      7.9532     10.7049      2.4734      0.1081    112.8393
   848.3000      7.9403      9.7867      2.4885      0.0634    109.7722
   848.4000      7.9403      8.4972      2.5098      0.0664    109.6984
   848.5000      7.9281      6.8747      2.5366      0.0922    112.3231
   848.6000      7.9281      5.8116      2.5541      0.1024    115.3015
   848.7000      7.9281      5.7386      2.5553      0.0660    112.6399
   848.8000      7.9192      6.2998      2.5461      0.0784    100.4894
   848.9000      7.9192      6.9480      2.5354      0.0611     87.9519
   849.0000      7.9123      7.2091      2.5310      0.0584     89.3106
   849.1000      7.9123      6.7657      2.5384      0.0381     98.5120
   849.2000      7.9123      5.3901      2.5611      0.0370    103.7943
   849.3000      7.9112      3.4425      2.5932      0.1144    105.6198
   849.4000      7.9112      1.6330      2.6231      0.0954    106.0436
   849.5000      7.9126     -0.0333      2.6505      0.0993    105.9791
   849.6000      7.9126     -1.5834      2.6761      0.0946    107.2367
   849.7000      7.9126     -2.6710      2.6941      0.0790    104.3697
   849.8000      7.9118     -3.5715      2.7089      0.0949     95.2070
   849.9000      7.9118     -4.7963      2.7291      0.0886     88.2318
   850.0000      7.9064     -5.7430      2.7448      0.0984     88.0324
   850.1000      7.9064     -5.1740      2.7354      0.0737     90.6034
   850.2000      7.9064     -2.8486      2.6970      0.0364     94.1089
   850.3000      7.8965      0.0091      2.6499     -0.0049     99.1430
   850.4000      7.8965      1.4726      2.6257     -0.0255    102.9002
   850.5000      7.8865      1.1137      2.6316      0.0223    101.6815
   850.6000      7.8865      1.1008      2.6318      0.0585    101.3709
   850.7000      7.8865      2.9131      2.6019      0.0480    111.9881
   850.8000      7.8799      5.1494      2.5650      0.0178    125.3897
   850.9000      7.8799      6.2692      2.5466      0.0552    123.6536
   851.0000      7.8771      6.5194      2.5424      0.0647    113.3617
   851.1000      7.8771      6.5193      2.5424      0.0787    112.3457
   851.2000      7.8771      6.4049      2.5443      0.1164    116.4243
   851.3000      7.8786      6.2186      2.5474      0.0785    113.6624
   851.4000      7.8786      6.1226      2.5490      0.0791    108.9630
   851.5000      7.8851      6.7263      2.5390      0.0726    112.6888
   851.6000      7.8851      8.3154      2.5128      0.0831    121.2749
   851.7000      7.8851     10.0481      2.4842      0.0107    123.2276
   851.8000      7.8944     10.6780      2.4738      0.0246    116.8662
   851.9000      7.8944      9.9819      2.4853      0.0599    110.0196
   852.0000      7.8956      8.8058      2.5047      0.0617    109.3156
   852.1000      7.8956      8.5077      2.5096      0.0764    115.4598
   852.2000      7.8956      9.7873      2.4885      0.0671    121.6917
   852.3000      7.8882     11.2372      2.4646     -0.0007    119.5258
   852.4000      7.8882     10.9356      2.4696      0.0473    112.9115
   852.5000      7.8803      8.8802      2.5035      0.0304    111.3598
   852.6000      7.8803      5.6769      2.5563      0.0538    112.6709
   852.7000      7.8803      1.2434      2.6295      0.0714    110.6930
   852.8000      7.8726     -3.6768      2.7107      0.1718    112.1019
   852.9000      7.8726     -6.9588      2.7648      0.2043    119.3678
   853.0000      7.8668     -7.2650      2.7699      0.1794    118.6249
   853.1000      7.8668     -5.3458      2.7382      0.1221    108.3914
   853.2000      7.8668     -2.5363      2.6918      0.1166    104.8408
   853.3000      7.8615      0.0631      2.6490      0.0622    110.9212
   853.4000      7.8615      1.1515      2.6310      0.0731    112.0500
   853.5000      7.8408      1.2300      2.6297      0.1092    102.5742
   853.6000      7.8408      2.9038      2.6021      0.0936     87.3521
   853.7000      7.8408      6.6543      2.5402      0.0256     72.9119
   853.8000      7.8166     10.1387      2.4827      0.0504     69.1480
   853.9000      7.8166     12.0646      2.4509      0.0992     74.8626
   854.0000      7.8130     12.9954      2.4356      0.1129     79.3708
   854.1000      7.8130     13.2977      2.4306      0.0688     83.8785
   854.2000      7.8130     13.0810      2.4342      0.1085     92.1607
   854.3000      7.8272     12.9094      2.4370      0.1376     96.9549
   854.4000      7.8272     12.9063      2.4370      0.1220     96.0284
   854.5000      7.8412     12.5825      2.4424      0.1140     98.0485
   854.6000      7.8412     11.7327      2.4564      0.1315    105.7223
   854.7000      7.8412     10.6073      2.4750      0.1536    110.6431
   854.8000      7.8472      9.6552      2.4907      0.1277    106.5611
   854.9000      7.8472      9.2449      2.4975      0.1511     97.7934
   855.0000      7.8500      9.0404      2.5008      0.1073     94.7345
   855.1000      7.8500      8.6527      2.5072      0.1604    100.0850
   855.2000      7.8500      8.8811      2.5035      0.1319    109.5533
   855.3000      7.8521     10.3276      2.4796      0.1201    116.4444
   855.4000      7.8521     12.1394      2.4497      0.0712    115.9267
   855.5000      7.8550     13.1581      2.4329      0.0562    114.9789
   855.6000      7.8550     13.2026      2.4322      0.0284    122.3800
   855.7000      7.8550     12.7220      2.4401      0.0770    129.2403
   855.8000      7.8665     12.0676      2.4509      0.0798    124.1355
   855.9000      7.8665     11.4135      2.4617      0.0915    112.0182
   856.0000      7.8869     11.1785      2.4656      0.1040     99.6337
   856.1000      7.8869     11.2754      2.4640      0.0920     93.6656
   856.2000      7.8869     10.9489      2.4693      0.1044    101.3648
   856.3000      7.9041     10.3034      2.4800      0.1122    119.5054
   856.4000      7.9041     10.0022      2.4850      0.0686    136.8616
   856.5000      7.9115     10.1335      2.4828      0.0809    146.6136
   856.6000      7.9115     10.3354      2.4795      0.0803    150.1496
   856.7000      7.9115     10.0625      2.4840      0.0834    145.6952
   856.8000      7.9099      8.9649      2.5021      0.0838    130.6514
   856.9000      7.9099      7.4927      2.5264      0.1108    114.7467
   857.0000      7.9111      6.5676      2.5416      0.0914    107.9646
   857.1000      7.9111      6.4420      2.5437      0.0819    109.5393
   857.2000      7.9111      6.9181      2.5359      0.0660    116.1232
   857.3000      7.9139      7.8336      2.5207      0.0732    124.5166
