~Version Information
 VERS.                                  2.0 : CWLS LAS VERSION
 WRAP.                                   NO : WRAPING MODE
 SWARE .                 MController 2.5.0N : SOFTWARE VERSION
~Well Information
 WELL.                        ROLLS 14-14Tr : WELL
 COMP.   Pioneer Natural Resources, USA INC : COMPANY
 FLD.                      PURGATOIRE RIVER : FIELD
 LOC.                SW/SW SEC 14 T32S R66W : LOCATION
 DATE.                           08/02/2005 : DATE(S) LOGGED
 SRVC.       BLANCO GEOLOGICAL SERVICES LLC : SERVICE COMPANY
 STAT.                             COLORADO : STATE
 CNTY.                           LAS ANIMAS : COUNTY
 CTRY.                                  USA : COUNTRY
 API.                       05-071-08454-00 : API NUMBER
 STRT.FT                             744.00 : START DEPTH
 STOP.FT                            1800.00 : STOP DEPTH
 STEP.FT                               1.00 : DEPTH INCREMENT
 NULL.                                -9999 : NULL VALUE
~Curve information
 DEPTH.FT                                   :
 ROP.MIN/FT                                 :
 GAS.UNITS                                  :
~ASCII Log data
# ...
      1545.0         0.28        714.0 
      1546.0         0.27        697.5 
      1547.0         0.27        690.4 
      1548.0         0.23        688.8 
      1549.0         0.23        690.4 
      1550.0         0.33        715.6 
      1551.0         0.30        718.2 
      1552.0         0.23        706.2 
      1553.0         0.30        655.6 
      1554.0         0.30        626.0 
      1555.0         0.27        626.3 
      1556.0         1.32       1181.6 
      1557.0         0.70       1551.5 
      1558.0         0.30       1620.2 
      1559.0         0.20       1614.7 
      1560.0         0.40       1556.7 
      1561.0         0.47       1276.0 
      1562.0         0.43       1046.6 
      1563.0         0.35       1033.3 
      1564.0         0.27        941.5 
      1565.0         0.23        891.2 
      1566.0         0.17        940.8 
      1567.0         0.20       1015.6 
      1568.0         0.17       1043.3 
      1569.0         0.17       1032.7 
      1570.0         0.17       1011.7 
      1571.0         0.13        976.6 
      1572.0         0.20        969.2 
      1573.0         0.23        935.0 
      1574.0         0.27        908.9 
      1575.0         0.20        910.9 
      1576.0         0.20        908.9 
      1577.0         0.40        895.1 
      1578.0         0.32        860.3 
      1579.0         0.30        841.6 
      1580.0         0.23        849.6 
      1581.0         0.37        853.5 
      1582.0         0.37        849.6 
      1583.0         0.33        638.9 
      1584.0         0.30        558.0 
      1585.0         0.27        494.2 
      1586.0         1.82        451.3 
      1587.0         0.67          7.0 
      1588.0         0.13          8.2 
      1589.0         0.23          8.2 
      1590.0         0.07          8.4 
      1591.0         0.10          8.5 
      1592.0         0.27          8.8 
      1593.0         0.23          9.3 
      1594.0         0.17          9.7 
      1595.0         0.20          9.0 
      1596.0         0.30          0.8 
      1597.0         0.28          3.9 
      1598.0         0.30          0.6 
      1599.0         0.37          5.0 
      1600.0         0.33          6.0 
      1601.0         0.30          6.5 
      1602.0         0.30          7.0 
      1603.0         0.30         92.5 
      1604.0         0.30        149.2 
      1605.0         0.23        173.3 
      1606.0         0.23        190.0 
      1607.0         0.23        193.3 
      1608.0         0.27        192.3 
      1609.0         0.28        168.9 
      1610.0         0.27        163.3 
      1611.0         0.30        182.2 
      1612.0         0.23        181.2 
      1613.0         0.27        185.2 
      1614.0         0.23        198.0 
      1615.0         0.20        203.4 
      1616.0         2.78       1526.7 
      1617.0         0.37       1572.8 
      1618.0         0.40       1570.2 
      1619.0         0.43       1369.8 
      1620.0         0.50       1024.3 
      1621.0         0.58        992.1 
      1622.0         0.30        991.8 
      1623.0         0.33        917.3 
      1624.0         0.33        883.8 
      1625.0         0.23        874.8 
      1626.0         0.23        855.8 
      1627.0         0.20        830.6 
      1628.0         0.23        846.1 
      1629.0         0.20        918.9 
      1630.0         0.23        963.4 
      1631.0         0.17        988.2 
      1632.0         0.20        985.6 
      1633.0         0.17        975.3 
      1634.0         0.20        955.3 
      1635.0         0.28        941.2 
      1636.0         0.27        922.2 
      1637.0         0.27        901.2 
      1638.0         0.23        894.1 
      1639.0         0.27        894.4 
      1640.0         0.27        887.7 
      1641.0         0.37        870.3 
      1642.0         0.37        837.4 
      1643.0         0.40        831.6 
      1644.0         0.40        830.0 
      1645.0         0.38        761.7 
      1646.0         2.97       1978.5 
      1647.0         0.23       1746.2 
      1648.0         0.45       1630.8 
      1649.0         0.17       1353.0 
      1650.0         0.30       1162.9 
      1651.0         0.57       1008.2 
      1652.0         0.47       1031.4 
      1653.0         0.37       1021.1 
      1654.0         0.33        943.4 
      1655.0         0.27        901.5 
      1656.0         0.23        897.7 
      1657.0         0.38        897.3 
      1658.0         0.40        877.0 
      1659.0         0.33        860.0 
      1660.0         0.33        859.3 
      1661.0         0.33        861.9 
      1662.0         0.37        880.3 
      1663.0         0.33        898.3 
      1664.0         0.27        913.1 
      1665.0         0.33        934.4 
      1666.0         0.43        920.9 
      1667.0         0.55        859.3 
      1668.0         0.33        867.0 
      1669.0         0.27        869.6 
      1670.0         0.30        868.7 
      1671.0         0.30        909.9 
      1672.0         0.30        949.5 
      1673.0         0.33        947.0 
      1674.0         0.27        854.5 
      1675.0         0.30        778.7 
      1676.0         2.45       1851.2 
      1677.0         0.33       1621.5 
      1678.0         0.47       1477.1 
      1679.0         0.53       1236.0 
      1680.0         0.38       1041.7 
      1681.0         0.47        963.7 
      1682.0         0.57        982.7 
      1683.0         0.43        989.2 
      1684.0         0.33        950.5 
      1685.0         0.23        972.4 
      1686.0         0.30        981.5 
      1687.0         0.20        965.3 
      1688.0         0.17        918.6 
      1689.0         0.27        897.7 
      1690.0         0.25        888.3 
      1691.0         0.30        880.9 
      1692.0         0.23        878.3 
      1693.0         0.23        865.8 
      1694.0         0.30        927.0 
      1695.0         0.27        953.4 
      1696.0         0.27        949.9 
      1697.0         0.27        928.6 
      1698.0         0.23        908.6 
      1699.0         0.30        935.0 
      1700.0         0.33        987.6 
      1701.0         0.20        995.3 
      1702.0         0.17        963.4 
      1703.0         0.15        894.1 
      1704.0         0.23        821.6 
      1705.0         0.30        787.8 
      1706.0         2.88       1949.2 
      1707.0         0.43       1715.3 
      1708.0         0.57       1380.4 
      1709.0         0.40        961.5 
      1710.0         0.37        995.0 
      1711.0         0.37       1027.9 
      1712.0         0.37       1030.8 
      1713.0         0.30       1030.8 
      1714.0         0.35       1037.2 
      1715.0         0.37       1039.5 
      1716.0         0.43        996.6 
      1717.0         0.43        894.8 
      1718.0         0.20        923.8 
      1719.0         0.20        949.5 
      1720.0         0.20        951.8 
      1721.0         0.20        945.0 
      1722.0         0.20        924.4 
      1723.0         0.27        907.0 
      1724.0         0.23        889.0 
      1725.0         0.20        884.8 
      1726.0         0.17        901.5 
      1727.0         0.22        919.9 
      1728.0         0.17        922.5 
      1729.0         0.17        908.9 
      1730.0         0.17        887.0 
      1731.0         0.17        825.5 
      1732.0         0.17        783.3 
      1733.0         0.17        774.9 
      1734.0         0.20        786.5 
      1735.0         0.17        815.5 
      1736.0         0.17        838.7 
      1737.0         1.10       1704.0 
      1738.0         0.92       1989.5 
      1739.0         0.47       1469.4 
      1740.0         0.40       1337.6 
      1741.0         0.33       1340.1 
      1742.0         0.30       1276.3 
      1743.0         0.33       1150.6 
      1744.0         0.33       1078.5 
