~Version Information
VERS.                      2.0: CWLS Log ASCII Standard - VERSION 2.0
WRAP.                       NO: One line per depth step
~Well Information Block
STRT.FT                -9.0000: 
STOP.FT              1754.0000: 
STEP.FT                 0.2500: 
NULL.                -999.2500: 
COMP.          Pioneer Natural Resources: COMPANY
WELL.          Touchstone 11-32 Tr: WELL
FLD.           Purgatorie River: FIELD
LOC.           782' FNL & 840' FWL--: LOCATION
CNTY.               Las Animas: COUNTY
SRVC.          Patterson Wireline: SERVICE COMPANY
DATE.          Mon Mar 06 09:18:09 2006: LOG DATE
UWI.           05 071 08626 00: UNIQUE WELL ID
STAT.                       CO: STATE
~Curve Information Block
DEPT.FT            0 000 00 00: Depth
CCL.                          : Casing Collar Locator
TT3.usec                      : CBL 3' Travel Time
AMP3.mV                       : CBL 3' Amplitude
GR.GAPI                       : Gamma Ray
~Parameter Information Block
~A  Depth       CCL         TT3         AMP3         GR     
# ...
   795.0000      0.0000    751.0457      8.8285    119.4539
   795.2500      0.0000    727.2332      8.8819    135.0605
   795.5000      0.0000    713.2640      8.9211    145.5732
   795.7500      0.0000    710.0770      8.9437    150.6971
   796.0000      0.0000    712.8062      8.9605    152.9734
   796.2500      0.0000    715.2775      8.9801    155.4226
   796.5000      0.0000    715.2388      8.9960    159.5497
   796.7500      0.0000    716.2280      8.9960    165.2078
   797.0000      0.0000    723.9222      8.9808    171.4346
   797.2500      0.0000    740.0173      8.9665    176.8434
   797.5000      0.0000    759.3273      8.9661    179.7274
   797.7500      0.0000    772.6421      8.9700    178.9418
   798.0000      0.0000    772.8037      8.9491    175.2331
   798.2500      0.0000    759.2883      8.8792    171.1621
   798.5000      0.0000    738.1424      8.7626    169.0323
   798.7500      0.0000    717.7529      8.6228    168.9115
   799.0000      0.0000    704.1218      8.4814    169.0464
   799.2500      0.0000    699.5218      8.3478    168.1293
   799.5000      0.0000    704.4501      8.2343    166.5056
   799.7500      0.0000    719.2886      8.1673    164.9609
   800.0000      0.0000    743.3257      8.1749    163.3432
   800.2500      0.0000    772.9457      8.2623    161.1701
   800.5000      0.0000    802.1849      8.4084    158.8582
   800.7500      0.0000    825.5646      8.5880    157.3337
   801.0000      0.0000    840.2590      8.7893    156.6249
   801.2500      0.0000    845.8438      9.0038    155.6072
   801.5000      0.0000    842.9931      9.2052    153.3162
   801.7500      0.0000    833.2596      9.3504    150.1961
   802.0000      0.0000    819.6765      9.4071    147.8559
   802.2500      0.0000    805.6882      9.3756    147.4683
   802.5000      0.0000    792.3773      9.2812    148.3506
   802.7500      0.0000    777.9529      9.1534    148.5099
   803.0000      0.0000    760.9394      9.0167    146.9265
   803.2500      0.0000    742.6074      8.8986    144.9819
   803.5000      0.0000    725.6123      8.8276    145.2186
   803.7500      0.0000    711.7489      8.8154    148.8972
   804.0000      0.0000    701.6300      8.8479    155.1267
   804.2500      0.0000    695.2172      8.8989    161.9683
   804.5000      0.0000    691.9001      8.9475    167.5886
   804.7500      0.0000    690.5933      8.9839    170.4040
   805.0000      0.0000    690.2336      9.0055    169.1738
   805.2500      0.0000    690.2291      9.0136    163.6542
   805.5000      0.0000    690.6626      9.0151    154.8824
   805.7500      0.0000    692.3543      9.0226    144.5484
   806.0000      0.0000    696.8174      9.0503    134.2915
   806.2500      0.0000    705.6913      9.1130    125.5184
   806.5000      0.0000    719.5856      9.2257    119.2823
   806.7500      0.0000    737.1379      9.3999    115.8386
   807.0000      0.0000    755.2161      9.6428    114.4780
   807.2500      0.0000    770.2076      9.9614    114.2138
   807.5000      0.0000    779.6595     10.3566    114.6091
   807.7500      0.0000    783.4802     10.8035    115.7093
   808.0000      0.0000    783.5643     11.2427    117.2918
   808.2500      0.0000    781.7320     11.6045    118.6037
   808.5000      0.0000    777.8082     11.8496    119.0963
   808.7500      0.0000    768.4119     11.9965    119.1429
   809.0000      0.0000    746.2597     12.1160    119.5132
   809.2500      0.0000    703.4141     12.2957    120.0925
   809.5000      0.0000    641.4641     12.5942    119.5528
   809.7500      0.0000    579.3611     13.0111    116.4921
   810.0000      0.0000    542.8184     13.4999    110.6802
   810.2500      0.0000    539.1487     14.0096    103.2491
   810.5000      0.0000    546.2889     14.5160     96.0384
   810.7500      0.0000    533.2245     15.0212     90.6563
   811.0000      0.0000    489.9738     15.5377     87.6796
   811.2500      0.0000    433.1118     16.0769     86.5724
   811.5000      0.0000    385.3047     16.6536     86.5257
   811.7500      0.0000    356.5239     17.2965     87.4493
   812.0000      0.0000    343.4417     18.0387     90.1919
   812.2500      0.0000    338.6156     18.8720     95.8101
   812.5000      0.0000    336.7077     19.7002    104.5069
   812.7500      0.0000    335.2620     20.3457    115.2391
   813.0000      0.0000    333.6895     20.6158    126.2466
   813.2500      0.0000    332.6254     20.3813    135.6797
   813.5000      0.0000    333.7530     19.6302    141.8237
   813.7500      0.0000    340.0073     18.4764    143.5567
   814.0000      0.0000    356.6076     17.1150    141.4925
   814.2500      0.0000    391.5766     15.7431    138.5551
   814.5000      0.0000    451.9554     14.4943    138.2095
   814.7500      0.0000    535.3015     13.4269    141.3253
   815.0000      0.0000    624.4077     12.5563    145.2903
   815.2500      0.0000    693.1691     11.8880    146.8792
   815.5000      0.0000    719.7054     11.4284    145.7327
   815.7500      0.0000    696.1642     11.1795    144.3971
   816.0000      0.0000    631.2638     11.1303    145.1384
   816.2500      0.0000    546.6671     11.2522    147.5827
   816.5000      0.0000    467.0616     11.4994    149.7841
   816.7500      0.0000    408.2632     11.8123    150.7528
   817.0000      0.0000    372.6775     12.1255    151.1727
   817.2500      0.0000    354.3407     12.3813    152.1534
   817.5000      0.0000    346.1798     12.5414    153.9021
   817.7500      0.0000    343.4795     12.5930    155.2719
   818.0000      0.0000    344.3644     12.5498    154.4918
   818.2500      0.0000    349.8702     12.4435    150.8669
   818.5000      0.0000    364.1949     12.3095    145.7270
   818.7500      0.0000    393.3482     12.1788    141.2652
   819.0000      0.0000    439.5764     12.0866    138.5856
   819.2500      0.0000    493.1982     12.0826    137.2939
   819.5000      0.0000    531.8922     12.2194    136.5580
   819.7500      0.0000    535.1277     12.5228    135.8446
   820.0000      0.0000    502.4841     12.9745    134.9045
   820.2500      0.0000    454.4563     13.5302    133.9561
   820.5000      0.0000    414.0047     14.1541    133.8951
   820.7500      0.0000    389.8624     14.8324    135.7457
   821.0000      0.0000    376.7696     15.5493    139.7461
   821.2500      0.0000    366.6289     16.2562    145.1297
   821.5000      0.0000    356.4781     16.8816    150.7362
   821.7500      0.0000    347.8342     17.3838    155.8010
   822.0000      0.0000    342.4357     17.7863    160.1626
   822.2500      0.0000    340.5652     18.1483    163.7864
   822.5000      0.0000    342.5384     18.4970    166.5258
   822.7500      0.0000    350.5112     18.7834    168.6395
   823.0000      0.0000    367.6192     18.8874    171.0537
   823.2500      0.0000    393.4327     18.6470    174.4883
   823.5000      0.0000    419.7450     17.9227    178.3507
   823.7500      0.0000    434.5894     16.7223    180.8663
   824.0000      0.0000    434.7844     15.2762    180.4220
   824.2500      0.0000    433.1775     13.9119    176.6631
   824.5000      0.0000    449.6503     12.8215    170.4789
   824.7500      0.0000    494.6255     11.9819    163.3090
   825.0000      2.0000    562.2394     11.2715    156.4429
   825.2500      2.0000    637.1659     10.6033    150.6555
   825.5000      0.0000    704.4482      9.9789    146.4289
   825.7500      0.0000    753.6529      9.4940    144.3800
   826.0000      0.0000    779.8031      9.2966    144.7716
   826.2500      0.0000    785.2255      9.4633    146.3123
   826.5000      0.0000    778.2950      9.8862    146.2944
   826.7500      0.0000    766.5587     10.3236    142.8289
   827.0000      0.0000    752.1422     10.5878    136.6978
   827.2500      0.0000    735.7422     10.6709    130.4699
   827.5000      0.0000    721.3294     10.6966    126.1652
   827.7500      0.0000    712.5673     10.7849    124.1415
   828.0000      0.0000    706.1696     10.9705    123.4363
   828.2500      0.0000    692.1098     11.2177    122.3657
