~Version Information
VERS.                      2.0: CWLS Log ASCII Standard - VERSION 2.0
WRAP.                       NO: One line per depth step
~Well Information Block
STRT.FT                -9.0000: 
STOP.FT              1841.0000: 
STEP.FT                 0.2500: 
NULL.                -999.2500: 
COMP.          Pioneer Natural Resources: COMPANY
WELL.          Cooper 11-13 Tr: WELL
FLD.           Purgatorie River: FIELD
LOC.           476' FNL & 738' FWL: LOCATION
STAT.                       CO: State
CNTY.               Las Animas: COUNTY
CTRY. USA : Country
SECT. 13 : Section
TOWN. 32S : Township
RANG. 67W : Range
SRVC.          Patterson Wireline: SERVICE COMPANY
DATE.          Thu Sep 29 08:59:13 2005: LOG DATE
API.           05 071 08525 00: UNIQUE WELL ID
~Curve Information Block
DEPT.FT            0 000 00 00: Depth
CCL.                          : Casing Collar Locator
TT3.usec                      : CBL 3' Travel Time
AMP3.mV                       : CBL 3' Amplitude
GR.GAPI                       : Gamma Ray
~Parameter Information Block
~A  Depth       CCL         TT3         AMP3         GR     
# ...
   225.5000      0.0000    564.5533     14.8528     87.8977
   225.7500      0.0000    548.7440     14.8884     89.3493
   226.0000      0.0000    507.5117     14.9252     90.9774
   226.2500      0.0000    468.0337     14.9616     90.4956
   226.5000      0.0000    443.6250     15.0124     87.0066
   226.7500      0.0000    426.7874     15.1004     81.3929
   227.0000      0.0000    405.2100     15.2393     75.5722
   227.2500      0.0000    377.7231     15.4245     71.4620
   227.5000      0.0000    352.4937     15.6430     70.0374
   227.7500      0.0000    335.9275     15.8858     71.0278
   228.0000      0.0000    327.8926     16.1449     73.4408
   228.2500      0.0000    324.9145     16.3986     76.1414
   228.5000      0.0000    324.0215     16.6096     78.1058
   228.7500      0.0000    323.7917     16.7418     78.9687
   229.0000      0.0000    323.7526     16.7855     79.5820
   229.2500      0.0000    323.7848     16.7660     81.2542
   229.5000      0.0000    323.8264     16.7278     84.1089
   229.7500      0.0000    323.8452     16.7064     86.8216
   230.0000      0.0000    323.8277     16.7101     88.1224
   230.2500      0.0000    323.7870     16.7295     87.7559
   230.5000      0.0000    323.7500     16.7567     85.9244
   230.7500      0.0000    323.7391     16.7929     82.9348
   231.0000      0.0000    323.7661     16.8361     79.8672
   231.2500      0.0000    323.8391     16.8727     78.6142
   231.5000      0.0000    323.9661     16.8876     80.3561
   231.7500      0.0000    324.1468     16.8764     84.1690
   232.0000      0.0000    324.3673     16.8409     87.7895
   232.2500      0.0000    324.6043     16.7793     89.9760
   232.5000      0.0000    324.8306     16.6908     91.6710
   232.7500      0.0000    325.0142     16.5894     94.4689
   233.0000      0.0000    325.1212     16.5073     98.2528
   233.2500      0.0000    325.1310     16.4773    100.7624
   233.5000      0.0000    325.0524     16.5136     99.6108
   233.7500      0.0000    324.9257     16.6050     94.6793
   234.0000      0.0000    324.8058     16.7210     88.2614
   234.2500      0.0000    324.7381     16.8263     82.8199
   234.5000      0.0000    324.7435     16.8944     79.1612
   234.7500      0.0000    324.8244     16.9134     76.9495
   235.0000      0.0000    324.9774     16.8793     76.0396
   235.2500      0.0000    325.1875     16.7949     76.4741
   235.5000      0.0000    325.4116     16.6754     77.6698
   235.7500      0.0000    325.5852     16.5515     78.4731
   236.0000      0.0000    325.6578     16.4586     78.0301
   236.2500      0.0000    325.6279     16.4194     76.2216
   236.5000      0.0000    325.5479     16.4328     73.4430
   236.7500      0.0000    325.4944     16.4746     70.4217
   237.0000      0.0000    325.5239     16.5114     68.0495
   237.2500      0.0000    325.6428     16.5199     66.8839
   237.5000      0.0000    325.8138     16.4980     66.9578
   237.7500      0.0000    325.9882     16.4609     68.3739
   238.0000      0.0000    326.1311     16.4276     71.6776
   238.2500      0.0000    326.2240     16.4103     77.1884
   238.5000      0.0000    326.2561     16.4127     84.0209
   238.7500      0.0000    326.2212     16.4384     89.9450
   239.0000      0.0000    326.1223     16.4970     92.4401
   239.2500      0.0000    325.9808     16.5976     90.4642
   239.5000      0.0000    325.8357     16.7353     85.3772
   239.7500      0.0000    325.7546     16.8887     79.8747
   240.0000      0.0000    325.8778     17.0342     76.0403
   240.2500      0.0000    326.7829     17.1594     74.6430
   240.5000      0.0000    330.4753     17.2609     75.7327
   240.7500      0.0000    341.9337     17.3331     78.9233
   241.0000      0.0000    369.5000     17.3654     83.0178
   241.2500      0.0000    421.0469     17.3471     86.1745
   241.5000      0.0000    496.0491     17.2756     87.0190
   241.7500      0.0000    580.9953     17.1675     85.5235
   242.0000      0.0000    655.8727     17.0620     82.6604
   242.2500      0.0000    707.1869     17.0015     79.4152
   242.5000      0.0000    734.3742     17.0006     76.2085
   242.7500      0.0000    745.0980     17.0368     72.8656
   243.0000      0.0000    747.3666     17.0721     68.9072
   243.2500      0.0000    746.0889     17.0816     64.1936
   243.5000      0.0000    743.8612     17.0640     59.5256
   243.7500      0.0000    742.1431     17.0270     56.3908
   244.0000      0.0000    741.1978     16.9723     55.8012
   244.2500      0.0000    740.0790     16.8959     57.4147
   244.5000      0.0000    737.6755     16.8047     59.8346
   244.7500      0.0000    733.8560     16.7209     61.6855
   245.0000      0.0000    729.5068     16.6636     62.3764
   245.2500      0.0000    725.8837     16.6300     62.0625
   245.5000      0.0000    723.9664     16.5991     61.2226
   245.7500      0.0000    723.9798     16.5500     60.4924
   246.0000      0.0000    725.4891     16.4737     60.6490
   246.2500      0.0000    728.1172     16.3723     62.1416
   246.5000      0.0000    731.7285     16.2485     64.4338
   246.7500      0.0000    735.7115     16.0994     66.3372
   247.0000      0.0000    738.9114     15.9213     67.2640
   247.2500      0.0000    740.7920     15.7214     67.7231
   247.5000      0.0000    742.0255     15.5199     68.4789
   247.7500      0.0000    743.3718     15.3391     69.8415
   248.0000      0.0000    744.5413     15.1934     71.8262
   248.2500      0.0000    744.7742     15.0871     74.1267
   248.5000      0.0000    744.2141     15.0158     75.6522
   248.7500      0.0000    743.9871     14.9683     74.9210
   249.0000      0.0000    744.8162     14.9282     71.5135
   249.2500      0.0000    745.9395     14.8768     66.7615
   249.5000      0.0000    745.5753     14.8003     62.4781
   249.7500      0.0000    742.3157     14.6985     59.1497
   250.0000      0.0000    736.1852     14.5871     55.9110
   250.2500      0.0000    728.7039     14.4911     52.2202
   250.5000      0.0000    721.9339     14.4307     48.7997
   250.7500      0.0000    717.2109     14.4105     46.7634
   251.0000      0.0000    714.6042     14.4169     46.5027
   251.2500      0.0000    713.3895     14.4245     47.6676
   251.5000      0.0000    712.8617     14.4087     49.7137
   251.7500      0.0000    712.8212     14.3567     52.3070
   252.0000      0.0000    713.6711     14.2704     55.3183
   252.2500      0.0000    716.2294     14.1629     58.3827
   252.5000      0.0000    721.2103     14.0499     60.6166
   252.7500      0.0000    728.4707     13.9434     61.0636
   253.0000      0.0000    736.6595     13.8483     59.3812
   253.2500      0.0000    743.8677     13.7666     56.0401
   253.5000      0.0000    748.8213     13.7040     52.1291
   253.7500      0.0000    751.4514     13.6658     49.0180
   254.0000      0.0000    752.4744     13.6416     47.6980
   254.2500      0.0000    752.6793     13.5980     48.0759
   254.5000      0.0000    752.5624     13.5010     49.0702
   254.7500      0.0000    752.3008     13.3567     49.5262
   255.0000      0.0000    751.7402     13.2238     48.9584
   255.2500      0.0000    750.3113     13.1675     47.5153
   255.5000      0.0000    747.1360     13.1891     45.6014
   255.7500      0.0000    742.1018     13.2018     43.8363
   256.0000      0.0000    738.0383     13.0799     43.1552
   256.2500      0.0000    741.9789     12.7403     44.3749
   256.5000      0.0000    762.2996     12.1925     47.3140
   256.7500      0.0000    801.8962     11.5396     50.4577
   257.0000      0.0000    853.0066     10.9316     51.7763
   257.2500      0.0000    899.9406     10.4892     50.0809
   257.5000      0.0000    929.0010     10.2545     45.8784
   257.7500      2.0000    937.1918     10.2159     41.1729
   258.0000     -2.0000    931.1041     10.3601     38.2961
   258.2500      0.0000    917.2759     10.6865     38.5742
   258.5000      0.0000    894.2139     11.2010     41.7337
   258.7500      0.0000    855.0678     11.9260     46.0992
