~Version Information
VERS.                      2.0: CWLS Log ASCII Standard - VERSION 2.0
WRAP.                       NO: One line per depth step
~Well Information Block
STRT.FT               580.0000: 
STOP.FT              1179.0000: 
STEP.FT                 0.1000: 
NULL.                -999.2500: 
COMP.          Pioneer Natural Resources: COMPANY
WELL.          Tin Barn 14-20 TR: WELL
FLD.           Purgatorie River: FIELD
LOC.           925 FSL & 1151 FWL: LOCATION
PROV.                 Colorado: PROVINCE
CNTY.               Las Animas: COUNTRY
SRVC.                Patterson: SERVICE COMPANY
DATE.          Thu Jan 12 12:02:37 2006: LOG DATE
UWI.                          : UNIQUE WELL ID
~Curve Information Block
DEPT.FT            0 000 00 00: Depth
DCAL.in                       : CDL Caliper
RHOB.g/cc                     : CDL Bulk Density
RHOC.g/cc                     : CDL Density Correction
DPOR.pu                       : CDL Density Porosity
GR.GAPI                       : Gamma Ray
~Parameter Information Block
~A  Depth       DCAL        RHOB        RHOC        DPOR         GR     
# ...
   815.2000      7.9223      2.5830      0.0980      4.0598     55.1241
   815.3000      7.9227      2.5844      0.0627      3.9784     57.9989
   815.4000      7.9227      2.5938      0.1159      3.4065     60.7919
   815.5000      7.9191      2.5992      0.1146      3.0769     62.2711
   815.6000      7.9191      2.5865      0.0684      3.8512     61.0460
   815.7000      7.9191      2.5579      0.0789      5.5846     58.0872
   815.8000      7.9216      2.5266      0.0219      7.4809     55.0861
   815.9000      7.9216      2.5045      0.0115      8.8182     52.7225
   816.0000      7.9227      2.4954      0.0144      9.3690     51.3297
   816.1000      7.9227      2.4969      0.0472      9.2797     50.3989
   816.2000      7.9227      2.5048      0.0564      8.8019     48.4596
   816.3000      7.9272      2.5116      0.0973      8.3902     45.3606
   816.4000      7.9272      2.5114      0.0419      8.3980     41.6313
   816.5000      7.9236      2.5122      0.0586      8.3516     37.7889
   816.6000      7.9236      2.5240      0.0506      7.6355     35.9481
   816.7000      7.9236      2.5339      0.1280      7.0359     36.3794
   816.8000      7.9284      2.5259      0.0420      7.5199     37.1118
   816.9000      7.9284      2.5139      0.0467      8.2478     36.6247
   817.0000      7.9232      2.5087      0.0932      8.5657     34.7621
   817.1000      7.9232      2.5054      0.0346      8.7659     33.4483
   817.2000      7.9232      2.5094      0.0089      8.5236     33.6847
   817.3000      7.9170      2.5222      0.0679      7.7449     34.0106
   817.4000      7.9170      2.5281      0.1088      7.3899     33.1743
   817.5000      7.9228      2.5175      0.0590      8.0276     31.0282
   817.6000      7.9228      2.5029      0.0451      8.9161     29.2924
   817.7000      7.9228      2.4976      0.0444      9.2342     29.9048
   817.8000      7.9332      2.4923      0.0622      9.5582     31.9441
   817.9000      7.9332      2.4720      0.0195     10.7854     33.4905
   818.0000      7.9319      2.4486     -0.0151     12.2083     34.1944
   818.1000      7.9319      2.4407      0.0127     12.6859     34.4411
   818.2000      7.9319      2.4478      0.0114     12.2537     34.8145
   818.3000      7.9438      2.4632      0.0076     11.3212     35.5502
   818.4000      7.9438      2.4771      0.0746     10.4796     36.4019
   818.5000      7.9600      2.4836      0.0284     10.0874     37.7321
   818.6000      7.9600      2.4916      0.0386      9.6011     39.5377
   818.7000      7.9600      2.5014      0.0132      9.0086     40.5427
   818.8000      7.9569      2.5032      0.0395      8.8990     40.5016
   818.9000      7.9569      2.5043      0.0346      8.8332     40.5240
   819.0000      7.9567      2.5250      0.0058      7.5747     41.2536
   819.1000      7.9567      2.5625      0.0852      5.3048     43.1053
   819.2000      7.9567      2.5930      0.0508      3.4516     46.3131
   819.3000      7.9589      2.6160      0.0482      2.0631     50.2778
   819.4000      7.9589      2.6502      0.0310     -0.0149     53.2046
   819.5000      7.9526      2.7028      0.0568     -3.1992     55.1013
   819.6000      7.9526      2.7584      0.0715     -6.5677     59.3253
   819.7000      7.9526      2.7955      0.0500     -8.8174     65.9433
   819.8000      7.9466      2.8060      0.0874     -9.4523     70.9363
   819.9000      7.9466      2.7954      0.0122     -8.8140     73.5044
   820.0000      7.9381      2.7753      0.0170     -7.5923     76.6283
   820.1000      7.9381      2.7506      0.0567     -6.0995     81.8798
   820.2000      7.9381      2.7207      0.0026     -4.2835     88.6884
   820.3000      7.9324      2.6861      0.0394     -2.1855     96.3923
   820.4000      7.9324      2.6433     -0.0169      0.4087    104.3961
   820.5000      7.9349      2.5889     -0.0331      3.7026    111.8101
   820.6000      7.9349      2.5266     -0.0456      7.4792    118.1001
   820.7000      7.9349      2.4705     -0.0513     10.8789    122.7744
   820.8000      7.9375      2.4413     -0.0649     12.6463    125.2338
   820.9000      7.9375      2.4435      0.0050     12.5155    126.4912
   821.0000      7.9463      2.4527      0.0705     11.9602    127.4592
   821.1000      7.9463      2.4548      0.0237     11.8277    126.4160
   821.2000      7.9463      2.4606      0.0943     11.4764    123.7676
   821.3000      7.9494      2.4677      0.0945     11.0462    122.9250
   821.4000      7.9494      2.4662      0.0982     11.1382    124.8062
   821.5000      7.9426      2.4560      0.1187     11.7596    127.4147
   821.6000      7.9426      2.4495      0.0715     12.1513    126.5860
   821.7000      7.9426      2.4689      0.0806     10.9777    121.2704
   821.8000      7.9480      2.5135      0.1465      8.2725    115.3773
   821.9000      7.9480      2.5534      0.1491      5.8541    111.4885
   822.0000      7.9441      2.5709      0.1324      4.7939    109.6302
   822.1000      7.9441      2.5824      0.0818      4.0988    110.1538
   822.2000      7.9441      2.6026      0.1598      2.8739    112.2451
   822.3000      7.9457      2.6186      0.1442      1.9015    113.5989
   822.4000      7.9457      2.6199      0.1572      1.8234    113.1472
   822.5000      7.9468      2.6087      0.1107      2.5026    110.3388
   822.6000      7.9468      2.5906      0.0890      3.5982    104.7536
   822.7000      7.9468      2.5826      0.0408      4.0833     98.9656
   822.8000      7.9382      2.5987      0.0995      3.1121     95.6882
   822.9000      7.9382      2.6227      0.0715      1.6534     93.4486
   823.0000      7.9419      2.6262      0.1014      1.4430     90.7070
   823.1000      7.9419      2.6026      0.0236      2.8727     88.0771
   823.2000      7.9419      2.5730      0.0186      4.6671     86.7560
   823.3000      7.9581      2.5564      0.0116      5.6736     86.8575
   823.4000      7.9581      2.5502      0.0400      6.0474     88.3545
   823.5000      7.9786      2.5425     -0.0230      6.5148     91.9842
   823.6000      7.9786      2.5348     -0.0093      6.9822     96.3539
   823.7000      7.9786      2.5347     -0.0176      6.9886     99.2891
   823.8000      7.9868      2.5329      0.0267      7.0977    100.8443
   823.9000      7.9868      2.5228      0.0149      7.7094    101.6580
   824.0000      7.9656      2.5221      0.0418      7.7510    102.9672
   824.1000      7.9656      2.5437      0.0515      6.4426    105.6222
   824.2000      7.9656      2.5773      0.0947      4.4048    109.2871
   824.3000      7.9366      2.6030      0.1239      2.8472    113.5633
   824.4000      7.9366      2.6122      0.1558      2.2903    116.3382
   824.5000      7.9358      2.6159      0.1474      2.0663    116.7151
   824.6000      7.9358      2.6283      0.1923      1.3165    116.4526
   824.7000      7.9358      2.6463      0.1645      0.2230    116.0945
   824.8000      7.9349      2.6495      0.2104      0.0320    116.0919
   824.9000      7.9349      2.6197      0.1224      1.8353    119.0398
   825.0000      7.9416      2.5709      0.0688      4.7965    124.0820
   825.1000      7.9416      2.5353     -0.0026      6.9542    127.3134
   825.2000      7.9416      2.5279      0.0345      7.3979    129.2500
   825.3000      7.9546      2.5370      0.0600      6.8465    129.9796
   825.4000      7.9546      2.5465      0.0647      6.2702    126.0252
   825.5000      7.9482      2.5490      0.0701      6.1224    118.6207
   825.6000      7.9482      2.5441     -0.0003      6.4167    113.0848
   825.7000      7.9482      2.5381      0.0259      6.7806    110.8129
   825.8000      7.9470      2.5355     -0.0011      6.9379    110.6576
   825.9000      7.9470      2.5343      0.0556      7.0150    114.0892
   826.0000      7.9479      2.5327      0.0324      7.1079    120.4907
   826.1000      7.9479      2.5374      0.0329      6.8220    125.5691
   826.2000      7.9479      2.5402      0.0810      6.6558    126.7548
   826.3000      7.9596      2.5225      0.0389      7.7272    126.1514
