~Version Information
VERS.                      2.0: CWLS Log ASCII Standard - VERSION 2.0
WRAP.                       NO: One line per depth step
~Well Information Block
STRT.FT               520.0000: 
STOP.FT              2555.2000: 
STEP.FT                 0.1000: 
NULL.                -999.2500: 
COMP.          Pioneer Natural Resources: COMPANY
WELL.          Horsefeathers 24-34: WELL
FLD.           Purgatoire River: FIELD
LOC.           183' FSL & 1570' FWL--: LOCATION
CNTY.               Las Animas: COUNTY
SRVC.                Patterson: SERVICE COMPANY
DATE.          Mon Feb 06 08:03:40 2006: LOG DATE
UWI.           05 071 08675 00: UNIQUE WELL ID
STAT.                 Colorado: STATE
~Curve Information Block
DEPT.FT            0 000 00 00: Depth
DCAL.in                       : CDL Caliper
RHOB.g/cc                     : CDL Bulk Density
RHOC.g/cc                     : CDL Density Correction
DPOR.pu                       : CDL Density Porosity
NPOR.pu                       : Neutron Porosity
GR.GAPI                       : Gamma Ray
~Parameter Information Block
~A  Depth       DCAL        RHOB        RHOC        DPOR        NPOR         GR     
# ...
  1326.4000      8.0476      2.5022      0.0505      8.9558     19.3300     71.1397
  1326.5000      8.0475      2.5261      0.0604      7.5078     19.3398     68.2220
  1326.6000      8.0475      2.5350      0.0911      6.9707     19.6200     66.9208
  1326.7000      8.0475      2.5191      0.0662      7.9318     20.3098     69.9611
  1326.8000      8.0483      2.4929      0.0258      9.5198     20.9026     76.8906
  1326.9000      8.0483      2.4858     -0.0185      9.9528     21.0533     86.2481
  1327.0000      8.0496      2.5091      0.0659      8.5411     21.2597     93.8173
  1327.1000      8.0496      2.5471      0.0630      6.2365     22.0275     97.2092
  1327.2000      8.0496      2.5841      0.0365      3.9947     23.1079    100.0449
  1327.3000      8.0512      2.6111      0.0918      2.3602     23.9690    103.6782
  1327.4000      8.0512      2.6194      0.0913      1.8548     24.4148    107.6637
  1327.5000      8.0511      2.6120      0.0390      2.3053     24.5194    112.3611
  1327.6000      8.0511      2.5972      0.0767      3.1974     24.4593    114.3640
  1327.7000      8.0511      2.5783     -0.0060      4.3428     24.3345    109.9682
  1327.8000      8.0511      2.5680      0.0060      4.9701     24.3073    101.2404
  1327.9000      8.0511      2.5766      0.0470      4.4508     24.3316     94.6882
  1328.0000      8.0554      2.5970      0.0536      3.2142     23.9360     93.6541
  1328.1000      8.0554      2.6169      0.0792      2.0088     22.8836     97.5493
  1328.2000      8.0554      2.6269      0.0738      1.3988     21.8806    104.2175
  1328.3000      8.0597      2.6268      0.0570      1.4044     21.7458    111.1008
  1328.4000      8.0597      2.6215      0.0728      1.7262     22.2360    117.7497
  1328.5000      8.0610      2.6134      0.0361      2.2161     22.6338    122.1968
  1328.6000      8.0610      2.6006      0.1155      2.9930     22.9640    121.8109
  1328.7000      8.0610      2.5839      0.0357      4.0076     23.7133    118.7403
  1328.8000      8.0608      2.5790      0.0407      4.3015     24.7328    117.3220
  1328.9000      8.0608      2.5893      0.0493      3.6787     25.4009    117.2403
  1329.0000      8.0591      2.5970      0.0581      3.2108     25.4643    117.0350
  1329.1000      8.0591      2.5983      0.0569      3.1344     25.2973    118.7065
  1329.2000      8.0591      2.6064      0.0347      2.6430     25.4471    124.0566
  1329.3000      8.0584      2.6183      0.0489      1.9206     25.8312    132.7716
  1329.4000      8.0584      2.6163      0.0700      2.0445     25.6871    139.9527
  1329.5000      8.0580      2.5997      0.0455      3.0478     24.9406    140.7138
  1329.6000      8.0580      2.5819      0.0419      4.1273     24.6535    140.2177
  1329.7000      8.0580      2.5679      0.0309      4.9755     25.1980    140.7083
  1329.8000      8.0562      2.5525      0.0165      5.9069     25.5650    137.0108
  1329.9000      8.0562      2.5331      0.0069      7.0865     25.1102    132.5470
  1330.0000      8.0534      2.5178      0.0069      8.0094     24.2344    134.2616
  1330.1000      8.0534      2.5123      0.0216      8.3482     23.5747    137.0578
  1330.2000      8.0534      2.5120      0.0228      8.3659     23.3844    133.9027
  1330.3000      8.0501      2.5185     -0.0062      7.9675     23.3842    128.9659
  1330.4000      8.0501      2.5405      0.0497      6.6346     23.3847    127.8928
  1330.5000      8.0481      2.5782      0.0458      4.3531     23.4541    129.2480
  1330.6000      8.0481      2.6264      0.0816      1.4309     23.5133    131.5776
  1330.7000      8.0481      2.6848      0.0731     -2.1107     23.5723    132.3255
  1330.8000      8.0490      2.7574      0.1192     -6.5097     24.0130    128.2856
  1330.9000      8.0490      2.8363      0.1852    -11.2920     25.0831    122.0567
  1331.0000      8.0511      2.8998      0.1941    -15.1370     26.4209    117.6124
  1331.1000      8.0511      2.9285      0.2033    -16.8808     27.3413    114.9832
  1331.2000      8.0511      2.9179      0.1532    -16.2372     27.9533    110.1854
  1331.3000      8.0528      2.8768      0.0692    -13.7481     28.7003    101.5409
  1331.4000      8.0528      2.8159      0.0186    -10.0550     29.2090     95.7986
  1331.5000      8.0539      2.7502     -0.1057     -6.0702     29.2922     98.8226
  1331.6000      8.0539      2.7016     -0.1620     -3.1294     29.2612    107.5837
  1331.7000      8.0539      2.6816     -0.0910     -1.9156     28.9621    117.5815
  1331.8000      8.0544      2.6820     -0.0308     -1.9401     28.0759    127.2510
  1331.9000      8.0544      2.6882      0.0133     -2.3157     27.0362    132.8227
  1332.0000      8.0545      2.6852      0.0454     -2.1309     26.5954    131.8835
  1332.1000      8.0545      2.6641      0.0598     -0.8546     26.4432    128.3966
  1332.2000      8.0545      2.6363      0.0066      0.8276     25.7415    126.1401
  1332.3000      8.0535      2.6151      0.0467      2.1164     24.7635    125.0942
  1332.4000      8.0535      2.5944      0.0445      3.3702     24.2512    124.2297
  1332.5000      8.0522      2.5787      0.0039      4.3208     24.1291    123.2014
  1332.6000      8.0522      2.5840      0.0324      4.0014     24.0432    123.1171
  1332.7000      8.0522      2.6016      0.0397      2.9330     23.8088    120.4748
  1332.8000      8.0510      2.6098      0.0852      2.4383     23.7207    112.6143
  1332.9000      8.0510      2.6052      0.0198      2.7165     24.3515    106.2932
  1333.0000      8.0497      2.5983      0.0176      3.1331     25.2434    106.1395
  1333.1000      8.0497      2.5920      0.0278      3.5180     25.3209    108.2748
  1333.2000      8.0497      2.5897     -0.0275      3.6524     24.5633    110.0798
  1333.3000      8.0483      2.5976      0.0278      3.1730     23.9152    113.6253
  1333.4000      8.0483      2.6099      0.0074      2.4317     24.1669    116.4764
  1333.5000      8.0483      2.6262      0.0093      1.4411     25.2504    114.3948
  1333.6000      8.0483      2.6527      0.0486     -0.1614     26.3952    110.8896
  1333.7000      8.0483      2.6815      0.0738     -1.9107     27.0516    110.7770
  1333.8000      8.0489      2.6984      0.0779     -2.9343     27.0448    113.9566
  1333.9000      8.0489      2.6987      0.0685     -2.9498     26.1667    117.6721
  1334.0000      8.0502      2.6840      0.0852     -2.0618     24.9261    118.4360
  1334.1000      8.0502      2.6623      0.0415     -0.7426     24.3187    116.1598
  1334.2000      8.0502      2.6532     -0.0022     -0.1926     24.3847    113.3406
  1334.3000      8.0520      2.6567      0.0669     -0.4064     24.4858    110.1248
  1334.4000      8.0520      2.6456      0.0556      0.2694     24.4549    106.2823
  1334.5000      8.0525      2.6140      0.0298      2.1846     24.4914    105.1136
  1334.6000      8.0525      2.5853      0.0246      3.9227     24.4349    109.9628
  1334.7000      8.0525      2.5776     -0.0041      4.3871     24.1511    118.0019
  1334.8000      8.0511      2.5904      0.0304      3.6134     24.0809    123.0345
  1334.9000      8.0511      2.6076      0.0210      2.5685     24.6972    123.3439
  1335.0000      8.0487      2.6164      0.0220      2.0380     25.6064    120.1606
  1335.1000      8.0487      2.6246      0.0062      1.5418     25.9641    116.0647
  1335.2000      8.0487      2.6419      0.0604      0.4923     25.7518    114.6469
  1335.3000      8.0481      2.6532      0.0797     -0.1912     25.7100    116.2401
  1335.4000      8.0481      2.6425      0.0223      0.4529     25.8546    117.8365
  1335.5000      8.0492      2.6213      0.0065      1.7369     25.6627    116.6618
  1335.6000      8.0492      2.6029      0.0247      2.8564     25.1330    113.9417
  1335.7000      8.0492      2.5805      0.0283      4.2128     24.4320    113.8005
  1335.8000      8.0491      2.5496     -0.0038      6.0846     23.5467    115.3928
  1335.9000      8.0491      2.5281     -0.0579      7.3880     22.6324    113.3892
