~Version Information
VERS.                      2.0: CWLS Log ASCII Standard - VERSION 2.0
WRAP.                       NO: One line per depth step
~Well Information Block
STRT.FT               660.0000: 
STOP.FT              2488.5000: 
STEP.FT                 0.1000: 
NULL.                -999.2500: 
COMP.          Petrogulf Corporation: COMPANY
WELL.          Montoya 18-11V-B: WELL
FLD.           Purgatorie River: FIELD
LOC.           848' FNL & 619' FWL: LOCATION
PROV.                 Colorado: PROVINCE
CNTY.               Las Animas: COUNTRY
SRVC.                Patterson: SERVICE COMPANY
DATE.          Wed Oct 05 07:28:13 2005: LOG DATE
UWI.                          : UNIQUE WELL ID
~Curve Information Block
DEPT.FT            0 000 00 00: Depth
DCAL.in                       : CDL Caliper
RHOB.g/cc                     : CDL Bulk Density
RHOC.g/cc                     : CDL Density Correction
DPOR.pu                       : CDL Density Porosity
GR.GAPI                       : Gamma Ray
NPOR.pu                       : Neutron Porosity
~Parameter Information Block
~A  Depth       DCAL        RHOB        RHOC        DPOR         GR         NPOR    
# ...
  1869.6000      7.9651      2.5670      0.0277      5.0318    143.1342     25.7418
  1869.7000      7.9651      2.5866      0.0715      3.8421    139.7634     25.1520
  1869.8000      7.9693      2.5905      0.0112      3.6054    139.5827     24.0467
  1869.9000      7.9693      2.5810      0.0777      4.1808    139.3138     23.0503
  1870.0000      7.9641      2.5609      0.0210      5.4025    137.8805     22.5902
  1870.1000      7.9641      2.5419      0.0112      6.5530    138.1163     22.7830
  1870.2000      7.9641      2.5362      0.0633      6.8984    139.3079     23.5137
  1870.3000      7.9583      2.5425      0.0330      6.5164    139.7885     24.3951
  1870.4000      7.9583      2.5560      0.0143      5.6972    139.1295     24.9347
  1870.5000      7.9580      2.5802      0.0207      4.2308    135.0478     24.9916
  1870.6000      7.9580      2.6153      0.0749      2.1003    127.9063     24.7728
  1870.7000      7.9580      2.6508      0.0713     -0.0511    124.1427     24.3237
  1870.8000      7.9600      2.6771      0.1581     -1.6394    127.1927     23.7238
  1870.9000      7.9600      2.6854      0.1214     -2.1468    131.6911     23.0326
  1871.0000      7.9524      2.6755      0.1174     -1.5461    130.5383     22.1591
  1871.1000      7.9524      2.6607      0.1255     -0.6510    124.7920     21.4843
  1871.2000      7.9524      2.6552      0.0768     -0.3165    120.3842     21.7050
  1871.3000      7.9543      2.6554      0.0846     -0.3268    117.6767     22.7058
  1871.4000      7.9543      2.6466      0.0652      0.2079    115.0681     23.5768
  1871.5000      7.9641      2.6306      0.0399      1.1763    112.1134     23.7614
  1871.6000      7.9641      2.6176      0.0437      1.9619    107.9452     23.4262
  1871.7000      7.9641      2.6069      0.0533      2.6116    103.8620     22.5327
  1871.8000      7.9816      2.5931      0.0387      3.4476    100.8110     21.1974
  1871.9000      7.9816      2.5765      0.0329      4.4521     98.7901     20.1121
  1872.0000      7.9851      2.5558      0.0454      5.7077     98.1786     19.4261
  1872.1000      7.9851      2.5244      0.0632      7.6123     95.9879     18.9696
  1872.2000      7.9851      2.4961     -0.0473      9.3284     88.1133     18.9877
  1872.3000      7.9953      2.4852      0.0136      9.9884     77.0024     19.4604
  1872.4000      7.9953      2.4755     -0.0029     10.5771     68.9104     19.8481
  1872.5000      8.0050      2.4607     -0.0327     11.4745     64.7736     20.0093
  1872.6000      8.0050      2.4496      0.0366     12.1436     63.0187     20.2429
  1872.7000      8.0050      2.4412      0.0144     12.6551     63.2124     20.3893
  1872.8000      8.0237      2.4374      0.0220     12.8839     63.9439     19.8265
  1872.9000      8.0237      2.4400      0.0181     12.7280     63.0343     18.5176
  1873.0000      8.0377      2.4380      0.0203     12.8459     60.3200     17.1462
  1873.1000      8.0377      2.4297      0.0209     13.3524     57.9594     16.3605
  1873.2000      8.0377      2.4288      0.0251     13.4036     56.9876     16.4287
  1873.3000      8.0655      2.4377      0.0336     12.8694     55.8213     17.0014
  1873.4000      8.0655      2.4462      0.0414     12.3539     53.1906     17.5571
  1873.5000      8.1270      2.4524      0.0510     11.9755     50.5411     17.9622
  1873.6000      8.1270      2.4596      0.0490     11.5399     49.5702     18.0789
  1873.7000      8.1270      2.4692      0.0333     10.9597     50.8202     17.6823
  1873.8000      8.1441      2.4736      0.0990     10.6927     52.4861     16.9906
  1873.9000      8.1441      2.4625      0.0524     11.3615     51.4162     16.5230
  1874.0000      8.1528      2.4485      0.0096     12.2128     49.3041     16.5308
  1874.1000      8.1528      2.4444      0.0183     12.4583     49.3388     16.9048
  1874.2000      8.1528      2.4387      0.0734     12.8069     49.5258     17.3895
  1874.3000      8.1577      2.4232      0.0239     13.7433     48.4066     17.8425
  1874.4000      8.1577      2.4068      0.0225     14.7407     48.1036     18.3036
  1874.5000      8.1749      2.4014     -0.0377     15.0649     49.4369     18.4392
  1874.6000      8.1749      2.4127      0.0497     14.3817     51.4868     17.7230
  1874.7000      8.1749      2.4328      0.0425     13.1653     54.8091     16.5839
  1874.8000      8.2039      2.4533      0.0705     11.9201     57.8370     15.7724
  1874.9000      8.2039      2.4682      0.0853     11.0208     57.7093     15.4699
  1875.0000      8.2157      2.4687      0.1159     10.9889     56.4392     15.6425
  1875.1000      8.2157      2.4535      0.0757     11.9094     55.5315     16.2040
  1875.2000      8.2157      2.4303      0.0769     13.3143     54.3271     17.1580
  1875.3000      8.2097      2.4119     -0.0043     14.4317     54.2597     18.6378
  1875.4000      8.2097      2.4114      0.0403     14.4620     55.6498     20.1221
  1875.5000      8.2005      2.4292     -0.0017     13.3844     56.9202     20.6862
  1875.6000      8.2005      2.4530      0.0793     11.9381     58.3491     20.0753
  1875.7000      8.2005      2.4703      0.0755     10.8898     59.8351     18.7694
  1875.8000      8.1334      2.4812      0.0593     10.2326     59.9740     17.6096
  1875.9000      8.1334      2.4920      0.0560      9.5761     58.7977     17.2216
  1876.0000      8.0788      2.5075      0.0468      8.6345     56.8292     17.6852
  1876.1000      8.0788      2.5241      0.1013      7.6294     53.8984     18.4397
  1876.2000      8.0788      2.5236      0.0990      7.6629     53.0531     18.9215
  1876.3000      8.0570      2.4944      0.0361      9.4285     58.3971     19.2494
  1876.4000      8.0570      2.4486      0.0074     12.2047     67.5330     19.5396
  1876.5000      8.0378      2.4097     -0.0107     14.5615     74.9263     19.7211
  1876.6000      8.0378      2.3904      0.0144     15.7318     79.6036     20.0322
  1876.7000      8.0378      2.3923     -0.0296     15.6206     84.3344     20.6484
  1876.8000      8.0361      2.4203     -0.0366     13.9216     91.4673     21.4176
  1876.9000      8.0361      2.4751      0.0152     10.5991    102.6231     22.2195
  1877.0000      8.0330      2.5415      0.0429      6.5747    115.4498     23.1030
  1877.1000      8.0330      2.5924      0.1298      3.4883    125.3641     24.0908
  1877.2000      8.0330      2.6165      0.1380      2.0280    133.8152     25.1281
  1877.3000      8.0765      2.6360      0.1754      0.8492    143.2232     26.0957
  1877.4000      8.0765      2.6621      0.2999     -0.7325    149.9845     26.7897
  1877.5000      8.0311      2.6777      0.2307     -1.6776    151.8077     27.2447
  1877.6000      8.0311      2.6787      0.1869     -1.7404    151.5904     27.6229
  1877.7000      8.0311      2.6739      0.1468     -1.4485    152.9827     27.9496
  1877.8000      8.0117      2.6631      0.1244     -0.7960    156.1282     28.1901
  1877.9000      8.0117      2.6433      0.0933      0.4031    158.2546     28.2275
  1878.0000      8.0086      2.6205      0.0448      1.7892    157.8216     28.0063
  1878.1000      8.0086      2.6033      0.0352      2.8275    155.1388     27.7701
  1878.2000      8.0086      2.5942      0.0413      3.3820    152.0320     27.7650
  1878.3000      8.0049      2.5895      0.0546      3.6640    150.2624     27.8200
  1878.4000      8.0049      2.5817      0.0463      4.1399    149.5678     27.5756
  1878.5000      8.0008      2.5730      0.0288      4.6658    149.8741     27.1094
  1878.6000      8.0008      2.5756      0.0017      4.5063    151.7006     26.7223
  1878.7000      8.0008      2.5844      0.0625      3.9782    154.1764     26.2169
  1878.8000      7.9957      2.5841      0.0192      3.9914    153.5439     25.2286
  1878.9000      7.9957      2.5751      0.0435      4.5406    147.0953     23.8653
  1879.0000      7.9893      2.5664     -0.0046      5.0686    138.0865     22.6452
  1879.1000      7.9893      2.5665      0.0214      5.0631    130.5401     22.0787
