~Version Information
VERS.                      2.0: CWLS Log ASCII Standard - VERSION 2.0
WRAP.                       NO: One line per depth step
~Well Information Block
STRT.FT               880.0000: 
STOP.FT              1995.0000: 
STEP.FT                 0.2500: 
NULL.                -999.2500: 
COMP.          Petrogulf Corporation: COMPANY
WELL.          Collister 17-31R: WELL
FLD.           Purgatorie River: FIELD
LOC.           962' FNL & 1520' FEL: LOCATION
PROV.                 Colorado: PROVINCE
CNTY.               Las Animas: COUNTRY
SRVC.                Patterson: SERVICE COMPANY
DATE.          Mon Sep 26 09:32:26 2005: LOG DATE
UWI.                          : UNIQUE WELL ID
~Curve Information Block
DEPT.FT            0 000 00 00: Depth
SP.mV                         : DIL Spontaneous Potential
RILD.Ohm-m                    : DIL Deep Resistivity
RILM.Ohm-m                    : DIL Medium Resistivity
RLL3.Ohm-m                    : DIL Shallow Resistivity
GR.GAPI                       : Gamma Ray
~Parameter Information Block
~A  Depth        SP         RILD        RILM        RLL3         GR     
# ...
  1384.0000    195.0686      8.7819      8.9278     11.1964    117.9807
  1384.2500    195.3344      8.4164      8.6053     11.7008    125.4237
  1384.5000    195.7155      8.1229      8.2441     11.1682    131.7015
  1384.7500    196.1571      7.8465      7.9235     10.5412    143.6342
  1385.0000    196.7970      7.7451      7.6555      9.7875    138.7646
  1385.2500    197.6151      7.5814      7.3363      9.7610    121.2722
  1385.5000    198.3697      7.4850      7.2122     10.1299    145.8376
  1385.7500    199.0593      7.4343      7.0617      9.1280    151.7280
  1386.0000    199.6995      7.3849      6.8620      8.1658    129.6198
  1386.2500    200.2057      7.2879      6.6578      7.9059    124.7725
  1386.5000    200.4783      7.2430      6.5247      8.1924    104.4935
  1386.7500    200.6820      7.1871      6.4702      8.3764    117.6148
  1387.0000    200.7703      7.1860      6.4644      9.1963    126.6300
  1387.2500    200.5741      7.2115      6.4607      9.5418    121.0614
  1387.5000    200.0372      7.2460      6.4841      8.7480    118.0001
  1387.7500    199.1273      7.4104      6.5361      8.1378    121.3310
  1388.0000    197.9727      7.5755      6.6739      8.3421    120.2664
  1388.2500    196.7836      7.7936      6.8661      8.7656    107.5721
  1388.5000    195.6130      7.9978      7.1663      9.1691     97.6478
  1388.7500    194.5982      8.3110      7.6693      9.5334    106.5668
  1389.0000    193.7205      8.6371      8.2074     11.9134    106.1713
  1389.2500    193.0917      8.9735      8.8428     16.5502    104.6994
  1389.5000    192.5212      9.4191      9.4816     16.5812    126.8461
  1389.7500    191.7769      9.8546     10.1474     15.7091    138.4623
  1390.0000    190.9330     10.2922     10.7480     18.1586    104.9550
  1390.2500    189.9406     10.9322     11.3923     21.7226    104.5303
  1390.5000    188.8755     11.8760     12.4428     23.9136    117.3690
  1390.7500    187.6592     12.7681     13.3399     24.2613    106.9677
  1391.0000    186.6845     13.9621     13.9881     21.9160     99.9208
  1391.2500    185.5389     15.1511     15.0425     18.4760    116.8476
  1391.5000    184.3527     16.3405     16.6094     16.7360    110.0578
  1391.7500    183.1770     17.6121     18.7480     18.9454    117.6697
  1392.0000    182.0348     18.5142     21.2225     25.8458    147.8728
  1392.2500    181.2612     19.8822     24.2769     39.9534    146.7300
  1392.5000    180.7563     20.8242     27.3530     57.2636    128.1936
  1392.7500    180.1591     21.7551     30.7914     69.5409    121.4029
  1393.0000    179.3958     22.8482     33.3839     64.0910     81.0996
  1393.2500    178.4194     23.4051     35.3347     56.4736     75.3915
  1393.5000    177.5958     24.4010     38.2221     68.9328     88.5305
  1393.7500    177.0773     25.5024     41.5392     89.7903     85.1357
  1394.0000    176.6379     28.0400     45.1001     97.9265     75.8924
  1394.2500    176.2961     28.7579     46.8945    103.0023     77.1114
  1394.5000    176.4216     29.8666     49.1990    110.9906     65.8153
  1394.7500    176.9252     30.0239     51.1974    111.8106     76.7396
  1395.0000    177.3618     30.0195     54.7676     97.3667     56.6886
  1395.2500    177.5218     28.7001     55.2291     75.2217     57.8880
  1395.5000    177.8908     27.6004     52.5940     63.0527     69.7770
  1395.7500    178.6153     26.1565     46.3573     53.2974     59.3510
  1396.0000    179.6284     24.1080     43.0885     41.3270     77.3468
  1396.2500    180.8037     22.1022     38.9269     33.1618     78.4528
  1396.5000    182.3787     20.2851     34.3830     30.7979     80.8600
  1396.7500    184.0715     18.1732     29.9909     32.1382     92.0136
  1397.0000    185.4561     16.7077     26.2080     31.9392     95.5655
  1397.2500    186.6242     15.2916     22.8032     30.9347    103.4765
  1397.5000    187.6004     14.3950     18.7889     29.2810    111.0884
  1397.7500    188.6230     13.5897     15.7276     25.2604    110.2251
  1398.0000    189.7140     12.8272     13.5857     17.0286     90.5724
  1398.2500    190.8883     12.2770     11.9450     11.5359     90.6033
  1398.5000    191.7265     11.7826     11.0178      9.4410     95.8891
  1398.7500    192.3429     11.4484     10.2984      9.4394    122.9530
  1399.0000    192.7981     11.0733     10.0192      9.6322    146.1492
  1399.2500    193.2326     10.6143      9.8843     10.0736    141.5412
  1399.5000    193.7856     10.1937      9.7559     10.4643    153.1903
  1399.7500    194.1808      9.6729      9.7665     10.8462    160.5598
  1400.0000    194.4595      9.3575      9.7213     11.9074    154.7009
  1400.2500    194.6736      9.1879      9.5862     13.6158    140.2435
  1400.5000    194.9121      8.9387      9.3671     13.3202    164.1240
  1400.7500    195.1529      8.8192      9.2090     12.1766    143.8263
  1401.0000    195.5862      8.6632      9.0421     11.3656    133.5732
  1401.2500    196.0387      8.6317      8.8348     11.3766    145.8480
  1401.5000    196.3182      8.6698      8.6398     11.3409    148.5701
  1401.7500    196.4343      8.7738      8.5311     11.4443    151.4610
  1402.0000    196.3526      8.8655      8.4880     10.7434    183.5592
  1402.2500    195.9622      9.0253      8.1890      9.5359    167.5148
  1402.5000    195.4283      9.0934      8.2091      9.2178    146.5536
  1402.7500    194.9580      9.1535      8.3856      8.8286    144.2520
  1403.0000    194.5762      9.2322      8.5634      9.0253    170.3790
  1403.2500    193.9876      9.4064      8.9673     10.4540    183.9911
  1403.5000    193.2801      9.3993      9.2908     11.8438    155.6416
  1403.7500    192.6001      9.3624      9.7544     12.9557    146.4985
  1404.0000    192.1324      9.2579     10.2588     14.6185    130.8322
  1404.2500    192.3656      9.0939     10.6796     16.7078    122.4350
  1404.5000    193.9425      9.0898     11.1635     25.0993    125.4789
  1404.7500    197.0035      9.1601     10.9918     36.9974    113.6460
  1405.0000    200.7776      9.2668     10.7205     28.2442    118.5835
  1405.2500    204.0583      9.4140     10.4844     15.5913    109.4244
  1405.5000    206.2907      9.5470     10.1573     11.1900     95.4515
  1405.7500    207.6870      9.6638      9.8238     10.6063     92.4334
  1406.0000    208.4289      9.6677      9.6710     10.2690     83.7099
  1406.2500    208.8694      9.7236      9.7465      9.9234     87.3124
  1406.5000    209.0490      9.9074      9.8057     10.1664    111.4886
  1406.7500    208.8839      9.7293      9.6848     10.4446    109.4221
  1407.0000    208.4496      9.5021      9.7606     11.1132    100.3372
  1407.2500    207.9220      9.2888      9.6924     11.1581     99.5191
  1407.5000    207.3036      9.1669      9.6419     11.1459     99.7239
  1407.7500    206.7230      9.1618      9.5742     11.3658    104.7282
  1408.0000    205.9732      9.0686      9.4530     11.3326     88.8728
  1408.2500    205.0458      8.9962      9.4379     11.1250    110.9246
  1408.5000    204.0532      9.0602      9.3756     11.0274    123.1975
  1408.7500    203.0055      9.0266      9.3629     11.0293     99.7706
  1409.0000    202.0589      9.0305      9.3907     10.8425     97.3609
  1409.2500    201.1112      9.0817      9.4373     10.8270     91.3100
  1409.5000    199.9587      9.1922      9.4969     10.9353    102.3520
  1409.7500    198.9025      9.2595      9.5998     11.3424    121.6978
  1410.0000    197.9100      9.3076      9.5916     12.5763    112.1525
  1410.2500    197.0562      9.3642      9.5839     12.4050    116.9095
  1410.5000    196.1558      9.4592      9.5669     11.2418    111.2525
  1410.7500    194.8545      9.5218      9.6181     10.6925    111.9598
  1411.0000    193.2651      9.5698      9.6984     11.0784     99.4885
  1411.2500    191.2292      9.6211      9.8945     11.3743    127.3898
  1411.5000    189.1984      9.6327      9.9856     11.7721    115.9939
  1411.7500    187.4896      9.7766     10.0808     12.0369    108.3742
