~Version Information
VERS.                      2.0: CWLS Log ASCII Standard - VERSION 2.0
WRAP.                       NO: One line per depth step
~Well Information Block
STRT.FT                10.0000: 
STOP.FT              1458.0000: 
STEP.FT                 0.1000: 
NULL.                -999.2500: 
COMP.          Pioneer Natural Resources: COMPANY
WELL.            Bordeaux 42-2: WELL
FLD.           Purgatorie River: FIELD
LOC.           1963' FNL & 1148' FEL: LOCATION
PROV.                 Colorado: PROVINCE
CNTY.               Las Animas: COUNTRY
SRVC.                Patterson: SERVICE COMPANY
DATE.          Tue Nov 29 07:11:03 2005: LOG DATE
UWI.                          : UNIQUE WELL ID
~Curve Information Block
DEPT.FT            0 000 00 00: Depth
DCAL.in                       : CDL Caliper
RHOB.g/cc                     : CDL Bulk Density
RHOC.g/cc                     : CDL Density Correction
DPOR.pu                       : CDL Density Porosity
GR.GAPI                       : Gamma Ray
NPOR.pu                       : Neutron Porosity
~Parameter Information Block
~A  Depth       DCAL        RHOB        RHOC        DPOR         GR         NPOR    
# ...
   202.0000      2.7444      2.2747      2.4781     -0.0075    109.5775     24.8400
   202.1000      2.7444      2.2851      2.5096     -0.0073    107.6962     24.4519
   202.2000      2.7444      2.2985      2.5186     -0.0070    106.5497     23.7982
   202.3000      2.7444      2.2985      2.5526     -0.0070    105.6743     23.4318
   202.4000      2.7444      2.2811      2.4899     -0.0074    105.4405     23.7948
   202.5000      2.7444      2.2613      2.4724     -0.0078    108.1326     24.3091
   202.6000      2.7444      2.2588      2.4370     -0.0078    111.9292     24.3493
   202.7000      2.7444      2.2791      2.4928     -0.0074    112.1801     24.1213
   202.8000      2.7444      2.3056      2.5287     -0.0069    109.3398     23.9644
   202.9000      2.7444      2.3173      2.5202     -0.0067    107.6357     23.9044
   203.0000      2.7444      2.3117      2.5091     -0.0068    107.1669     24.0503
   203.1000      2.7444      2.2980      2.5068     -0.0070    106.4594     24.4659
   203.2000      2.7444      2.2812      2.4995     -0.0074    106.5090     24.8658
   203.3000      2.7444      2.2617      2.4773     -0.0078    108.5057     25.2441
   203.4000      2.7444      2.2412      2.4705     -0.0082    115.2266     25.7701
   203.5000      2.7444      2.2254      2.4690     -0.0085    125.4111     26.2199
   203.6000      2.7444      2.2219      2.4510     -0.0086    131.8156     26.2440
   203.7000      2.7444      2.2301      2.4825     -0.0084    132.3944     25.8696
   203.8000      2.7444      2.2385      2.4894     -0.0082    131.0981     25.7329
   203.9000      2.7444      2.2416      2.4823     -0.0082    130.4491     26.3355
   204.0000      2.7444      2.2452      2.4793     -0.0081    132.3117     27.1665
   204.1000      2.7444      2.2515      2.4980     -0.0080    137.1361     27.5379
   204.2000      2.7444      2.2568      2.4920     -0.0079    140.6375     27.7798
   204.3000      2.7444      2.2601      2.4855     -0.0078    138.9579     28.3115
   204.4000      2.7444      2.2578      2.5008     -0.0078    133.8065     28.5676
   204.5000      2.7444      2.2453      2.4727     -0.0081    130.3096     28.2821
   204.6000      2.7444      2.2325      2.4607     -0.0084    130.4665     27.9459
   204.7000      2.7444      2.2383      2.4295     -0.0082    129.5660     27.8167
   204.8000      2.7444      2.2636      2.5127     -0.0077    125.1259     27.7290
   204.9000      2.7444      2.2900      2.5212     -0.0072    122.2512     27.7794
   205.0000      2.7444      2.3064      2.5244     -0.0069    121.6540     27.9904
   205.1000      2.7444      2.3079      2.5267     -0.0068    116.3721     28.0994
   205.2000      2.7444      2.2891      2.5201     -0.0072    103.2895     28.2703
   205.3000      2.7444      2.2547      2.5172     -0.0079     87.5197     28.7310
   205.4000      2.7444      2.2164      2.4781     -0.0087     73.5488     29.2964
   205.5000      2.7444      2.1832      2.4439     -0.0093     63.5084     29.5778
   205.6000      2.7444      2.1566      2.4471     -0.0099     58.9634     29.3802
   205.7000      2.7444      2.1366      2.4269     -0.0103     57.3385     29.1541
   205.8000      2.7444      2.1266      2.4482     -0.0105     55.2988     29.4857
   205.9000      2.7444      2.1264      2.4368     -0.0105     53.1396     30.1533
   206.0000      2.7444      2.1313      2.4439     -0.0104     51.3269     30.5168
   206.1000      2.7444      2.1380      2.4655     -0.0102     49.1689     30.4993
   206.2000      2.7444      2.1485      2.4592     -0.0100     48.1948     30.2344
   206.3000      2.7444      2.1643      2.4600     -0.0097     49.7486     29.7740
   206.4000      2.7444      2.1833      2.4474     -0.0093     51.6937     29.4613
   206.5000      2.7444      2.1979      2.4594     -0.0090     52.2324     29.4157
   206.6000      2.7444      2.1991      2.4517     -0.0090     52.4110     29.4140
   206.7000      2.7444      2.1874      2.4577     -0.0093     53.3291     29.3580
   206.8000      2.7444      2.1758      2.4599     -0.0095     55.9240     29.3245
   206.9000      2.7444      2.1741      2.4484     -0.0095     60.7550     29.3744
   207.0000      2.7444      2.1783      2.4661     -0.0094     66.5214     29.4850
   207.1000      2.7444      2.1882      2.4708     -0.0092     71.9240     29.6111
   207.2000      2.7444      2.2149      2.4689     -0.0087     76.7808     29.7280
   207.3000      2.7444      2.2542      2.5127     -0.0079     79.7617     29.7146
   207.4000      2.7444      2.2811      2.5056     -0.0074     79.8279     29.5144
   207.5000      2.7444      2.2812      2.5164     -0.0074     79.1691     29.4333
   207.6000      2.7444      2.2579      2.4964     -0.0078     79.1577     29.6293
   207.7000      2.7444      2.2209      2.4915     -0.0086     78.0022     29.7081
   207.8000      2.7444      2.1870      2.4417     -0.0093     74.6497     29.4169
   207.9000      2.7444      2.1769      2.4155     -0.0095     69.3248     29.0669
   208.0000      2.7444      2.1968      2.4454     -0.0091     63.9440     29.0241
   208.1000      2.7444      2.2356      2.4633     -0.0083     62.0307     29.0537
   208.2000      2.7444      2.2775      2.4955     -0.0075     62.8990     28.7694
   208.3000      2.7444      2.3075      2.5351     -0.0069     63.9774     28.3076
   208.4000      2.7444      2.3132      2.5317     -0.0067     65.1926     27.8889
   208.5000      2.7444      2.2963      2.4886     -0.0071     68.3768     27.3851
   208.6000      2.7444      2.2742      2.5169     -0.0075     74.8555     26.8337
   208.7000      2.7444      2.2611      2.5027     -0.0078     80.1548     26.3544
   208.8000      2.7444      2.2618      2.4942     -0.0078     78.9171     25.7539
   208.9000      2.7444      2.2779      2.4867     -0.0074     72.9926     25.2396
   209.0000      2.7444      2.3066      2.4915     -0.0069     67.6914     25.3588
   209.1000      2.7444      2.3403      2.5185     -0.0062     65.7125     25.9486
   209.2000      2.7444      2.3708      2.5558     -0.0056     66.3547     26.3700
   209.3000      2.7444      2.3891      2.5460     -0.0052     66.2022     26.3963
   209.4000      2.7444      2.3862      2.5555     -0.0053     64.8461     26.2923
   209.5000      2.7444      2.3637      2.5295     -0.0057     65.1645     26.4210
   209.6000      2.7444      2.3356      2.4914     -0.0063     66.5647     26.4526
   209.7000      2.7444      2.3123      2.4995     -0.0068     66.8217     26.0449
   209.8000      2.7444      2.2860      2.4773     -0.0073     65.6632     25.5648
   209.9000      2.7444      2.2436      2.4521     -0.0081     64.4579     25.2076
   210.0000      2.7444      2.1887      2.4449     -0.0092     65.3864     24.7533
   210.1000      2.7444      2.1395      2.4278     -0.0102     66.3905     24.2578
   210.2000      2.7444      2.1118      2.4227     -0.0108     64.0659     24.0338
   210.3000      2.7444      2.1070      2.4390     -0.0109     61.8421     24.1095
   210.4000      2.7444      2.1178      2.4814     -0.0106     64.3521     24.4449
   210.5000      2.7444      2.1419      2.4720     -0.0102     68.6286     24.9943
   210.6000      2.7444      2.1789      2.5136     -0.0094     68.8290     25.3015
   210.7000      2.7444      2.2239      2.5303     -0.0085     65.8628     24.9419
   210.8000      2.7444      2.2712      2.5688     -0.0076     65.6463     24.1940
   210.9000      2.7444      2.3091      2.6084     -0.0068     70.2830     23.8334
   211.0000      2.7444      2.3196      2.6086     -0.0066     77.0088     24.0137
   211.1000      2.7444      2.3002      2.5890     -0.0070     81.5572     24.3405
   211.2000      2.7444      2.2730      2.5628     -0.0075     81.7127     24.8199
   211.3000      2.7444      2.2655      2.5363     -0.0077     78.5552     25.5788
   211.4000      2.7444      2.2871      2.5555     -0.0073     75.0503     26.2399
   211.5000      2.7444      2.3273      2.5573     -0.0065     72.7620     26.5502
