~Version Information
VERS.                      2.0: CWLS Log ASCII Standard - VERSION 2.0
WRAP.                       NO: One line per depth step
~Well Information Block
STRT.FT               240.0000: 
STOP.FT               940.5000: 
STEP.FT                 0.1000: 
NULL.                -999.2500: 
COMP.          Pioneer Natural Resources: COMPANY
WELL.               Ernie 31-6: WELL
FLD.           Purgatoire River: FIELD
LOC.           681' FNL & 2138' FEL: LOCATION
CNTY.               Las Animas: COUNTY
SRVC.                Patterson: SERVICE COMPANY
DATE.          Tue May 30 07:05:10 2006: LOG DATE
UWI.           05 071 08716 00: UNIQUE WELL ID
STAT.                 Colorado: STATE
~Curve Information Block
DEPT.FT            0 000 00 00: Depth
DCAL.in                       : CDL Caliper
RHOB.g/cc                     : CDL Bulk Density
RHOC.g/cc                     : CDL Density Correction
DPOR.pu                       : CDL Density Porosity
GR.GAPI                       : Gamma Ray
NPOR.pu                       : Neutron Porosity
~Parameter Information Block
~A  Depth       DCAL        RHOB        RHOC        DPOR         GR         NPOR    
# ...
   566.4000      8.0573      2.4956      0.0484      9.3572     97.4349     20.8792
   566.5000      8.0519      2.4978      0.0120      9.2269     96.5471     21.1086
   566.6000      8.0519      2.4977      0.0323      9.2306     95.7808     20.7537
   566.7000      8.0519      2.4979      0.0534      9.2172    100.0178     20.3492
   566.8000      8.0316      2.4919      0.0312      9.5826    109.8798     19.9084
   566.9000      8.0316      2.4792      0.0183     10.3502    118.9387     18.9739
   567.0000      8.0319      2.4596      0.0655     11.5404    121.5840     17.6906
   567.1000      8.0319      2.4252      0.0633     13.6256    120.0887     16.2194
   567.2000      8.0319      2.3775     -0.0010     16.5174    115.6626     14.8865
   567.3000      8.0456      2.3289      0.0229     19.4621    109.3867     14.0063
   567.4000      8.0456      2.2777      0.0122     22.5610    106.2926     13.2890
   567.5000      8.0868      2.2135     -0.0032     26.4570    108.3429     12.6875
   567.6000      8.0868      2.1330      0.0431     31.3330    113.9267     12.5044
   567.7000      8.0868      2.0393      0.0462     37.0109    121.0099     12.3177
   567.8000      8.1347      1.9403      0.0740     43.0122    124.2048     11.5304
   567.9000      8.1347      1.8443      0.1270     48.8278    119.9230     10.6958
   568.0000      8.1668      1.7527      0.1308     54.3808    114.1966     10.4295
   568.1000      8.1668      1.6717      0.0918     59.2886    113.6682     10.3851
   568.2000      8.1668      1.6132      0.1153     62.8381    117.1726     10.2270
   568.3000      8.2109      1.5755      0.1091     65.1231    118.6626     10.1147
   568.4000      8.2109      1.5485      0.1401     66.7547    116.2769     10.0309
   568.5000      8.2299      1.5244      0.1478     68.2211    113.5162      9.8793
   568.6000      8.2299      1.5015      0.1420     69.6057    111.8405      9.8717
   568.7000      8.2299      1.4780      0.1705     71.0320    107.9623     10.1082
   568.8000      8.2677      1.4433      0.1328     73.1335    101.3344     10.4165
   568.9000      8.2677      1.3932      0.0763     76.1669     92.7955     10.7275
   569.0000      8.2664      1.3387      0.0006     79.4727     82.0031     11.0205
   569.1000      8.2664      1.2959     -0.0172     82.0640     73.6041     11.3722
   569.2000      8.2664      1.2744     -0.0129     83.3718     69.6811     11.6251
   569.3000      8.3224      1.2743      0.0049     83.3745     66.5291     11.5454
   569.4000      8.3224      1.2911      0.0602     82.3588     62.3717     11.3879
   569.5000      8.3523      1.3175      0.0947     80.7564     57.0126     11.3896
   569.6000      8.3523      1.3478      0.1153     78.9228     51.2604     11.4423
   569.7000      8.3523      1.3735      0.1776     77.3609     49.2553     11.2936
   569.8000      8.3487      1.3825      0.2202     76.8176     49.4479     10.9467
   569.9000      8.3487      1.3717      0.1847     77.4724     45.1003     10.7954
   570.0000      8.3463      1.3477      0.2053     78.9253     38.2826     11.0163
   570.1000      8.3463      1.3157      0.1448     80.8644     33.2799     11.3694
   570.2000      8.3463      1.2871      0.0888     82.5999     31.3408     11.7556
   570.3000      8.3523      1.2786      0.0759     83.1164     32.4338     12.1622
   570.4000      8.3523      1.2944      0.0672     82.1597     33.4025     12.3688
   570.5000      8.4033      1.3200      0.1063     80.6060     33.2869     12.2915
   570.6000      8.4033      1.3390      0.0969     79.4551     36.3281     12.5585
   570.7000      8.4033      1.3481      0.0944     78.9050     43.3340     13.6708
   570.8000      8.4081      1.3524      0.0893     78.6443     47.8767     14.1996
   570.9000      8.4081      1.3574      0.0987     78.3384     46.1794     12.8971
   571.0000      8.4085      1.3615      0.1250     78.0899     41.8617     11.3305
   571.1000      8.4085      1.3543      0.1725     78.5288     39.2598     10.7911
   571.2000      8.4085      1.3315      0.1580     79.9082     38.7916     11.1014
   571.3000      8.4215      1.3079      0.0803     81.3391     39.6975     11.8284
   571.4000      8.4215      1.3060      0.0846     81.4569     40.7570     12.4909
   571.5000      8.5184      1.3333      0.1121     79.7971     41.7236     12.8982
   571.6000      8.5184      1.3785      0.1664     77.0590     44.8554     13.2635
   571.7000      8.5184      1.4294      0.1430     73.9774     50.1338     13.5666
   571.8000      8.4634      1.4911      0.1938     70.2351     55.2705     14.0683
   571.9000      8.4634      1.5741      0.2538     65.2046     59.2017     15.1860
   572.0000      8.1752      1.6761      0.3194     59.0224     64.6584     16.6747
   572.1000      8.1752      1.7840      0.3801     52.4835     73.5840     17.8609
   572.2000      8.1752      1.8868      0.3209     46.2532     80.6819     18.4500
   572.3000      8.1090      1.9813      0.2899     40.5288     83.4175     18.9688
   572.4000      8.1090      2.0618      0.3074     35.6505     88.7724     20.2031
   572.5000      8.1011      2.1331      0.1887     31.3280     98.3640     21.9750
   572.6000      8.1011      2.2140      0.2262     26.4224    104.9583     22.9064
   572.7000      8.1011      2.3008      0.2736     21.1659    107.1811     22.6472
   572.8000      8.0921      2.3734      0.2402     16.7665    109.0065     22.5174
   572.9000      8.0921      2.4199      0.2146     13.9474    113.3907     22.9604
   573.0000      8.0896      2.4339      0.1771     13.0983    122.6703     23.0785
   573.1000      8.0896      2.4220      0.1378     13.8211    136.3556     22.4943
   573.2000      8.0896      2.4000      0.0884     15.1511    145.2232     22.0064
   573.3000      8.0878      2.3700      0.1048     16.9679    143.6647     22.0265
   573.4000      8.0878      2.3251      0.0750     19.6936    137.0214     22.0276
   573.5000      8.0857      2.2776      0.0024     22.5676    129.9958     21.7628
   573.6000      8.0857      2.2547     -0.0044     23.9583    126.2166     21.5584
   573.7000      8.0857      2.2636      0.0411     23.4169    130.7144     21.8236
   573.8000      8.0864      2.2888      0.0983     21.8937    139.3722     22.4326
   573.9000      8.0864      2.3154      0.0801     20.2797    142.2078     22.6884
   574.0000      8.0924      2.3359      0.1135     19.0388    137.6174     22.3862
   574.1000      8.0924      2.3464      0.1155     18.3974    132.8218     21.8643
   574.2000      8.0924      2.3509      0.0868     18.1302    133.7368     21.3633
   574.3000      8.0887      2.3499      0.1043     18.1881    138.3374     21.2663
   574.4000      8.0887      2.3398      0.0656     18.7973    143.2518     21.6759
   574.5000      8.0874      2.3314      0.0147     19.3087    147.2064     22.0328
   574.6000      8.0874      2.3381      0.0836     18.9011    147.9238     21.8600
   574.7000      8.0874      2.3465      0.0880     18.3923    145.6128     21.5445
   574.8000      8.0900      2.3410      0.0615     18.7284    144.5746     21.7896
   574.9000      8.0900      2.3365      0.0352     19.0022    145.7428     22.3610
   575.0000      8.0887      2.3500      0.0885     18.1844    144.4598     22.6800
   575.1000      8.0887      2.3766      0.1034     16.5727    141.4803     23.0883
   575.2000      8.0887      2.4076      0.1183     14.6917    140.4882     23.4046
   575.3000      8.0867      2.4360      0.1170     12.9694    140.7593     22.6479
   575.4000      8.0867      2.4572      0.1039     11.6867    142.8030     21.4797
   575.5000      8.0865      2.4758      0.1262     10.5592    147.4733     21.1313
   575.6000      8.0865      2.4955      0.1419      9.3628    150.0111     21.5221
   575.7000      8.0865      2.5140      0.1693      8.2452    146.0774     22.0963
   575.8000      8.0870      2.5254      0.1609      7.5529    137.9687     22.5762
   575.9000      8.0870      2.5335      0.1024      7.0619    131.7812     22.9746
