~Version Information
VERS.                      2.0: CWLS Log ASCII Standard - VERSION 2.0
WRAP.                       NO: One line per depth step
~Well Information Block
STRT.FT               240.0000: 
STOP.FT               902.0000: 
STEP.FT                 0.1000: 
NULL.                -999.2500: 
COMP.          Pioneer Natural Resources: COMPANY
WELL.          Bienville 31-28: WELL
FLD.           Purgatoire River: FIELD
LOC.           1212' FNL & 2271' FEL: LOCATION
PROV.                 Colorado: PROVINCE
CNTY.               Las Animas: COUNTRY
SRVC.                Patterson: SERVICE COMPANY
DATE.          Mon Jan 16 13:39:21 2006: LOG DATE
UWI.           05 071 08666 00: UNIQUE WELL ID
~Curve Information Block
DEPT.FT            0 000 00 00: Depth
DCAL.in                       : CDL Caliper
RHOB.g/cc                     : CDL Bulk Density
RHOC.g/cc                     : CDL Density Correction
DPOR.pu                       : CDL Density Porosity
GR.GAPI                       : Gamma Ray
NPOR.pu                       : Neutron Porosity
~Parameter Information Block
~A  Depth       DCAL        RHOB        RHOC        DPOR         GR         NPOR    
# ...
   710.4000      7.8365      2.5751      0.0082      4.5407     55.1145     21.3577
   710.5000      7.8380      2.5956      0.0364      3.2972     56.7708     21.0738
   710.6000      7.8380      2.6158      0.0532      2.0750     60.2064     21.0011
   710.7000      7.8380      2.6208      0.0774      1.7727     61.1428     21.2003
   710.8000      7.8489      2.6024      0.0628      2.8871     60.5278     21.4058
   710.9000      7.8489      2.5707      0.0758      4.8060     63.9413     21.1986
   711.0000      7.8492      2.5374      0.0371      6.8217     72.6112     20.8133
   711.1000      7.8492      2.5080     -0.0265      8.6071     80.8567     20.7057
   711.2000      7.8492      2.4879      0.0094      9.8221     83.0277     20.7178
   711.3000      7.8459      2.4835      0.0214     10.0883     82.5387     20.5165
   711.4000      7.8459      2.5047      0.0144      8.8063     87.7752     20.2746
   711.5000      7.8590      2.5442      0.0674      6.4139     97.2140     20.2352
   711.6000      7.8590      2.5677      0.0850      4.9904    102.3807     20.1977
   711.7000      7.8590      2.5531      0.1395      5.8734     98.5837     19.9499
   711.8000      7.8490      2.5164      0.0578      8.0976     88.6209     19.5251
   711.9000      7.8490      2.4859      0.0512      9.9430     82.4688     18.9919
   712.0000      7.8495      2.4611      0.0912     11.4507     85.0567     18.6321
   712.1000      7.8495      2.4227      0.0762     13.7781     91.0510     18.5308
   712.2000      7.8495      2.3732      0.0069     16.7767     93.2268     18.4430
   712.3000      7.8513      2.3321      0.0183     19.2680     88.9937     18.5373
   712.4000      7.8513      2.3013      0.0346     21.1338     84.0339     18.9948
   712.5000      7.8655      2.2708      0.0088     22.9798     81.7542     19.4719
   712.6000      7.8655      2.2449     -0.0013     24.5530     79.4787     19.7009
   712.7000      7.8655      2.2290      0.0488     25.5151     77.8671     19.7312
   712.8000      7.8715      2.2143      0.0824     26.4063     78.1258     19.7427
   712.9000      7.8715      2.1973      0.0063     27.4388     78.1583     19.9332
   713.0000      7.8941      2.1891      0.0256     27.9325     76.6753     20.2447
   713.1000      7.8941      2.1913      0.0522     27.7972     74.0865     20.4519
   713.2000      7.8941      2.1965      0.0427     27.4824     72.5668     20.5799
   713.3000      7.8953      2.2042      0.0828     27.0210     73.2080     20.9432
   713.4000      7.8953      2.2135      0.0481     26.4525     76.3405     21.5598
   713.5000      7.9283      2.2216      0.0996     25.9657     82.5144     21.9566
   713.6000      7.9283      2.2308      0.0494     25.4037     86.9583     22.0623
   713.7000      7.9283      2.2513      0.0738     24.1662     85.2731     22.2590
   713.8000      7.9014      2.2800      0.1000     22.4228     79.6389     22.6236
   713.9000      7.9014      2.3030      0.0750     21.0333     74.6350     22.9714
   714.0000      7.8595      2.3237      0.0972     19.7746     74.9648     23.3335
   714.1000      7.8595      2.3586      0.1164     17.6612     79.8613     23.7620
   714.2000      7.8595      2.4131      0.1325     14.3584     84.1366     23.8922
   714.3000      7.8482      2.4746      0.1701     10.6277     88.0226     23.4721
   714.4000      7.8482      2.5181      0.1833      7.9928     91.4538     22.9709
   714.5000      7.8588      2.5303      0.1573      7.2564     90.5575     22.9984
   714.6000      7.8588      2.5286      0.1031      7.3576     87.1460     23.5144
   714.7000      7.8588      2.5341      0.1057      7.0239     84.2868     23.9671
   714.8000      7.8549      2.5393      0.1162      6.7062     80.8792     23.9550
   714.9000      7.8549      2.5351      0.0906      6.9661     76.6449     23.6860
   715.0000      7.8739      2.5359      0.0639      6.9129     73.0513     23.7307
   715.1000      7.8739      2.5442      0.1048      6.4140     72.4888     24.1491
   715.2000      7.8739      2.5398      0.0481      6.6803     76.3738     24.4307
   715.3000      7.8481      2.5192      0.0676      7.9296     82.4176     24.4086
   715.4000      7.8481      2.4951      0.0675      9.3864     86.2727     24.3426
   715.5000      7.8516      2.4820      0.0271     10.1814     84.8377     24.3746
   715.6000      7.8516      2.4848      0.0259     10.0151     80.2508     24.3764
   715.7000      7.8516      2.4844      0.0608     10.0383     77.0743     24.2911
   715.8000      7.8316      2.4715     -0.0237     10.8190     74.8778     24.3118
   715.9000      7.8316      2.4693     -0.0434     10.9490     71.3202     24.3371
   716.0000      7.8320      2.4895      0.0031      9.7302     65.9480     24.0585
   716.1000      7.8320      2.5209      0.0167      7.8264     61.4901     23.6460
   716.2000      7.8320      2.5524      0.0829      5.9135     61.1510     23.2434
   716.3000      7.8239      2.5714      0.0837      4.7655     63.6962     22.8867
   716.4000      7.8239      2.5719      0.0945      4.7324     67.5116     22.7151
   716.5000      7.8309      2.5581      0.1019      5.5667     71.7408     22.7346
   716.6000      7.8309      2.5374      0.0514      6.8272     74.2840     22.9134
   716.7000      7.8309      2.5221      0.0596      7.7544     74.3046     23.2252
   716.8000      7.7974      2.5198      0.0474      7.8911     73.7207     23.6429
   716.9000      7.7974      2.5270      0.0363      7.4537     73.3571     24.0299
   717.0000      7.8215      2.5339      0.0637      7.0335     71.3466     24.1555
   717.1000      7.8215      2.5253      0.0929      7.5584     70.3210     23.8331
   717.2000      7.8215      2.5006      0.0329      9.0556     74.0528     23.1486
   717.3000      7.8503      2.4785     -0.0011     10.3963     77.2496     22.5974
   717.4000      7.8503      2.4582      0.0772     11.6234     76.5796     22.3991
   717.5000      7.8631      2.4239      0.0694     13.7016     77.6745     22.3398
   717.6000      7.8631      2.3845     -0.0174     16.0927     82.0843     22.2678
   717.7000      7.8631      2.3518      0.0451     18.0699     85.1152     22.1199
   717.8000      7.8589      2.3252      0.0007     19.6839     85.2626     22.1056
   717.9000      7.8589      2.3181      0.0356     20.1164     83.5798     22.4460
   718.0000      7.8366      2.3473      0.0492     18.3439     81.1627     22.8407
   718.1000      7.8366      2.4176      0.0896     14.0857     78.2818     22.7783
   718.2000      7.8366      2.5119      0.2256      8.3668     74.3011     22.4829
   718.3000      7.7599      2.5903      0.2762      3.6163     69.1807     22.4591
   718.4000      7.7599      2.6293      0.2819      1.2573     65.7895     22.4903
   718.5000      7.7283      2.6359      0.2757      0.8556     68.0180     22.1910
   718.6000      7.7283      2.6161      0.3208      2.0553     73.8336     21.8181
   718.7000      7.7283      2.5769      0.1614      4.4314     75.0411     21.8886
   718.8000      7.7394      2.5412      0.1469      6.5925     70.9611     22.4876
   718.9000      7.7394      2.5180      0.1097      8.0029     67.5506     23.0040
   719.0000      7.8288      2.5021      0.0928      8.9619     66.2767     22.8701
   719.1000      7.8288      2.4921      0.0604      9.5696     67.2175     22.2305
   719.2000      7.8288      2.4821      0.0665     10.1754     69.3406     21.5567
   719.3000      7.8523      2.4734     -0.0176     10.7002     69.8414     21.2582
   719.4000      7.8523      2.4763      0.0618     10.5262     69.2985     21.4406
   719.5000      7.8809      2.4846      0.0822     10.0248     70.3668     21.7399
   719.6000      7.8809      2.4870      0.1087      9.8771     73.5267     21.9335
   719.7000      7.8809      2.4863      0.0951      9.9194     77.7830     22.1712
   719.8000      7.8689      2.4880      0.0672      9.8163     81.9296     22.3353
   719.9000      7.8689      2.4838      0.1122     10.0726     81.6230     22.1477
