~Version Information
VERS.                      2.0: CWLS Log ASCII Standard - VERSION 2.0
WRAP.                       NO: One line per depth step
~Well Information Block
STRT.FT               845.0000: 
STOP.FT              2103.2000: 
STEP.FT                 0.1000: 
NULL.                -999.2500: 
COMP.          Petrogulf Corporation: COMPANY
WELL.               YWAM 7-32R: WELL
FLD.           Purgatorie River: FIELD
LOC.           2355' FNL & 2376' FEL: LOCATION
PROV.                 Colorado: PROVINCE
CNTY.               Las Animas: COUNTRY
SRVC.                Patterson: SERVICE COMPANY
DATE.          Thu Sep 29 23:12:08 2005: LOG DATE
UWI.                          : UNIQUE WELL ID
~Curve Information Block
DEPT.FT            0 000 00 00: Depth
SP.mV                         : DIL Spontaneous Potential
RILD.Ohm-m                    : DIL Deep Resistivity
RILM.Ohm-m                    : DIL Medium Resistivity
RLL3.Ohm-m                    : DIL Shallow Resistivity
GR.GAPI                       : Gamma Ray
~Parameter Information Block
~A  Depth        SP         RILD        RILM        RLL3         GR     
# ...
  1337.8000    169.9970     11.5620     14.3811     32.0790    101.0127
  1337.9000    169.9970     11.5620     14.3811     32.0790     99.5898
  1338.0000    171.6092     10.9789     13.4891     35.0902     97.8865
  1338.1000    171.6092     10.9789     13.4891     35.0902     95.9144
  1338.2000    171.6092     10.9789     13.4891     35.0902     93.7174
  1338.3000    173.3984     10.4016     12.4247     34.3467     91.3667
  1338.4000    173.3984     10.4016     12.4247     34.3467     88.9442
  1338.5000    175.1953      9.8593     11.3181     29.7530     86.5352
  1338.6000    175.1953      9.8593     11.3181     29.7530     84.2111
  1338.7000    175.1953      9.8593     11.3181     29.7530     82.0161
  1338.8000    176.8091      9.3665     10.2718     23.0408     79.9610
  1338.9000    176.8091      9.3665     10.2718     23.0408     78.0226
  1339.0000    178.0798      8.9259      9.3460     16.5452     76.1454
  1339.1000    178.0798      8.9259      9.3460     16.5452     74.2555
  1339.2000    178.0798      8.9259      9.3460     16.5452     72.2742
  1339.3000    178.9240      8.5323      8.5631     11.7985     70.1374
  1339.4000    178.9240      8.5323      8.5631     11.7985     67.8056
  1339.5000    179.3544      8.1766      7.9213      9.0721     65.2755
  1339.6000    179.3544      8.1766      7.9213      9.0721     62.5783
  1339.7000    179.3544      8.1766      7.9213      9.0721     59.7819
  1339.8000    179.4589      7.8496      7.4063      7.8372     56.9718
  1339.9000    179.4589      7.8496      7.4063      7.8372     54.2444
  1340.0000    179.3558      7.5455      6.9994      7.4149     51.6940
  1340.1000    179.3558      7.5455      6.9994      7.4149     49.4075
  1340.2000    179.3558      7.5455      6.9994      7.4149     47.4587
  1340.3000    179.1518      7.2640      6.6826      7.3266     45.9028
  1340.4000    179.1518      7.2640      6.6826      7.3266     44.7819
  1340.5000    178.9234      7.0097      6.4402      7.3372     44.1229
  1340.6000    178.9234      7.0097      6.4402      7.3372     43.9334
  1340.7000    178.9234      7.0097      6.4402      7.3372     44.2069
  1340.8000    178.7193      6.7899      6.2601      7.3718     44.9173
  1340.9000    178.7193      6.7899      6.2601      7.3718     46.0249
  1341.0000    178.5680      6.6120      6.1333      7.4333     47.4792
  1341.1000    178.5680      6.6120      6.1333      7.4333     49.2283
  1341.2000    178.5680      6.6120      6.1333      7.4333     51.2258
  1341.3000    178.4830      6.4822      6.0534      7.5533     53.4363
  1341.4000    178.4830      6.4822      6.0534      7.5533     55.8403
  1341.5000    178.4624      6.4055      6.0165      7.7617     58.4319
  1341.6000    178.4624      6.4055      6.0165      7.7617     61.2136
  1341.7000    178.4624      6.4055      6.0165      7.7617     64.1840
  1341.8000    178.4906      6.3860      6.0203      8.0617     67.3342
  1341.9000    178.4906      6.3860      6.0203      8.0617     70.6321
  1342.0000    178.5452      6.4267      6.0643      8.4148     74.0274
  1342.1000    178.5452      6.4267      6.0643      8.4148     77.4458
  1342.2000    178.5452      6.4267      6.0643      8.4148     80.7980
  1342.3000    178.6013      6.5295      6.1499      8.7495     83.9920
  1342.4000    178.6013      6.5295      6.1499      8.7495     86.9400
  1342.5000    178.6254      6.6943      6.2804      8.9940     89.5733
  1342.6000    178.6254      6.6943      6.2804      8.9940     91.8453
  1342.7000    178.6254      6.6943      6.2804      8.9940     93.7361
  1342.8000    178.5604      6.9187      6.4614      9.1308     95.2503
  1342.9000    178.5604      6.9187      6.4614      9.1308     96.4125
  1343.0000    178.3241      7.1976      6.7000      9.2596     97.2556
  1343.1000    178.3241      7.1976      6.7000      9.2596     97.8180
  1343.2000    178.3241      7.1976      6.7000      9.2596     98.1332
  1343.3000    177.8353      7.5231      7.0042      9.6312     98.2251
  1343.4000    177.8353      7.5231      7.0042      9.6312     98.1077
  1343.5000    177.0600      7.8854      7.3813     10.5857     97.7915
  1343.6000    177.0600      7.8854      7.3813     10.5857     97.2845
  1343.7000    177.0600      7.8854      7.3813     10.5857     96.6047
  1343.8000    176.0520      8.2738      7.8366     12.3577     95.7844
  1343.9000    176.0520      8.2738      7.8366     12.3577     94.8782
  1344.0000    174.9695      8.6777      8.3707     14.8573     93.9580
  1344.1000    174.9695      8.6777      8.3707     14.8573     93.1112
  1344.2000    174.9695      8.6777      8.3707     14.8573     92.4271
  1344.3000    174.0369      9.0885      8.9778     17.6481     91.9845
  1344.4000    174.0369      9.0885      8.9778     17.6481     91.8425
  1344.5000    173.4306      9.5014      9.6442     20.2120     92.0244
  1344.6000    173.4306      9.5014      9.6442     20.2120     92.5209
  1344.7000    173.4306      9.5014      9.6442     20.2120     93.2924
  1344.8000    173.1529      9.9172     10.3484     22.2562     94.2802
  1344.9000    173.1529      9.9172     10.3484     22.2562     95.4139
  1345.0000    173.0226     10.3428     11.0639     23.7467     96.6276
  1345.1000    173.0226     10.3428     11.0639     23.7467     97.8635
  1345.2000    173.0226     10.3428     11.0639     23.7467     99.0750
  1345.3000    172.8197     10.7899     11.7638     24.7048    100.2276
  1345.4000    172.8197     10.7899     11.7638     24.7048    101.2938
  1345.5000    172.4435     11.2709     12.4264     25.0729    102.2527
  1345.6000    172.4435     11.2709     12.4264     25.0729    103.0901
  1345.7000    172.4435     11.2709     12.4264     25.0729    103.7970
  1345.8000    171.9389     11.7944     13.0402     24.7808    104.3772
  1345.9000    171.9389     11.7944     13.0402     24.7808    104.8434
  1346.0000    171.4074     12.3620     13.6062     23.8607    105.2286
  1346.1000    171.4074     12.3620     13.6062     23.8607    105.5736
  1346.2000    171.4074     12.3620     13.6062     23.8607    105.9344
  1346.3000    170.9205     12.9678     14.1382     22.4681    106.3699
  1346.4000    170.9205     12.9678     14.1382     22.4681    106.9338
  1346.5000    170.4957     13.6003     14.6598     20.8431    107.6753
  1346.6000    170.4957     13.6003     14.6598     20.8431    108.6222
  1346.7000    170.4957     13.6003     14.6598     20.8431    109.7827
  1346.8000    170.1129     14.2448     15.2018     19.3117    111.1315
  1346.9000    170.1129     14.2448     15.2018     19.3117    112.6161
  1347.0000    169.7318     14.8843     15.7974     18.3351    114.1492
  1347.1000    169.7318     14.8843     15.7974     18.3351    115.6243
  1347.2000    169.7318     14.8843     15.7974     18.3351    116.9147
  1347.3000    169.3018     15.5001     16.4784     18.5051    117.8933
  1347.4000    169.3018     15.5001     16.4784     18.5051    118.4455
  1347.5000    168.7742     16.0766     17.2721     20.3593    118.4801
  1347.6000    168.7742     16.0766     17.2721     20.3593    117.9405
  1347.7000    168.7742     16.0766     17.2721     20.3593    116.8071
  1347.8000    168.1198     16.6078     18.1981     24.0431    115.0935
  1347.9000    168.1198     16.6078     18.1981     24.0431    112.8430
  1348.0000    167.3386     17.1044     19.2675     29.0823    110.1150
  1348.1000    167.3386     17.1044     19.2675     29.0823    106.9817
  1348.2000    167.3386     17.1044     19.2675     29.0823    103.5188
  1348.3000    166.4555     17.5956     20.4843     34.5469     99.8049
  1348.4000    166.4555     17.5956     20.4843     34.5469     95.9251
  1348.5000    165.5078     18.1261     21.8488     39.5038     91.9699
  1348.6000    165.5078     18.1261     21.8488     39.5038     88.0418
  1348.7000    165.5078     18.1261     21.8488     39.5038     84.2471
  1348.8000    164.5353     18.7492     23.3635     43.3363     80.6947
  1348.9000    164.5353     18.7492     23.3635     43.3363     77.4836
