~Version Information
VERS.                      2.0: CWLS Log ASCII Standard - VERSION 2.0
WRAP.                       NO: One line per depth step
~Well Information Block
STRT.FT               480.0000: 
STOP.FT              1946.0000: 
STEP.FT                 0.2500: 
NULL.                -999.2500: 
COMP.          XTO Energy Inc.: COMPANY
WELL.          Golden Eagle 19-15: WELL
FLD.           Purgatoire River: FIELD
LOC.           1121' FSL & 2332' FEL--: LOCATION
CNTY.               Las Animas: COUNTY
SRVC.                Patterson: SERVICE COMPANY
DATE.          Sun Mar 12 15:00:51 2006: LOG DATE
UWI.           05 071 08717 00: UNIQUE WELL ID
STAT.                 Colorado: STATE
~Curve Information Block
DEPT.FT            0 000 00 00: Depth
SP.mV                         : DIL Spontaneous Potential
RILD.Ohm-m                    : DIL Deep Resistivity
RILM.Ohm-m                    : DIL Medium Resistivity
RLL3.Ohm-m                    : DIL Shallow Resistivity
GR.GAPI                       : Gamma Ray
~Parameter Information Block
~A  Depth        SP         RILD        RILM        RLL3         GR     
# ...
  1711.0000     33.2720     12.2715     13.1976     14.3912     93.0451
  1711.2500     33.2008     12.2589     13.1546     14.2311     92.5955
  1711.5000     33.1719     12.2572     13.1370     14.1107     91.3617
  1711.7500     33.1843     12.2618     13.1408     14.0416     90.4025
  1712.0000     33.2141     12.2701     13.1530     14.0063     89.3093
  1712.2500     33.2231     12.2808     13.1566     13.9738     88.9716
  1712.5000     33.1794     12.2915     13.1386     13.9156     88.9325
  1712.7500     33.0751     12.2986     13.0966     13.8184     89.0026
  1713.0000     32.9274     12.2993     13.0405     13.6878     88.8467
  1713.2500     32.7638     12.2947     12.9874     13.5456     88.4090
  1713.5000     32.6075     12.2901     12.9541     13.4243     87.2539
  1713.7500     32.4711     12.2930     12.9521     13.3591     86.2965
  1714.0000     32.3583     12.3096     12.9869     13.3799     84.7935
  1714.2500     32.2670     12.3425     13.0598     13.5037     83.6976
  1714.5000     32.1905     12.3893     13.1682     13.7280     81.6264
  1714.7500     32.1220     12.4433     13.3047     14.0285     79.9331
  1715.0000     32.0622     12.4955     13.4556     14.3602     77.3963
  1715.2500     32.0203     12.5377     13.6039     14.6643     76.1115
  1715.5000     32.0020     12.5657     13.7341     14.8807     75.1345
  1715.7500     31.9994     12.5792     13.8364     14.9638     75.0009
  1716.0000     31.9953     12.5812     13.9068     14.8967     75.1419
  1716.2500     31.9797     12.5764     13.9448     14.6959     75.2718
  1716.5000     31.9594     12.5706     13.9504     14.4044     75.4028
  1716.7500     31.9499     12.5688     13.9244     14.0754     75.4543
  1717.0000     31.9608     12.5720     13.8700     13.7559     75.6140
  1717.2500     31.9875     12.5753     13.7926     13.4768     75.9780
  1717.5000     32.0186     12.5698     13.6989     13.2534     77.3353
  1717.7500     32.0438     12.5489     13.5958     13.0902     78.8572
  1718.0000     32.0564     12.5113     13.4906     12.9872     81.6945
  1718.2500     32.0517     12.4617     13.3919     12.9431     83.5608
  1718.5000     32.0291     12.4081     13.3083     12.9559     85.6499
  1718.7500     31.9919     12.3596     13.2463     13.0230     86.3203
  1719.0000     31.9420     12.3249     13.2083     13.1404     86.3483
  1719.2500     31.8769     12.3107     13.1927     13.3026     86.0353
  1719.5000     31.7930     12.3204     13.1960     13.5015     85.3609
  1719.7500     31.6938     12.3519     13.2153     13.7256     84.5922
  1720.0000     31.5915     12.3982     13.2501     13.9616     82.6360
  1720.2500     31.4989     12.4501     13.3022     14.1958     81.0178
  1720.5000     31.4203     12.5021     13.3732     14.4150     79.1592
  1720.7500     31.3489     12.5553     13.4601     14.6049     78.9000
  1721.0000     31.2754     12.6171     13.5537     14.7481     80.2169
  1721.2500     31.1987     12.6958     13.6408     14.8254     81.6929
  1721.5000     31.1282     12.7942     13.7118     14.8227     83.1743
  1721.7500     31.0760     12.9067     13.7658     14.7401     82.9818
  1722.0000     31.0482     13.0207     13.8105     14.5983     81.0685
  1722.2500     31.0423     13.1226     13.8582     14.4348     79.3746
  1722.5000     31.0501     13.2029     13.9197     14.2921     77.2816
  1722.7500     31.0634     13.2592     14.0011     14.2024     76.5057
  1723.0000     31.0781     13.2950     14.1005     14.1763     76.5573
  1723.2500     31.0953     13.3168     14.2055     14.2011     77.4659
  1723.5000     31.1234     13.3308     14.2955     14.2470     79.6535
  1723.7500     31.1792     13.3413     14.3477     14.2806     81.0088
  1724.0000     31.2851     13.3507     14.3475     14.2772     82.1288
  1724.2500     31.4546     13.3604     14.2971     14.2293     82.5330
  1724.5000     31.6754     13.3707     14.2152     14.1484     83.6744
  1724.7500     31.9042     13.3800     14.1290     14.0586     84.9186
  1725.0000     32.0853     13.3853     14.0618     13.9876     86.5824
  1725.2500     32.1814     13.3845     14.0252     13.9576     87.0512
  1725.5000     32.1904     13.3798     14.0177     13.9795     87.0449
  1725.7500     32.1381     13.3773     14.0297     14.0518     87.1669
  1726.0000     32.0554     13.3845     14.0520     14.1631     88.2478
  1726.2500     31.9603     13.4063     14.0805     14.2966     89.4702
  1726.5000     31.8560     13.4443     14.1167     14.4344     91.2939
  1726.7500     31.7413     13.4974     14.1635     14.5617     92.0804
  1727.0000     31.6219     13.5650     14.2212     14.6691     92.4234
  1727.2500     31.5092     13.6470     14.2883     14.7554     92.3249
  1727.5000     31.4116     13.7424     14.3640     14.8294     92.2399
  1727.7500     31.3281     13.8459     14.4504     14.9094     92.2224
  1728.0000     31.2520     13.9469     14.5519     15.0193     91.4101
  1728.2500     31.1801     14.0313     14.6707     15.1808     89.8696
  1728.5000     31.1167     14.0851     14.8030     15.4027     86.4044
  1728.7500     31.0705     14.1004     14.9371     15.6736     84.0461
  1729.0000     31.0497     14.0785     15.0567     15.9605     81.2113
  1729.2500     31.0592     14.0299     15.1459     16.2158     79.5914
  1729.5000     31.0974     13.9716     15.1942     16.3895     76.7235
  1729.7500     31.1542     13.9207     15.1974     16.4444     74.3352
  1730.0000     31.2153     13.8900     15.1576     16.3675     70.8999
  1730.2500     31.2689     13.8846     15.0826     16.1758     69.6669
  1730.5000     31.3068     13.9009     14.9856     15.9130     70.4015
  1730.7500     31.3196     13.9289     14.8829     15.6368     72.2309
  1731.0000     31.2934     13.9563     14.7891     15.4000     75.1764
  1731.2500     31.2167     13.9740     14.7118     15.2345     76.3265
  1731.5000     31.0937     13.9784     14.6501     15.1435     76.2508
  1731.7500     30.9494     13.9719     14.5974     15.1067     75.2772
  1732.0000     30.8194     13.9597     14.5459     15.0941     73.6544
  1732.2500     30.7326     13.9475     14.4923     15.0812     73.3071
  1732.5000     30.6996     13.9401     14.4400     15.0590     74.7105
  1732.7500     30.7132     13.9408     14.3988     15.0371     76.7305
  1733.0000     30.7561     13.9511     14.3810     15.0382     80.0527
  1733.2500     30.8104     13.9702     14.3970     15.0876     81.5805
  1733.5000     30.8634     13.9952     14.4513     15.1998     82.0967
  1733.7500     30.9103     14.0226     14.5405     15.3679     81.4181
  1734.0000     30.9533     14.0498     14.6548     15.5626     79.5798
  1734.2500     30.9974     14.0754     14.7807     15.7420     78.0745
  1734.5000     31.0452     14.0970     14.9044     15.8689     75.5540
  1734.7500     31.0943     14.1095     15.0139     15.9261     73.9122
  1735.0000     31.1386     14.1050     15.0993     15.9219     72.3367
  1735.2500     31.1732     14.0764     15.1534     15.8825     72.2950
  1735.5000     31.1975     14.0211     15.1728     15.8362     73.4906
  1735.7500     31.2154     13.9421     15.1570     15.7996     74.4290
  1736.0000     31.2317     13.8462     15.1066     15.7714     74.9719
  1736.2500     31.2484     13.7413     15.0213     15.7357     74.6732
  1736.5000     31.2633     13.6337     14.9008     15.6730     73.7000
  1736.7500     31.2724     13.5271     14.7466     15.5697     72.8772
  1737.0000     31.2725     13.4217     14.5638     15.4230     71.4510
  1737.2500     31.2636     13.3157     14.3603     15.2398     70.5790
  1737.5000     31.2523     13.2080     14.1464     15.0318     70.0525
  1737.7500     31.2548     13.1004     13.9341     14.8118     70.4240
  1738.0000     31.2950     12.9971     13.7361     14.5925     71.6845
  1738.2500     31.3932     12.9030     13.5630     14.3876     72.5631
  1738.5000     31.5494     12.8210     13.4212     14.2118     73.4700
  1738.7500     31.7360     12.7529     13.3131     14.0803     73.8155
