~Version Information
VERS.                      2.0: CWLS Log ASCII Standard - VERSION 2.0
WRAP.                       NO: One line per depth step
~Well Information Block
STRT.FT               240.0000: 
STOP.FT              1252.5000: 
STEP.FT                 0.2500: 
NULL.                -999.2500: 
COMP.          Pioneer Natural Resources: COMPANY
WELL.             Margaux 11-1: WELL
FLD.           Purgatoire River: FIELD
LOC.           1154' FNL & 472' FWL: LOCATION
PROV.                 Colorado: PROVINCE
CNTY.               Las Animas: COUNTRY
SRVC.                Patterson: SERVICE COMPANY
DATE.          Mon Dec 19 04:21:59 2005: LOG DATE
UWI.           05 071 08639 00: UNIQUE WELL ID
~Curve Information Block
DEPT.FT            0 000 00 00: Depth
SN.Ohm-m                      : IEL Short Normal
SP.mV                         : IEL Spontaneous Potential
DIR.Ohm-m                     : IEL Induction Resistivity
GR.GAPI                       : Gamma Ray
~Parameter Information Block
~A  Depth        SN          SP         DIR          GR     
# ...
   307.0000   2000.0000   2000.0000      7.8215    133.0931
   307.2500   2000.0000   2000.0000      7.8250    133.4048
   307.5000   2000.0000   2000.0000      7.8181    133.5222
   307.7500   2000.0000   2000.0000      7.7981    133.7713
   308.0000   2000.0000   2000.0000      7.7589    134.8231
   308.2500   2000.0000   2000.0000      7.6976    135.8466
   308.5000   2000.0000   2000.0000      7.6189    137.1029
   308.7500   2000.0000   2000.0000      7.5333    137.3201
   309.0000   2000.0000   2000.0000      7.4499    136.6564
   309.2500   2000.0000   2000.0000      7.3730    136.0073
   309.5000   2000.0000   2000.0000      7.3023    135.7439
   309.7500   2000.0000   2000.0000      7.2365    136.3354
   310.0000   2000.0000   2000.0000      7.1753    138.1263
   310.2500   2000.0000   2000.0000      7.1184    139.5154
   310.5000   2000.0000   2000.0000      7.0633    141.0190
   310.7500   2000.0000   2000.0000      7.0051    141.1422
   311.0000   2000.0000   2000.0000      6.9382    139.7932
   311.2500   2000.0000   2000.0000      6.8594    138.3718
   311.5000   2000.0000   2000.0000      6.7693    136.8083
   311.7500   2000.0000   2000.0000      6.6718    136.5662
   312.0000   2000.0000   2000.0000      6.5722    137.3065
   312.2500   2000.0000   2000.0000      6.4756    138.4401
   312.5000   2000.0000   2000.0000      6.3857    141.0932
   312.7500   2000.0000   2000.0000      6.3055    143.1604
   313.0000   2000.0000   2000.0000      6.2381    145.2649
   313.2500   2000.0000   2000.0000      6.1855    145.2390
   313.5000   2000.0000   2000.0000      6.1478    143.1836
   313.7500   2000.0000   2000.0000      6.1214    141.3416
   314.0000   2000.0000   2000.0000      6.1004    139.2630
   314.2500   2000.0000   2000.0000      6.0795    138.3166
   314.5000   2000.0000   2000.0000      6.0561    136.1898
   314.7500   2000.0000   2000.0000      6.0313    133.5579
   315.0000   2000.0000   2000.0000      6.0080    127.9838
   315.2500   2000.0000   2000.0000      5.9894    124.0313
   315.5000   2000.0000   2000.0000      5.9776    118.9933
   315.7500   2000.0000   2000.0000      5.9734    116.3510
   316.0000   2000.0000   2000.0000      5.9769    113.2649
   316.2500   2000.0000   2000.0000      5.9887    111.9790
   316.5000   2000.0000   2000.0000      6.0104    111.8021
   316.7500   2000.0000   2000.0000      6.0448    112.7440
   317.0000   2000.0000   2000.0000      6.0948    114.5163
   317.2500   2000.0000   2000.0000      6.1630    115.2030
   317.5000   2000.0000   2000.0000      6.2504    115.3373
   317.7500   2000.0000   2000.0000      6.3556    115.4069
   318.0000   2000.0000   2000.0000      6.4754    116.7905
   318.2500   2000.0000   2000.0000      6.6058    119.0049
   318.5000   2000.0000   2000.0000      6.7441    123.9928
   318.7500   2000.0000   2000.0000      6.8904    127.7229
   319.0000   2000.0000   2000.0000      7.0469    132.3265
   319.2500   2000.0000   2000.0000      7.2165    133.9695
   319.5000   2000.0000   2000.0000      7.4002    133.9258
   319.7500   2000.0000   2000.0000      7.5975    132.7071
   320.0000   2000.0000   2000.0000      7.8068    130.6863
   320.2500   2000.0000   2000.0000      8.0265    130.0582
   320.5000   2000.0000   2000.0000      8.2517    130.6285
   320.7500   2000.0000   2000.0000      8.4723    131.6460
   321.0000   2000.0000   2000.0000      8.6711    133.2058
   321.2500   2000.0000   2000.0000      8.8282    134.0025
   321.5000   2000.0000   2000.0000      8.9281    134.9359
   321.7500   2000.0000   2000.0000      8.9656    135.4696
   322.0000   2000.0000   2000.0000      8.9475    135.9195
   322.2500   2000.0000   2000.0000      8.8872    135.8021
   322.5000   2000.0000   2000.0000      8.7999    135.2372
   322.7500   2000.0000   2000.0000      8.6981    135.1100
   323.0000   2000.0000   2000.0000      8.5913    136.0373
   323.2500   2000.0000   2000.0000      8.4870    137.3247
   323.5000   2000.0000   2000.0000      8.3920    139.2189
   323.7500   2000.0000   2000.0000      8.3135    139.6721
   324.0000   2000.0000   2000.0000      8.2606    138.2883
   324.2500   2000.0000   2000.0000      8.2440    136.0962
   324.5000   2000.0000   2000.0000      8.2742    132.1385
   324.7500   2000.0000   2000.0000      8.3601    130.0009
   325.0000   2000.0000   2000.0000      8.5071    128.5215
   325.2500   2000.0000   2000.0000      8.7164    128.5544
   325.5000   2000.0000   2000.0000      8.9852    128.7519
   325.7500   2000.0000   2000.0000      9.3070    127.8017
   326.0000   2000.0000   2000.0000      9.6730    123.1498
   326.2500   2000.0000   2000.0000     10.0740    117.9298
   326.5000   2000.0000   2000.0000     10.5031    109.1412
   326.7500   2000.0000   2000.0000     10.9597    104.5888
   327.0000   2000.0000   2000.0000     11.4507    102.1907
   327.2500   2000.0000   2000.0000     11.9898    103.8035
   327.5000   2000.0000   2000.0000     12.5920    109.6572
   327.7500   2000.0000   2000.0000     13.2666    114.6140
   328.0000   2000.0000   2000.0000     14.0075    122.0184
   328.2500   2000.0000   2000.0000     14.7866    126.5721
   328.5000   2000.0000   2000.0000     15.5547    132.7990
   328.7500   2000.0000   2000.0000     16.2572    136.4280
   329.0000   2000.0000   2000.0000     16.8546    140.3988
   329.2500   2000.0000   2000.0000     17.3346    141.6589
   329.5000   2000.0000   2000.0000     17.7045    141.5840
   329.7500   2000.0000   2000.0000     17.9785    140.8170
   330.0000   2000.0000   2000.0000     18.1719    139.5735
   330.2500   2000.0000   2000.0000     18.3054    138.7241
   330.5000   2000.0000   2000.0000     18.4087    136.8275
   330.7500   2000.0000   2000.0000     18.5174    134.9579
   331.0000   2000.0000   2000.0000     18.6634    131.6999
   331.2500   2000.0000   2000.0000     18.8669    129.8333
   331.5000   2000.0000   2000.0000     19.1342    128.5962
   331.7500   2000.0000   2000.0000     19.4608    129.1320
   332.0000   2000.0000   2000.0000     19.8355    131.5261
   332.2500   2000.0000   2000.0000     20.2412    133.5639
   332.5000   2000.0000   2000.0000     20.6540    136.3758
   332.7500   2000.0000   2000.0000     21.0484    137.7527
   333.0000   2000.0000   2000.0000     21.4064    138.5168
   333.2500   2000.0000   2000.0000     21.7229    137.8593
   333.5000   2000.0000   2000.0000     22.0003    135.0823
   333.7500   2000.0000   2000.0000     22.2401    132.3932
   334.0000   2000.0000   2000.0000     22.4438    127.8598
   334.2500   2000.0000   2000.0000     22.6222    124.6463
   334.5000   2000.0000   2000.0000     22.8017    119.1650
   334.7500   2000.0000   2000.0000     23.0141    114.8998
   335.0000   2000.0000   2000.0000     23.2818    108.3305
   335.2500   2000.0000   2000.0000     23.6084    104.9191
   335.5000   2000.0000   2000.0000     23.9839    103.0504
   335.7500   2000.0000   2000.0000     24.3921    104.1444
   336.0000   2000.0000   2000.0000     24.8149    107.6521
   336.2500   2000.0000   2000.0000     25.2330    109.7729
   336.5000   2000.0000   2000.0000     25.6303    111.0964
   336.7500   2000.0000   2000.0000     26.0073    110.9499
   337.0000   2000.0000   2000.0000     26.3886    110.5963
   337.2500   2000.0000   2000.0000     26.8126    110.7627
   337.5000   2000.0000   2000.0000     27.3043    111.2360
   337.7500   2000.0000   2000.0000     27.8482    111.2205
   338.0000   2000.0000   2000.0000     28.3838    110.3674
   338.2500   2000.0000   2000.0000     28.8347    109.4288
   338.5000   2000.0000   2000.0000     29.1606    108.0561
   338.7500   2000.0000   2000.0000     29.3942    107.4102
   339.0000   2000.0000   2000.0000     29.6294    106.8444
   339.2500   2000.0000   2000.0000     29.9647    106.6334
   339.5000   2000.0000   2000.0000     30.4471    106.5080
   339.7500   2000.0000   2000.0000     31.0524    106.4841
   340.0000   2000.0000   2000.0000     31.7083    106.0043
   340.2500   2000.0000   2000.0000     32.3394    104.9380
