~Version Information
VERS.                      2.0: CWLS Log ASCII Standard - VERSION 2.0
WRAP.                       NO: One line per depth step
~Well Information Block
STRT.FT               420.0000: 
STOP.FT              2888.7000: 
STEP.FT                 0.1000: 
NULL.                -999.2500: 
COMP.          Pioneer Natural Resources: COMPANY
WELL.          Touchstone 11-32: WELL
FLD.           Purgatoire River: FIELD
LOC.           853' FNL & 407' FWL--: LOCATION
CNTY.               Las Animas: COUNTY
SRVC.                Patterson: SERVICE COMPANY
DATE.          Fri Feb 24 11:16:52 2006: LOG DATE
UWI.           05 071 08564 00: UNIQUE WELL ID
STAT.                 Colorado: STATE
~Curve Information Block
DEPT.FT            0 000 00 00: Depth
DCAL.in                       : CDL Caliper
RHOB.g/cc                     : CDL Bulk Density
RHOC.g/cc                     : CDL Density Correction
DPOR.pu                       : CDL Density Porosity
NPOR.pu                       : Neutron Porosity
GR.GAPI                       : Gamma Ray
~Parameter Information Block
~A  Depth       DCAL        RHOB        RHOC        DPOR        NPOR         GR     
# ...
  2042.4000      7.9377      2.5176      0.0673      8.0248     18.6945     58.2279
  2042.5000      7.9375      2.5085      0.0387      8.5773     18.6109     59.1909
  2042.6000      7.9375      2.5053      0.0628      8.7685     18.7199     59.8933
  2042.7000      7.9375      2.5082      0.0487      8.5932     19.2150     60.0828
  2042.8000      7.9352      2.5049      0.1043      8.7935     19.4613     60.2777
  2042.9000      7.9352      2.4957      0.0070      9.3523     19.2446     59.6101
  2043.0000      7.9336      2.4979      0.0527      9.2186     19.1667     56.7951
  2043.1000      7.9336      2.5055      0.0836      8.7586     19.3850     52.8293
  2043.2000      7.9336      2.5022      0.0623      8.9559     19.3440     50.4171
  2043.3000      7.9326      2.4933      0.0366      9.4990     19.0770     50.9576
  2043.4000      7.9326      2.4840      0.0935     10.0601     19.3352     52.6272
  2043.5000      7.9328      2.4762      0.0087     10.5355     19.7903     54.3793
  2043.6000      7.9328      2.4812      0.0131     10.2325     19.4260     55.2425
  2043.7000      7.9328      2.4949      0.0574      9.3997     18.5088     53.8265
  2043.8000      7.9342      2.4986      0.0615      9.1744     17.8813     51.2998
  2043.9000      7.9342      2.4917      0.0146      9.5914     17.8819     51.2157
  2044.0000      7.9337      2.4904      0.0635      9.6729     18.3630     52.6404
  2044.1000      7.9337      2.5005      0.0590      9.0600     18.8501     51.3732
  2044.2000      7.9337      2.5090      0.0788      8.5428     18.8599     48.4586
  2044.3000      7.9318      2.5036      0.0731      8.8721     18.4688     48.0511
  2044.4000      7.9318      2.4916      0.0339      9.6008     18.2247     50.5592
  2044.5000      7.9313      2.4807      0.0462     10.2582     18.4845     51.9307
  2044.6000      7.9313      2.4688      0.0254     10.9826     19.0831     49.3119
  2044.7000      7.9313      2.4641     -0.0117     11.2696     19.3726     44.7537
  2044.8000      7.9320      2.4715      0.0664     10.8181     19.2767     40.6928
  2044.9000      7.9320      2.4769      0.0694     10.4938     19.3349     37.9794
  2045.0000      7.9341      2.4698      0.0488     10.9234     19.7502     37.9593
  2045.1000      7.9341      2.4595      0.0117     11.5446     20.2243     41.4592
  2045.2000      7.9341      2.4606      0.0328     11.4810     20.3671     47.0779
  2045.3000      7.9375      2.4721      0.0678     10.7816     20.1930     52.5512
  2045.4000      7.9375      2.4814      0.0908     10.2165     20.0556     55.2775
  2045.5000      7.9386      2.4857      0.0451      9.9557     20.1915     53.9281
  2045.6000      7.9386      2.4943      0.0416      9.4345     20.4646     52.1386
  2045.7000      7.9386      2.5049      0.0583      8.7970     20.6720     54.5434
  2045.8000      7.9370      2.5074      0.0380      8.6421     20.9323     57.6564
  2045.9000      7.9370      2.5014      0.0571      9.0045     21.4930     56.6052
  2046.0000      7.9369      2.4897      0.0537      9.7128     21.9482     52.9039
  2046.1000      7.9369      2.4831     -0.0151     10.1179     21.6085     49.0178
  2046.2000      7.9369      2.4934      0.0443      9.4891     20.9490     48.6527
  2046.3000      7.9373      2.5135      0.0502      8.2741     20.8097     51.4719
  2046.4000      7.9373      2.5266      0.0801      7.4759     20.9753     51.2309
  2046.5000      7.9352      2.5241      0.0811      7.6305     20.8459     46.8846
  2046.6000      7.9352      2.5147      0.0195      8.2015     20.2938     43.9585
  2046.7000      7.9352      2.5188      0.0209      7.9514     19.7505     44.1030
  2046.8000      7.9332      2.5334      0.0794      7.0678     19.7122     44.4795
  2046.9000      7.9332      2.5371      0.0720      6.8418     20.0230     44.6252
  2047.0000      7.9329      2.5289      0.0467      7.3395     20.3533     44.0598
  2047.1000      7.9329      2.5169      0.0716      8.0652     20.7489     42.0642
  2047.2000      7.9329      2.5037      0.0486      8.8675     20.9655     43.0892
  2047.3000      7.9324      2.4964      0.0622      9.3118     20.3819     48.7935
  2047.4000      7.9324      2.5011      0.0399      9.0225     19.1767     54.1792
  2047.5000      7.9315      2.5144      0.0524      8.2155     18.1625     56.5613
  2047.6000      7.9315      2.5238      0.0626      7.6498     17.5677     56.9342
  2047.7000      7.9315      2.5184      0.0950      7.9779     17.3563     55.8309
  2047.8000      7.9298      2.5060      0.0146      8.7256     17.6668     53.6951
  2047.9000      7.9298      2.5027      0.0332      8.9259     18.1060     50.9559
  2048.0000      7.9275      2.4987      0.0523      9.1694     18.2152     47.7947
  2048.1000      7.9275      2.4810      0.0276     10.2418     18.3459     44.9972
  2048.2000      7.9275      2.4710     -0.0048     10.8494     18.6626     43.9726
  2048.3000      7.9250      2.4956      0.0167      9.3586     18.2759     44.6937
  2048.4000      7.9250      2.5368      0.0682      6.8622     17.3277     46.4772
  2048.5000      7.9243      2.5507      0.0806      6.0168     17.1441     49.7434
  2048.6000      7.9243      2.5302      0.0474      7.2597     17.6522     52.5049
  2048.7000      7.9243      2.5053      0.0356      8.7686     17.9286     52.4583
  2048.8000      7.9244      2.4978      0.0323      9.2245     18.0524     51.3770
  2048.9000      7.9244      2.5120     -0.0031      8.3658     18.2739     51.9634
  2049.0000      7.9246      2.5405      0.0375      6.6337     18.3798     54.1178
  2049.1000      7.9246      2.5669      0.0623      5.0359     18.1488     56.7506
  2049.2000      7.9246      2.5842      0.0838      3.9899     17.6128     58.9116
  2049.3000      7.9263      2.6022      0.0247      2.8941     17.3490     59.2165
  2049.4000      7.9263      2.6289      0.0719      1.2814     17.8137     57.4955
  2049.5000      7.9282      2.6532      0.0902     -0.1920     18.7979     58.0257
  2049.6000      7.9282      2.6627      0.0625     -0.7686     19.9916     64.1252
  2049.7000      7.9282      2.6506      0.0865     -0.0347     21.4734     70.6776
  2049.8000      7.9309      2.6206      0.0710      1.7815     23.3210     75.6110
  2049.9000      7.9309      2.5973      0.0356      3.1964     25.0280     83.1960
  2050.0000      7.9343      2.5934      0.0446      3.4333     25.9901     91.4281
  2050.1000      7.9343      2.5895      0.0374      3.6641     26.1382     97.0969
  2050.2000      7.9343      2.5698     -0.0132      4.8613     25.6548    105.3477
  2050.3000      7.9381      2.5425     -0.0071      6.5131     25.2445    121.3818
  2050.4000      7.9381      2.5259     -0.0091      7.5211     25.8050    140.9158
  2050.5000      7.9459      2.5222      0.0374      7.7467     27.2280    149.4977
  2050.6000      7.9459      2.5176      0.0534      8.0252     28.3538    141.7076
  2050.7000      7.9459      2.5142      0.0006      8.2283     28.1474    131.2373
  2050.8000      7.9528      2.5249      0.0722      7.5801     26.8515    128.7231
  2050.9000      7.9528      2.5453      0.0967      6.3477     25.7134    131.7860
  2051.0000      7.9529      2.5674      0.0808      5.0071     25.4719    138.6942
  2051.1000      7.9529      2.5842      0.1056      3.9894     25.6442    149.0217
  2051.2000      7.9529      2.5806      0.1071      4.2073     25.5542    156.6084
  2051.3000      7.9525      2.5542      0.0488      5.8055     25.6499    155.0857
  2051.4000      7.9525      2.5258     -0.0014      7.5298     26.3809    147.8151
  2051.5000      7.9538      2.5176     -0.0095      8.0233     26.9512    143.8233
  2051.6000      7.9538      2.5339      0.0193      7.0364     26.6916    144.3298
  2051.7000      7.9538      2.5561      0.1031      5.6931     25.9106    144.3497
  2051.8000      7.9539      2.5578      0.0660      5.5885     25.4740    143.1344
  2051.9000      7.9539      2.5396      0.0330      6.6938     25.8816    140.8363
