~Version Information
VERS.                      2.0: CWLS Log ASCII Standard - VERSION 2.0
WRAP.                       NO: One line per depth step
~Well Information Block
STRT.FT               240.0000: 
STOP.FT               713.7500: 
STEP.FT                 0.2500: 
NULL.                -999.2500: 
COMP.          Pioneer Natural Resources: COMPANY
WELL.           Belvedere 14-7: WELL
FLD.           Purgatorie River: FIELD
LOC.           786' FSL & 1283' FWL: LOCATION
PROV.                 Colorado: PROVINCE
CNTY.               Las Animas: COUNTRY
SRVC.                Patterson: SERVICE COMPANY
DATE.          Sun Nov 27 03:38:28 2005: LOG DATE
UWI.           05-071-08557               : UNIQUE WELL ID
~Curve Information Block
DEPT.FT            0 000 00 00: Depth
DIR.Ohm-m                     : IEL Induction Resistivity
GR.GAPI                       : Gamma Ray
~Parameter Information Block
~A  Depth       DIR          GR     
# ...
   518.7500     36.7829     81.1738
   519.0000     37.3814     81.2035
   519.2500     37.9533     80.0184
   519.5000     38.4773     76.7807
   519.7500     38.9437     74.1462
   520.0000     39.3480     69.8683
   520.2500     39.6757     66.6716
   520.5000     39.8871     61.5182
   520.7500     39.9161     58.5390
   521.0000     39.6911     56.0781
   521.2500     39.1708     55.8513
   521.5000     38.3753     56.5744
   521.7500     37.3874     57.0710
   522.0000     36.3243     57.0890
   522.2500     35.2974     56.3545
   522.5000     34.3826     54.1236
   522.7500     33.6106     52.3521
   523.0000     32.9701     50.7468
   523.2500     32.4161     51.1969
   523.5000     31.8793     54.7357
   523.7500     31.2800     58.8121
   524.0000     30.5522     66.6712
   524.2500     29.6678     72.5101
   524.5000     28.6466     81.1171
   524.7500     27.5456     86.0804
   525.0000     26.4392     91.4072
   525.2500     25.4021     93.3181
   525.5000     24.4988     93.7053
   525.7500     23.7750     92.2693
   526.0000     23.2509     87.6182
   526.2500     22.9189     83.3780
   526.5000     22.7451     77.5438
   526.7500     22.6769     75.7569
   527.0000     22.6558     78.2205
   527.2500     22.6299     82.9261
   527.5000     22.5620     91.4806
   527.7500     22.4323     96.0704
   528.0000     22.2383     99.3307
   528.2500     21.9988     99.2444
   528.5000     21.7535     97.1293
   528.7500     21.5554     95.0523
   529.0000     21.4529     91.3967
   529.2500     21.4728     88.9649
   529.5000     21.6126     86.7273
   529.7500     21.8456     86.9887
   530.0000     22.1330     89.8794
   530.2500     22.4377     92.2607
   530.5000     22.7303     93.8784
   530.7500     22.9888     92.9174
   531.0000     23.1966     89.4358
   531.2500     23.3460     87.1973
   531.5000     23.4434     86.2938
   531.7500     23.5101     87.9635
   532.0000     23.5742     93.2368
   532.2500     23.6598     97.3837
   532.5000     23.7805    102.1504
   532.7500     23.9390    103.5843
   533.0000     24.1293    103.7430
   533.2500     24.3411    103.6183
   533.5000     24.5660    104.2354
   533.7500     24.8036    104.8203
   534.0000     25.0621    104.5953
   534.2500     25.3518    103.3037
   534.5000     25.6749     99.7360
   534.7500     26.0208     96.4236
   535.0000     26.3667     90.5162
   535.2500     26.6831     86.6561
   535.5000     26.9389     82.8939
   535.7500     27.1093     82.6479
   536.0000     27.1866     85.5359
   536.2500     27.1856     88.4920
   536.5000     27.1395     91.9767
   536.7500     27.0864     92.7288
   537.0000     27.0587     91.3961
   537.2500     27.0788     89.3992
   537.5000     27.1582     85.7477
   537.7500     27.2946     83.3302
   538.0000     27.4682     80.5618
   538.2500     27.6472     79.8237
   538.5000     27.8021     80.7749
   538.7500     27.9214     82.3942
   539.0000     28.0150     84.8729
   539.2500     28.1047     85.8755
   539.5000     28.2107     86.1752
   539.7500     28.3439     85.6981
   540.0000     28.5044     83.8979
   540.2500     28.6830     82.0258
   540.5000     28.8645     79.3399
   540.7500     29.0324     78.6461
   541.0000     29.1742     79.9354
   541.2500     29.2823     81.6823
   541.5000     29.3548     83.6851
   541.7500     29.3980     83.8980
   542.0000     29.4297     82.7717
   542.2500     29.4789     81.7926
   542.5000     29.5759     81.2781
   542.7500     29.7402     81.9002
   543.0000     29.9734     83.8672
   543.2500     30.2607     85.2576
   543.5000     30.5808     86.3467
   543.7500     30.9151     85.9644
   544.0000     31.2525     83.7316
   544.2500     31.5875     81.7005
   544.5000     31.9122     79.2988
   544.7500     32.2117     78.5929
   545.0000     32.4650     78.1559
   545.2500     32.6528     77.3780
   545.5000     32.7643     74.8679
   545.7500     32.7971     72.8885
   546.0000     32.7522     71.1020
   546.2500     32.6320     71.2369
   546.5000     32.4477     72.9560
   546.7500     32.2298     74.2149
   547.0000     32.0295     74.8777
   547.2500     31.9091     74.4151
   547.5000     31.9260     73.3474
   547.7500     32.1171     72.9485
   548.0000     32.4845     72.9417
   548.2500     32.9864     73.0242
   548.5000     33.5410     72.5972
   548.7500     34.0523     71.7365
   549.0000     34.4496     70.0104
   549.2500     34.7215     69.0837
   549.5000     34.9265     68.1207
   549.7500     35.1769     67.1216
   550.0000     35.6093     63.9175
   550.2500     36.3536     60.5221
   550.5000     37.5075     54.2002
   550.7500     39.1169     49.8291
   551.0000     41.1586     44.5571
   551.2500     43.5206     42.7300
   551.5000     45.9863     42.8869
   551.7500     48.2520     44.3165
   552.0000     50.0011     46.6453
   552.2500     51.0059     47.3773
   552.5000     51.1706     46.5622
   552.7500     50.4898     45.0048
   553.0000     49.0031     42.2278
   553.2500     46.8155     40.4937
   553.5000     44.1348     37.7185
   553.7500     41.2378     35.2035
   554.0000     38.3776     30.1285
   554.2500     35.7150     26.4571
   554.5000     33.3179     22.4388
   554.7500     31.2024     21.8947
   555.0000     29.3699     25.4702
   555.2500     27.8169     30.8217
   555.5000     26.5251     42.2653
   555.7500     25.4561     51.1755
   556.0000     24.5596     64.8549
   556.2500     23.7889     73.5418
   556.5000     23.1116     85.0996
   556.7500     22.5103     91.3170
   557.0000     21.9781     97.6537
   557.2500     21.5135     99.7188
   557.5000     21.1152     99.9895
   557.7500     20.7821     98.9381
   558.0000     20.5158     96.9440
   558.2500     20.3250     95.9266
   558.5000     20.2256     94.9608
   558.7500     20.2366     94.4289
   559.0000     20.3760     93.4867
   559.2500     20.6572     92.7524
   559.5000     21.0869     91.4952
   559.7500     21.6614     90.5888
   560.0000     22.3617     89.6946
   560.2500     23.1493     90.0252
   560.5000     23.9671     92.4386
   560.7500     24.7487     94.7394
   561.0000     25.4338     97.0317
   561.2500     25.9829     96.6426
   561.5000     26.3864     92.4373
   561.7500     26.6662     87.2606
   562.0000     26.8693     76.1988
   562.2500     27.0508     67.1300
   562.5000     27.2513     53.1589
   562.7500     27.4768     45.3204
   563.0000     27.6959     37.9611
   563.2500     27.8507     36.3084
   563.5000     27.8752     37.9915
   563.7500     27.7099     41.3196
   564.0000     27.3119     49.1650
   564.2500     26.6604     56.2905
   564.5000     25.7627     69.4055
   564.7500     24.6577     78.8959
   565.0000     23.4129     91.8185
   565.2500     22.1103     98.2295
   565.5000     20.8264    103.7865
   565.7500     19.6169    105.4020
   566.0000     18.5119    106.2566
   566.2500     17.5225    106.1710
   566.5000     16.6489    104.8651
   566.7500     15.8871    103.2561
   567.0000     15.2325    100.6365
   567.2500     14.6807     99.3822
   567.5000     14.2268     98.8292
   567.7500     13.8646     99.5126
   568.0000     13.5872    102.5010
   568.2500     13.3877    105.8770
   568.5000     13.2613    112.1417
   568.7500     13.2064    116.0685
   569.0000     13.2243    120.0417
   569.2500     13.3166    121.2002
   569.5000     13.4824    121.4070
   569.7500     13.7169    121.1406
   570.0000     14.0127    120.9659
   570.2500     14.3636    121.1391
   570.5000     14.7659    121.0643
   570.7500     15.2189    119.7486
   571.0000     15.7233    114.1675
   571.2500     16.2823    107.9217
   571.5000     16.9025     96.4007
   571.7500     17.5921     88.6391
   572.0000     18.3525     78.4070
   572.2500     19.1648     72.7696
   572.5000     19.9755     66.2360
   572.7500     20.6961     63.6321
   573.0000     21.2243     63.8501
   573.2500     21.4856     67.4701
   573.5000     21.4693     77.7295
   573.7500     21.2320     86.1579
   574.0000     20.8667     96.6242
   574.2500     20.4627     99.7867
