~Version Information
 VERS.                                  2.0 : CWLS LAS VERSION
 WRAP.                                   NO : WRAPING MODE
 SWARE .                 MController 2.5.0N : SOFTWARE VERSION
~Well Information
 WELL.                   Old Faithful 21-02 : WELL
 COMP.    Pioneer Natural Resouces USA Inc. : COMPANY
 FLD.                      Purgatoire River : FIELD
 LOC.              NE/NW Sec 2 , T35S, R65W : LOCATION
 DATE.                             12/06/05 : DATE(S) LOGGED
 SRVC.       BLANCO Geological Services LLC : SERVICE COMPANY
 STAT.                                   CO : STATE
 CNTY.                           Las Animas : COUNTY
 CTRY.                                  USA : COUNTRY
 API.                          05-071-08617 : API NUMBER
 STRT.FT                             182.00 : START DEPTH
 STOP.FT                            1470.00 : STOP DEPTH
 STEP.FT                               1.00 : DEPTH INCREMENT
 NULL.                                -9999 : NULL VALUE
~Curve information
 DEPTH.FT                                   :
 ROP.MIN/FT                                 :
 GAS.UNITS                                  :
~ASCII Log data
# ...
       582.0         0.28         13.5 
       583.0         0.27         14.5 
       584.0         0.27         15.6 
       585.0         0.27         16.8 
       586.0         0.27         16.9 
       587.0         0.27         15.9 
       588.0         0.37         73.5 
       589.0         0.27         90.5 
       590.0         0.27         73.8 
       591.0         7.07         78.3 
       592.0         0.47         23.5 
       593.0         0.42         31.6 
       594.0         0.43         22.4 
       595.0         0.47         16.2 
       596.0         0.53         14.0 
       597.0         0.40         15.8 
       598.0         0.33         21.0 
       599.0         0.33         27.4 
       600.0         0.33         19.1 
       601.0         0.35         15.9 
       602.0         0.33         15.7 
       603.0         0.33         15.7 
       604.0         0.33         16.9 
       605.0         0.37         17.0 
       606.0         0.33         18.0 
       607.0         0.37         17.4 
       608.0         0.33         17.5 
       609.0         0.33         17.0 
       610.0         0.27         16.8 
       611.0         0.27         17.7 
       612.0         0.28         15.3 
       613.0         0.27         20.1 
       614.0         0.30         22.6 
       615.0         0.17         24.7 
       616.0         0.20         24.9 
       617.0         0.20         25.5 
       618.0         0.33         26.9 
       619.0         0.67         18.5 
       620.0         0.17         17.2 
       621.0         3.32         74.8 
       622.0         0.77         29.4 
       623.0         0.65         31.8 
       624.0         0.40         17.3 
       625.0         0.43         13.3 
       626.0         0.33         13.4 
       627.0         0.30         13.7 
       628.0         0.33         13.4 
       629.0         0.33         14.7 
       630.0         0.27         16.2 
       631.0         0.30         16.0 
       632.0         0.25         14.4 
       633.0         0.40         19.7 
       634.0         0.37         34.6 
       635.0         0.30         33.5 
       636.0         0.30         24.5 
       637.0         0.30         18.8 
       638.0         0.27         15.6 
       639.0         0.23         14.3 
       640.0         0.23         13.3 
       641.0         0.33         14.5 
       642.0         0.30         15.5 
       643.0         0.35         16.4 
       644.0         0.23         16.8 
       645.0         0.30         17.6 
       646.0         0.27         15.0 
       647.0         0.27         15.1 
       648.0         0.53         15.9 
       649.0         0.57         19.6 
       650.0         0.13         15.4 
       651.0         1.92         20.4 
       652.0         0.90         77.0 
       653.0         0.23         50.5 
       654.0         0.40         38.6 
       655.0         0.50         23.9 
       656.0         0.45         28.8 
       657.0         0.43         20.5 
       658.0         0.33         16.8 
       659.0         0.33         14.6 
       660.0         0.30         14.3 
       661.0         0.17         14.7 
       662.0         0.20         13.7 
       663.0         0.17         14.9 
       664.0         0.20         17.4 
       665.0         0.37         20.7 
       666.0         0.27         27.5 
       667.0         0.33         35.8 
       668.0         0.28         30.6 
       669.0         0.33         21.8 
       670.0         0.23         21.3 
       671.0         0.27         18.7 
       672.0         0.20         16.7 
       673.0         0.23         15.9 
       674.0         0.30         16.3 
       675.0         0.53         20.0 
       676.0         0.37         20.5 
       677.0         0.33         17.6 
       678.0         0.38         16.1 
       679.0         0.27         17.2 
       680.0         0.27         17.2 
       681.0         6.27         86.4 
       682.0         0.30         15.2 
       683.0         0.30         15.4 
       684.0         0.30         14.0 
       685.0         0.27         13.6 
       686.0         0.30         15.0 
       687.0         0.33         16.1 
       688.0         0.30         15.8 
       689.0         0.30         15.8 
       690.0         0.30         14.5 
       691.0         0.33         14.2 
       692.0         0.28         15.0 
       693.0         0.27         14.1 
       694.0         0.23         13.7 
       695.0         0.27         15.5 
       696.0         0.27         16.1 
       697.0         0.20         16.1 
       698.0         0.20         15.9 
       699.0         0.23         15.5 
       700.0         0.30         16.8 
       701.0         0.27         20.1 
       702.0         0.40         22.4 
       703.0         0.33         23.7 
       704.0         0.28         21.1 
       705.0         0.57         17.1 
       706.0         0.57         22.9 
       707.0         0.53         21.6 
       708.0         0.67         18.6 
       709.0         0.30         36.6 
       710.0         0.88         28.5 
       711.0         3.78         78.1 
       712.0         0.43         28.5 
       713.0         0.30         26.5 
       714.0         0.30         27.8 
       715.0         0.27         24.5 
       716.0         0.27         20.3 
       717.0         0.27         17.4 
       718.0         0.27         16.8 
       719.0         0.40         20.5 
       720.0         0.35         23.0 
       721.0         0.33         20.5 
       722.0         0.33         17.6 
       723.0         0.33         18.2 
       724.0         0.37         16.6 
       725.0         0.33         15.7 
       726.0         0.33         15.3 
       727.0         0.40         15.4 
       728.0         0.47         16.2 
       729.0         0.52         15.8 
       730.0         0.47         16.0 
       731.0         0.53         15.9 
       732.0         0.57         17.6 
       733.0         0.57         17.8 
       734.0         0.50         17.6 
       735.0         0.65         18.3 
       736.0         0.40         16.6 
       737.0         0.60         16.2 
       738.0         0.57         17.4 
       739.0         0.10         15.8 
       740.0         0.27         17.5 
       741.0         3.52         96.8 
       742.0         0.73         19.0 
       743.0         0.72         26.1 
       744.0         0.60         18.2 
       745.0         0.53         16.3 
       746.0         0.37         15.5 
       747.0         0.33         16.1 
       748.0         0.23         16.4 
       749.0         0.23         15.5 
       750.0         0.27         14.6 
       751.0         0.27         16.8 
       752.0         0.32         18.3 
       753.0         0.27         17.6 
       754.0         0.33         17.3 
       755.0         0.30         17.0 
       756.0         0.33         16.5 
       757.0         0.30         15.2 
       758.0         0.33         15.9 
       759.0         0.33         15.4 
       760.0         0.30         14.9 
       761.0         0.33         15.8 
       762.0         0.33         17.1 
       763.0         0.32         16.5 
       764.0         0.33         15.1 
       765.0         0.30         15.5 
       766.0         0.33         15.0 
       767.0         0.33         15.1 
       768.0         0.33         15.2 
       769.0         0.37         14.8 
       770.0         0.53         14.8 
       771.0         4.23         90.3 
       772.0         0.70         23.7 
       773.0         0.50         23.1 
       774.0         0.40         21.9 
       775.0         0.40         18.9 
       776.0         0.40         17.2 
       777.0         0.40         16.2 
       778.0         0.38         16.7 
       779.0         0.43         16.8 
       780.0         0.40         20.0 
       781.0         0.43         18.5 
