~Version Information
VERS.                      2.0: CWLS Log ASCII Standard - VERSION 2.0
WRAP.                       NO: One line per depth step
~Well Information Block
STRT.FT               550.0000: 
STOP.FT              1979.0000: 
STEP.FT                 0.1000: 
NULL.                -999.2500: 
COMP.          Pioneer Natural Resources: COMPANY
WELL.          Flying Horse 12-11 Tr: WELL
FLD.           Purgatoire River: FIELD
LOC.           2459' FNL & 410' FWL: LOCATION
STAT.                 Colorado: PROVINCE
CNTY.               Las Animas: COUNTY
CTRY. USA : Country
SECT. 11 : Section
TOWN. 32S : Township
RANG. 66W : Range
SRVC.                Patterson: SERVICE COMPANY
DATE.          Tue Sep 06 07:09:24 2005: LOG DATE
API.           05 071 08485 00: UNIQUE WELL ID
~Curve Information Block
DEPT.FT            0 000 00 00: Depth
DCAL.in                       : CDL Caliper
RHOB.g/cc                     : CDL Bulk Density
RHOC.g/cc                     : CDL Density Correction
DPOR.pu                       : CDL Density Porosity
GR.GAPI                       : Gamma Ray
NPOR.pu                       : Neutron Porosity
~Parameter Information Block
~A  Depth       DCAL        RHOB        RHOC        DPOR         GR         NPOR    
# ...
   828.4000      8.1564      2.5847      0.1282      3.9563    133.6888     24.3588
   828.5000      8.1598      2.5470      0.0365      6.2410    129.2165     24.3124
   828.6000      8.1598      2.5222      0.0746      7.7458    124.8745     24.2339
   828.7000      8.1598      2.5068      0.0217      8.6810    116.8365     24.4450
   828.8000      8.1712      2.4930     -0.0059      9.5122    113.0388     24.9391
   828.9000      8.1712      2.4841      0.0526     10.0547    119.1194     25.1276
   829.0000      8.1745      2.4757      0.0591     10.5626    127.4772     25.0305
   829.1000      8.1745      2.4724     -0.0231     10.7634    130.1692     25.1251
   829.2000      8.1745      2.4869      0.0196      9.8840    128.3533     25.2876
   829.3000      8.2196      2.5136      0.0620      8.2667    127.5770     25.3615
   829.4000      8.2196      2.5373      0.0366      6.8323    129.3732     25.4475
   829.5000      8.2438      2.5438      0.0657      6.4352    131.6744     25.4152
   829.6000      8.2438      2.5278      0.0172      7.4056    134.6034     25.0470
   829.7000      8.2438      2.5060     -0.0082      8.7300    137.6277     24.6388
   829.8000      8.2662      2.4987     -0.0300      9.1672    137.6291     24.7304
   829.9000      8.2662      2.5076      0.0549      8.6281    133.3866     25.3667
   830.0000      8.2643      2.5273      0.0197      7.4389    126.8981     26.0000
   830.1000      8.2643      2.5519      0.0663      5.9475    122.7492     25.9770
   830.2000      8.2643      2.5624      0.0770      5.3101    125.3551     25.5206
   830.3000      8.2510      2.5538      0.0420      5.8314    132.6798     25.3460
   830.4000      8.2510      2.5455      0.0651      6.3336    134.8018     25.4157
   830.5000      8.2534      2.5470      0.0319      6.2407    129.0775     25.3238
   830.6000      8.2534      2.5521      0.0377      5.9358    127.0014     25.0953
   830.7000      8.2534      2.5472      0.0795      6.2325    134.6371     24.9900
   830.8000      8.2542      2.5237      0.0351      7.6561    144.1448     24.9428
   830.9000      8.2542      2.4928      0.0465      9.5244    148.4216     24.5801
   831.0000      8.2768      2.4765      0.0035     10.5174    147.4427     23.9261
   831.1000      8.2768      2.4803      0.0113     10.2834    146.0382     23.4474
   831.2000      8.2768      2.4858      0.0376      9.9493    148.5777     23.5652
   831.3000      8.2905      2.4743      0.0573     10.6492    152.4117     24.2073
   831.4000      8.2905      2.4502      0.0274     12.1088    151.7377     24.7832
   831.5000      8.3237      2.4345      0.0050     13.0624    148.5769     24.9028
   831.6000      8.3237      2.4304      0.0600     13.3096    148.3708     24.7029
   831.7000      8.3237      2.4248      0.0455     13.6498    147.8207     24.5525
   831.8000      8.3455      2.4169      0.0556     14.1272    142.8008     24.4303
   831.9000      8.3455      2.4127      0.0326     14.3844    137.0208     24.0860
   832.0000      8.3785      2.4208      0.0426     13.8927    135.5032     23.9406
   832.1000      8.3785      2.4469      0.0498     12.3075    138.7499     24.4913
   832.2000      8.3785      2.4799      0.0822     10.3082    144.0213     25.3513
   832.3000      8.3685      2.5088      0.0579      8.5586    147.1221     26.0574
   832.4000      8.3685      2.5347      0.1321      6.9856    144.3855     26.6313
   832.5000      8.3666      2.5604      0.1543      5.4308    138.3837     26.9081
   832.6000      8.3666      2.5868      0.1912      3.8307    140.2927     26.8672
   832.7000      8.3666      2.6050      0.1948      2.7286    151.8787     27.0413
   832.8000      8.3441      2.5979      0.1364      3.1595    156.1638     27.6277
   832.9000      8.3441      2.5622      0.1008      5.3185    146.2555     28.3270
   833.0000      8.3453      2.5171      0.0254      8.0519    134.8007     28.7804
   833.1000      8.3453      2.4865      0.0148      9.9092    130.3482     28.5662
   833.2000      8.3453      2.4778      0.0119     10.4386    131.1511     27.7285
   833.3000      8.3377      2.4885     -0.0422      9.7908    130.4849     26.7930
   833.4000      8.3377      2.5139     -0.0067      8.2491    123.6173     26.1667
   833.5000      8.2597      2.5352      0.0343      6.9582    116.1809     25.9366
   833.6000      8.2597      2.5352      0.0221      6.9593    116.6165     25.8660
   833.7000      8.2597      2.5149      0.0732      8.1851    121.4190     25.7291
   833.8000      8.1874      2.4917      0.0252      9.5943    118.9604     25.4800
   833.9000      8.1874      2.4947     -0.0278      9.4144    105.9615     25.0713
   834.0000      8.1362      2.5246      0.1055      7.5987     91.7111     24.5250
   834.1000      8.1362      2.5547      0.0445      5.7768     82.7678     24.0958
   834.2000      8.1362      2.5837      0.0611      4.0192     78.6874     23.8754
   834.3000      8.0617      2.6181      0.0991      1.9324     79.7573     23.5642
   834.4000      8.0617      2.6423      0.2164      0.4645     83.6970     23.0754
   834.5000      8.0461      2.6329      0.2261      1.0375     88.7553     22.5807
   834.6000      8.0461      2.5821      0.1786      4.1133     98.2684     22.2108
   834.7000      8.0461      2.5181      0.0621      7.9950    111.1526     22.0517
   834.8000      8.0026      2.4770      0.0282     10.4871    119.0865     22.0617
   834.9000      8.0026      2.4621      0.0022     11.3904    117.9478     22.1761
   835.0000      7.9942      2.4681     -0.0711     11.0218    113.6454     22.3320
   835.1000      7.9942      2.4919      0.0366      9.5836    111.5206     22.2561
   835.2000      7.9942      2.5109      0.1094      8.4285    110.5473     21.8774
   835.3000      8.0671      2.5223      0.0663      7.7391    108.6575     21.7088
   835.4000      8.0671      2.5447      0.1488      6.3838    107.8950     22.0145
   835.5000      8.1062      2.5729      0.1360      4.6726    113.4804     22.4526
   835.6000      8.1062      2.5939      0.1247      3.4022    126.4306     22.7340
   835.7000      8.1062      2.6026      0.1441      2.8708    137.9847     22.8839
   835.8000      8.0794      2.5918      0.1278      3.5261    140.9163     23.0377
   835.9000      8.0794      2.5625      0.0829      5.3058    139.9628     23.2336
   836.0000      8.0978      2.5328      0.0373      7.1030    136.0068     23.3428
   836.1000      8.0978      2.5136      0.0786      8.2682    123.9559     23.4189
   836.2000      8.0978      2.4964      0.0696      9.3102    112.1456     23.6020
   836.3000      8.1146      2.4845      0.0127     10.0274    110.8727     23.8215
   836.4000      8.1146      2.4924      0.0650      9.5520    116.2889     24.0194
   836.5000      8.1172      2.5069      0.0859      8.6731    122.7253     24.0967
   836.6000      8.1172      2.5022      0.0609      8.9557    127.8507     23.9183
   836.7000      8.1172      2.4794      0.0392     10.3391    129.2152     23.6188
   836.8000      8.1333      2.4611      0.0075     11.4509    129.4318     23.4343
   836.9000      8.1333      2.4640      0.0713     11.2737    130.4002     23.2583
   837.0000      8.1387      2.4860      0.0167      9.9406    127.1773     22.9603
   837.1000      8.1387      2.5115      0.0819      8.3909    119.1266     22.6888
   837.2000      8.1387      2.5160      0.1295      8.1201    115.0649     22.6438
   837.3000      8.1452      2.4883      0.1008      9.8008    119.3676     22.8971
   837.4000      8.1452      2.4522      0.0508     11.9907    125.9607     23.3557
   837.5000      8.1461      2.4396      0.0453     12.7493    129.1061     23.7628
   837.6000      8.1461      2.4592      0.0609     11.5608    131.1788     24.1220
   837.7000      8.1461      2.4972      0.1266      9.2583    134.3749     24.5639
   837.8000      8.1660      2.5319      0.1637      7.1578    135.7543     24.8907
   837.9000      8.1660      2.5541      0.1486      5.8092    136.7507     25.2610
