~Version Information
VERS.                      2.0: CWLS Log ASCII Standard - VERSION 2.0
WRAP.                       NO: One line per depth step
~Well Information Block
STRT.FT               420.0000: 
STOP.FT              2888.7000: 
STEP.FT                 0.1000: 
NULL.                -999.2500: 
COMP.          Pioneer Natural Resources: COMPANY
WELL.          Touchstone 11-32: WELL
FLD.           Purgatoire River: FIELD
LOC.           853' FNL & 407' FWL--: LOCATION
CNTY.               Las Animas: COUNTY
SRVC.                Patterson: SERVICE COMPANY
DATE.          Fri Feb 24 11:16:52 2006: LOG DATE
UWI.           05 071 08564 00: UNIQUE WELL ID
STAT.                 Colorado: STATE
~Curve Information Block
DEPT.FT            0 000 00 00: Depth
DCAL.in                       : CDL Caliper
RHOB.g/cc                     : CDL Bulk Density
RHOC.g/cc                     : CDL Density Correction
DPOR.pu                       : CDL Density Porosity
NPOR.pu                       : Neutron Porosity
GR.GAPI                       : Gamma Ray
~Parameter Information Block
~A  Depth       DCAL        RHOB        RHOC        DPOR        NPOR         GR     
# ...
  1072.8000      8.0327      2.5598     -0.0134      5.4692     19.6759     57.4752
  1072.9000      8.0327      2.5810      0.0660      4.1803     19.5868     61.5920
  1073.0000      8.0354      2.5885      0.0749      3.7257     19.6522     66.1176
  1073.1000      8.0354      2.5803      0.0159      4.2239     19.7314     71.1092
  1073.2000      8.0354      2.5812      0.0389      4.1686     19.6961     75.1481
  1073.3000      8.0389      2.6003      0.0254      3.0122     19.8994     74.9493
  1073.4000      8.0389      2.6228      0.0577      1.6487     20.6390     70.0006
  1073.5000      8.0413      2.6349      0.0534      0.9143     21.5628     63.3544
  1073.6000      8.0413      2.6333      0.0175      1.0115     22.3047     58.0870
  1073.7000      8.0413      2.6164      0.0388      2.0352     23.1231     56.4727
  1073.8000      8.0422      2.5950     -0.0104      3.3329     24.2611     59.2592
  1073.9000      8.0422      2.5855      0.0242      3.9102     25.3327     63.0325
  1074.0000      8.0451      2.5846      0.0086      3.9638     25.9154     65.0743
  1074.1000      8.0451      2.5862      0.0526      3.8663     26.2099     66.2097
  1074.2000      8.0451      2.5890      0.0700      3.6968     26.6224     66.1422
  1074.3000      8.0598      2.5913      0.0559      3.5588     27.0856     64.4138
  1074.4000      8.0598      2.5954      0.0213      3.3117     27.5391     64.4171
  1074.5000      8.0853      2.5935      0.0564      3.4257     28.0480     68.9283
  1074.6000      8.0853      2.5791      0.0088      4.2981     28.2179     75.5661
  1074.7000      8.0853      2.5658     -0.0142      5.1012     27.9463     82.3891
  1074.8000      8.1052      2.5585      0.0435      5.5484     27.6948     89.6565
  1074.9000      8.1052      2.5495      0.0157      6.0900     27.5095     97.1240
  1075.0000      8.1136      2.5447      0.0177      6.3794     27.0775    105.4709
  1075.1000      8.1136      2.5496      0.0157      6.0861     26.6894    113.2914
  1075.2000      8.1136      2.5550      0.0307      5.7550     26.7271    118.0105
  1075.3000      8.1147      2.5465      0.0444      6.2733     26.6457    119.1130
  1075.4000      8.1147      2.5139      0.0424      8.2471     25.8543    116.8649
  1075.5000      8.1123      2.4600     -0.0322     11.5152     24.8497    113.3261
  1075.6000      8.1123      2.3879      0.0099     15.8838     24.3499    112.8265
  1075.7000      8.1123      2.3038     -0.0742     20.9793     24.3562    116.1389
  1075.8000      8.1078      2.2366     -0.0879     25.0524     24.1826    119.0846
  1075.9000      8.1078      2.2021     -0.0778     27.1463     23.2706    117.3598
  1076.0000      8.1038      2.1883     -0.0683     27.9821     21.9166    109.6800
  1076.1000      8.1038      2.1920     -0.0641     27.7555     20.6746     99.1796
  1076.2000      8.1038      2.2247     -0.0165     25.7753     19.6565     90.9802
  1076.3000      8.0992      2.2822      0.0949     22.2917     18.6049     86.0545
  1076.4000      8.0992      2.3451      0.0846     18.4815     17.5428     83.1981
  1076.5000      8.0923      2.4188      0.1317     14.0111     16.8219     82.9281
  1076.6000      8.0923      2.5142      0.2351      8.2322     16.6138     83.5957
  1076.7000      8.0923      2.6005      0.3120      2.9981     17.0446     82.2594
  1076.8000      8.0869      2.6424      0.3117      0.4577     18.3002     81.9903
  1076.9000      8.0869      2.6568      0.2068     -0.4112     20.1975     85.3726
  1077.0000      8.0848      2.6758      0.2526     -1.5643     22.0959     88.4878
  1077.1000      8.0848      2.6901      0.2314     -2.4283     23.6765     90.1212
  1077.2000      8.0848      2.6778      0.1629     -1.6855     25.1265     93.2405
  1077.3000      8.0844      2.6487      0.0190      0.0791     26.5883     98.5905
  1077.4000      8.0844      2.6304     -0.0207      1.1869     27.8891    102.6143
  1077.5000      8.0864      2.6276      0.0457      1.3562     28.6926    102.7569
  1077.6000      8.0864      2.6285     -0.0189      1.3023     28.7916    103.0872
  1077.7000      8.0864      2.6299      0.0196      1.2178     28.2769    105.5517
  1077.8000      8.0930      2.6264      0.0423      1.4289     27.8655    106.6401
  1077.9000      8.0930      2.6163      0.0175      2.0443     28.1455    108.1422
  1078.0000      8.0980      2.6057      0.0275      2.6878     28.9689    112.2905
  1078.1000      8.0980      2.5974      0.0156      3.1882     29.9913    114.7930
  1078.2000      8.0980      2.5983     -0.0152      3.1308     31.0143    112.4521
  1078.3000      8.0983      2.6142      0.0494      2.1718     31.5854    109.6316
  1078.4000      8.0983      2.6363      0.0505      0.8285     31.1875    111.7650
  1078.5000      8.0986      2.6530      0.0684     -0.1833     30.1831    117.8427
  1078.6000      8.0986      2.6571      0.0657     -0.4293     29.3778    124.0103
  1078.7000      8.0986      2.6515      0.0523     -0.0897     29.0365    128.5010
  1078.8000      8.1026      2.6414      0.0537      0.5184     29.0401    130.2311
  1078.9000      8.1026      2.6260      0.0293      1.4548     29.2666    128.0174
  1079.0000      8.1071      2.6145      0.0110      2.1535     29.5753    126.2929
  1079.1000      8.1071      2.6187      0.0184      1.8999     29.4099    128.9210
  1079.2000      8.1071      2.6291      0.0562      1.2665     28.1298    133.3364
  1079.3000      8.1096      2.6309      0.0353      1.1554     26.3928    137.9153
  1079.4000      8.1096      2.6218      0.0203      1.7085     25.2619    142.1923
  1079.5000      8.1109      2.6019      0.0559      2.9175     24.8294    142.8698
  1079.6000      8.1109      2.5782     -0.0006      4.3514     24.9001    137.9802
  1079.7000      8.1109      2.5676      0.0262      4.9950     25.4273    132.5888
  1079.8000      8.1118      2.5645      0.0612      5.1820     26.1066    131.0233
  1079.9000      8.1118      2.5550      0.0215      5.7563     26.3907    129.8746
  1080.0000      8.1126      2.5464      0.0486      6.2764     26.3092    128.1177
  1080.1000      8.1126      2.5462      0.0106      6.2924     26.4274    130.2682
  1080.2000      8.1126      2.5537      0.0195      5.8378     27.0058    135.7026
  1080.3000      8.1127      2.5669      0.0502      5.0341     27.8778    139.4546
  1080.4000      8.1127      2.5811      0.0590      4.1749     28.7277    139.4866
  1080.5000      8.1124      2.5915      0.0659      3.5450     29.1115    139.8647
  1080.6000      8.1124      2.5978      0.0380      3.1663     28.7620    144.3908
  1080.7000      8.1124      2.6002      0.0461      3.0175     28.2978    148.6315
  1080.8000      8.1119      2.5910      0.0700      3.5751     28.6052    148.2059
  1080.9000      8.1119      2.5625      0.0267      5.3037     29.3342    143.7439
  1081.0000      8.1114      2.5329     -0.0243      7.0976     29.3739    136.5640
  1081.1000      8.1114      2.5324     -0.0005      7.1272     28.5275    129.3580
  1081.2000      8.1114      2.5562      0.0539      5.6869     27.4566    125.0181
  1081.3000      8.1115      2.5779      0.0493      4.3713     26.5569    122.4203
  1081.4000      8.1115      2.5892      0.0553      3.6824     25.8071    121.2159
  1081.5000      8.1123      2.5916      0.0366      3.5420     25.4739    120.8689
  1081.6000      8.1123      2.5867      0.0575      3.8387     25.5484    117.9408
  1081.7000      8.1123      2.5811      0.0323      4.1755     25.5701    115.3124
  1081.8000      8.1137      2.5791      0.0535      4.2945     25.7840    117.6745
  1081.9000      8.1137      2.5757      0.0265      4.5043     26.5340    119.4201
  1082.0000      8.1139      2.5630      0.0503      5.2724     27.3297    116.8272
  1082.1000      8.1139      2.5463      0.0108      6.2824     27.7460    115.4417
  1082.2000      8.1139      2.5510     -0.0263      6.0024     28.1968    117.5433
  1082.3000      8.1138      2.5777      0.0408      4.3820     29.0867    119.2837
