~Version Information
VERS.                      2.0: CWLS Log ASCII Standard - VERSION 2.0
WRAP.                       NO: One line per depth step
~Well Information Block
STRT.FT               620.0000: 
STOP.FT              3067.2500: 
STEP.FT                 0.2500: 
NULL.                -999.2500: 
COMP.          Pioneer Natural Resources: COMPANY
WELL.          Interceptor 43-13 Kv: WELL
FLD.           Purgatoire River: FIELD
LOC.           2073' FSL & 519' FEL--: LOCATION
PROV.                 Colorado: PROVINCE
CNTY.               Las Animas: COUNTRY
SRVC.                Patterson: SERVICE COMPANY
DATE.          Sat Jan 14 19:35:17 2006: LOG DATE
UWI.           05 071 08655 00: UNIQUE WELL ID
~Curve Information Block
DEPT.FT            0 000 00 00: Depth
SN.Ohm-m                      : IEL Short Normal
SP.mV                         : IEL Spontaneous Potential
DIR.Ohm-m                     : IEL Induction Resistivity
GR.GAPI                       : Gamma Ray
~Parameter Information Block
~A  Depth        SN          SP         DIR          GR     
# ...
  2228.0000     13.0887     22.3543      9.9094    142.2933
  2228.2500     13.3742     22.1504     10.0303    142.5851
  2228.5000     13.7319     21.8082     10.1977    142.2170
  2228.7500     14.1714     21.2950     10.4298    140.8646
  2229.0000     14.6887     20.5827     10.7434    136.3129
  2229.2500     15.2682     19.6540     11.1529    131.1979
  2229.5000     15.9064     18.5090     11.6709    120.0498
  2229.7500     16.6494     17.1709     12.3083    110.5792
  2230.0000     17.6137     15.6887     13.0744     95.3233
  2230.2500     18.9585     14.1364     13.9744     86.3674
  2230.5000     20.7971     12.6079     15.0047     77.5365
  2230.7500     23.0758     11.2081     16.1437     75.0259
  2231.0000     25.5047     10.0416     17.3381     74.4911
  2231.2500     27.6237      9.2018     18.4920     74.7895
  2231.5000     28.9985      8.7593     19.4730     74.9002
  2231.7500     29.4193      8.7537     20.1434     75.1291
  2232.0000     28.9634      9.1872     20.4069     77.5736
  2232.2500     27.9043     10.0230     20.2414     81.5111
  2232.5000     26.5568     11.1873     19.6996     90.8641
  2232.7500     25.1553     12.5776     18.8873     98.5697
  2233.0000     23.8118     14.0752     17.9341    110.7157
  2233.2500     22.5475     15.5622     16.9621    118.5318
  2233.5000     21.3575     16.9377     16.0622    128.7282
  2233.7500     20.2604     18.1304     15.2858    133.6256
  2234.0000     19.3069     19.1024     14.6527    136.7882
  2234.2500     18.5579     19.8451     14.1675    136.0825
  2234.5000     18.0585     20.3666     13.8325    132.5356
  2234.7500     17.8279     20.6772     13.6548    130.0064
  2235.0000     17.8634     20.7789     13.6448    127.4762
  2235.2500     18.1488     20.6618     13.8106    126.3127
  2235.5000     18.6566     20.3112     14.1529    123.7501
  2235.7500     19.3508     19.7200     14.6627    121.0038
  2236.0000     20.1984     18.9025     15.3210    115.8091
  2236.2500     21.1825     17.9027     16.1022    112.0529
  2236.5000     22.2978     16.7934     16.9779    106.0356
  2236.7500     23.5271     15.6645     17.9217    101.7198
  2237.0000     24.8274     14.6054     18.9099     95.5142
  2237.2500     26.1495     13.6851     19.9173     92.3569
  2237.5000     27.4745     12.9376     20.9121     90.1421
  2237.7500     28.8284     12.3556     21.8589     90.5034
  2238.0000     30.2505     11.8933     22.7298     93.5365
  2238.2500     31.7335     11.4785     23.5154     96.8187
  2238.5000     33.1922     11.0298     24.2229    102.1065
  2238.7500     34.4954     10.4750     24.8686    104.4085
  2239.0000     35.5431      9.7669     25.4720    103.4424
  2239.2500     36.3335      8.8933     26.0554     99.2431
  2239.5000     36.9809      7.8814     26.6425     89.1532
  2239.7500     37.6719      6.7937     27.2544     81.8854
  2240.0000     38.5610      5.7192     27.9055     73.3234
  2240.2500     39.6457      4.7608     28.5949     69.9527
  2240.5000     40.7126      4.0214     29.2846     67.9680
  2240.7500     41.4188      3.5903     29.8732     68.1295
  2241.0000     41.4608      3.5333     30.1927     70.1329
  2241.2500     40.7015      3.8857     30.0564     72.5870
  2241.5000     39.1842      4.6503     29.3438     77.5737
  2241.7500     37.0666      5.7987     28.0614     81.3213
  2242.0000     34.5477      7.2765     26.3320     86.8997
  2242.2500     31.8252      9.0099     24.3365     90.4874
  2242.5000     29.0738     10.9134     22.2564     95.9344
  2242.7500     26.4287     12.8967     20.2405     99.8298
  2243.0000     23.9771     14.8706     18.3879    106.3564
  2243.2500     21.7642     16.7521     16.7434    111.3182
  2243.5000     19.8072     18.4687     15.3085    119.8972
  2243.7500     18.1066     19.9628     14.0627    126.2492
  2244.0000     16.6534     21.1952     12.9844    135.5972
  2244.2500     15.4384     22.1483     12.0627    140.6427
  2244.5000     14.4593     22.8271     11.2949    144.9580
  2244.7500     13.7140     23.2582     10.6779    145.5855
  2245.0000     13.1810     23.4855     10.2005    144.6699
  2245.2500     12.8043     23.5638      9.8434    144.3097
  2245.5000     12.4986     23.5519      9.5839    146.0904
  2245.7500     12.1741     23.5041      9.4012    148.7058
  2246.0000     11.7673     23.4655      9.2799    152.4790
  2246.2500     11.2595     23.4683      9.2086    153.4370
  2246.5000     10.6795     23.5311      9.1773    151.7151
  2246.7500     10.0949     23.6617      9.1750    148.9267
  2247.0000      9.6006     23.8595      9.1883    143.5247
  2247.2500      9.2978     24.1193      9.2030    139.7977
  2247.5000      9.2602     24.4331      9.2055    135.3269
  2247.7500      9.4937     24.7918      9.1858    133.7238
  2248.0000      9.9182     25.1845      9.1397    133.2639
  2248.2500     10.3940     25.5983      9.0688    133.4550
  2248.5000     10.7844     26.0179      8.9798    133.1027
  2248.7500     11.0128     26.4265      8.8814    132.1941
  2249.0000     11.0755     26.8074      8.7814    130.1488
  2249.2500     11.0156     27.1466      8.6859    128.5707
  2249.5000     10.8876     27.4345      8.5995    126.2291
  2249.7500     10.7381     27.6680      8.5274    125.0648
  2250.0000     10.6001     27.8504      8.4755    124.9149
  2250.2500     10.4937     27.9905      8.4495    126.2147
  2250.5000     10.4262     28.1003      8.4522    129.6799
  2250.7500     10.3938     28.1923      8.4816    132.1937
  2251.0000     10.3853     28.2766      8.5306    134.9451
  2251.2500     10.3878     28.3593      8.5896    135.5501
  2251.5000     10.3917     28.4410      8.6513    134.2344
  2251.7500     10.3957     28.5176      8.7130    132.2288
  2252.0000     10.4061     28.5815      8.7761    128.9301
  2252.2500     10.4291     28.6240      8.8424    127.2095
  2252.5000     10.4627     28.6378      8.9108    125.6188
  2252.7500     10.4955     28.6189      8.9770    125.0613
  2253.0000     10.5137     28.5685      9.0348    124.6073
  2253.2500     10.5074     28.4921      9.0788    124.2933
  2253.5000     10.4754     28.3989      9.1064    123.4428
  2253.7500     10.4276     28.2990      9.1189    122.6797
  2254.0000     10.3838     28.2007      9.1211    121.8057
  2254.2500     10.3632     28.1088      9.1203    121.7421
  2254.5000     10.3715     28.0229      9.1234    122.3979
  2254.7500     10.3962     27.9383      9.1343    122.9212
  2255.0000     10.4138     27.8474      9.1518    123.1825
  2255.2500     10.4029     27.7424      9.1709    123.0903
  2255.5000     10.3557     27.6177      9.1852    123.3389
  2255.7500     10.2804     27.4714      9.1889    124.1208
  2256.0000     10.1956     27.3059      9.1777    126.0182
  2256.2500     10.1197     27.1272      9.1491    127.1848
  2256.5000     10.0622     26.9431      9.1052    127.6047
  2256.7500     10.0249     26.7609      9.0543    126.7397
  2257.0000     10.0070     26.5854      9.0094    124.6260
  2257.2500     10.0068     26.4179      8.9835    123.6760
  2257.5000     10.0189     26.2554      8.9829    124.1170
  2257.7500     10.0318     26.0924      9.0040    125.6196
  2258.0000     10.0315     25.9218      9.0342    128.8799
  2258.2500     10.0077     25.7378      9.0565    131.1635
  2258.5000      9.9601     25.5379      9.0573    133.5823
  2258.7500      9.8989     25.3241      9.0327    133.8115
  2259.0000      9.8387     25.1028      8.9890    131.9857
  2259.2500      9.7915     24.8835      8.9391    130.3035
  2259.5000      9.7642     24.6760      8.8956    129.2738
  2259.7500      9.7596     24.4871      8.8668    130.0697
  2260.0000      9.7767     24.3186      8.8552    132.4668
  2260.2500      9.8083     24.1655      8.8591    133.8308
  2260.5000      9.8432     24.0180      8.8746    134.3854
  2260.7500      9.8718     23.8640      8.8981    133.7747
  2261.0000      9.8912     23.6934      8.9274    132.2315
  2261.2500      9.9048     23.5015      8.9612    131.3537
