~Version Information
VERS.                      2.0: CWLS Log ASCII Standard - VERSION 2.0
WRAP.                       NO: One line per depth step
~Well Information Block
STRT.FT               460.0000: 
STOP.FT              1349.5000: 
STEP.FT                 0.2500: 
NULL.                -999.2500: 
COMP.          Pioneer Natural Resources: COMPANY
WELL.              Dicks 32-5R: WELL
FLD.           Purgatorie River: FIELD
LOC.           1485' FNL & 1684' FEL: LOCATION
PROV.                 Colorado: PROVINCE
CNTY.               Las Animas: COUNTRY
SRVC.                Patterson: SERVICE COMPANY
DATE.          Thu Dec 08 23:11:15 2005: LOG DATE
UWI.                          : UNIQUE WELL ID
~Curve Information Block
DEPT.FT            0 000 00 00: Depth
SN.Ohm-m                      : IEL Short Normal
SP.mV                         : IEL Spontaneous Potential
DIR.Ohm-m                     : IEL Induction Resistivity
GR.GAPI                       : Gamma Ray
~Parameter Information Block
~A  Depth        SN          SP         DIR          GR     
# ...
  1230.5000     27.4280    219.0179     28.9006     84.3222
  1230.7500     27.3024    218.7955     28.5485     89.5773
  1231.0000     27.3253    218.6547     28.3743     96.4805
  1231.2500     27.5181    218.5809     28.4095    100.2517
  1231.5000     27.8699    218.5587     28.6712    104.3679
  1231.7500     28.2848    218.5725     29.1464    105.9380
  1232.0000     28.6597    218.6044     29.7740    106.6802
  1232.2500     29.0160    218.6378     30.4429    106.5444
  1232.5000     29.4496    218.6657     31.0227    106.3819
  1232.7500     29.9797    218.6955     31.4101    106.6268
  1233.0000     30.5393    218.7465     31.5474    107.3721
  1233.2500     31.0485    218.8453     31.3978    107.7075
  1233.5000     31.4384    219.0215     30.9225    106.8452
  1233.7500     31.6421    219.2960     30.0997    104.6164
  1234.0000     31.5781    219.6613     28.9655     98.2059
  1234.2500     31.1536    220.0693     27.6236     92.3908
  1234.5000     30.3108    220.4539     26.2103     83.3846
  1234.7500     29.0307    220.7818     24.8496     78.3354
  1235.0000     27.3202    221.0829     23.6304     73.0621
  1235.2500     25.2810    221.4309     22.6030     71.0190
  1235.5000     23.1447    221.8945     21.7804     69.9333
  1235.7500     21.1697    222.5002     21.1390     70.6542
  1236.0000     19.5284    223.2199     20.6240     74.5154
  1236.2500     18.2890    223.9770     20.1699     79.2832
  1236.5000     17.4479    224.6701     19.7303     89.8711
  1236.7500     16.9670    225.2099     19.2992     98.8814
  1237.0000     16.8041    225.5506     18.9044    113.6625
  1237.2500     16.9312    225.6975     18.5832    122.7230
  1237.5000     17.3452    225.6923     18.3644    131.9526
  1237.7500     18.0412    225.5938     18.2677    133.8589
  1238.0000     18.9343    225.4641     18.3123    129.7911
  1238.2500     19.8469    225.3555     18.5189    123.1737
  1238.5000     20.6182    225.2994     18.9030    110.0726
  1238.7500     21.1891    225.3116     19.4639    101.2917
  1239.0000     21.5725    225.4096     20.1770     91.1809
  1239.2500     21.7967    225.6229     20.9913     87.3563
  1239.5000     21.9088    225.9802     21.8340     85.5826
  1239.7500     21.9871    226.4874     22.6247     86.1213
  1240.0000     22.0970    227.1234     23.2996     87.7643
  1240.2500     22.2562    227.8541     23.8368     88.6297
  1240.5000     22.4552    228.6435     24.2604     88.8685
  1240.7500     22.6851    229.4458     24.6163     88.3050
  1241.0000     22.9416    230.1936     24.9334     86.9640
  1241.2500     23.2181    230.8037     25.2041     86.2647
  1241.5000     23.5038    231.2075     25.3962     86.1725
  1241.7500     23.7825    231.3829     25.4841     86.7695
  1242.0000     24.0283    231.3607     25.4733     87.9951
  1242.2500     24.2182    231.1974     25.4071     88.3841
  1242.5000     24.3496    230.9410     25.3549     87.3145
  1242.7500     24.4410    230.6194     25.3898     85.3558
  1243.0000     24.4988    230.2497     25.5579     81.3394
  1243.2500     24.4824    229.8468     25.8519     78.7017
  1243.5000     24.3606    229.4251     26.2026     75.7273
  1243.7500     24.1771    228.9989     26.4993     74.4547
  1244.0000     24.0037    228.5881     26.6351     73.0973
  1244.2500     23.8723    228.2215     26.5561     72.2732
  1244.5000     23.7619    227.9351     26.2841     71.1745
  1244.7500     23.6234    227.7621     25.8979     70.7354
  1245.0000     23.4336    227.7202     25.4885     70.6648
  1245.2500     23.2227    227.8008     25.1155     70.9096
  1245.5000     23.0340    227.9700     24.7910     71.4530
  1245.7500     22.8843    228.1788     24.4954     71.7998
  1246.0000     22.7676    228.3750     24.2074     72.0450
  1246.2500     22.6696    228.5153     23.9256     71.8708
  1246.5000     22.5697    228.5773     23.6652     71.0705
  1246.7500     22.4390    228.5718     23.4417     70.4338
  1247.0000     22.2517    228.5392     23.2527     70.0743
  1247.2500     22.0180    228.5260     23.0730     70.5398
  1247.5000     21.7847    228.5565     22.8620     72.2259
  1247.7500     21.5816    228.6203     22.5799     73.7189
  1248.0000     21.4111    228.6785     22.2074     75.9141
  1248.2500     21.2821    228.6810     21.7620     76.9744
  1248.5000     21.2112    228.5858     21.3030     77.3727
  1248.7500     21.2093    228.3696     20.9132     76.7292
  1249.0000     21.2675    228.0236     20.6656     74.8643
  1249.2500     21.3146    227.5395     20.5908     73.5505
  1249.5000     21.2436    226.8988     20.6657     72.2822
  1249.7500     21.0482    226.0739     20.8279     72.1201
  1250.0000     20.8473    225.0364     21.0033     72.8519
  1250.2500     20.7395    223.7712     21.1309     73.8360
  1250.5000     20.7231    222.2926     21.1738     75.6985
  1250.7500     20.7512    220.6571     21.1156     76.8954
  1251.0000     20.7949    218.9672     20.9549     78.0464
  1251.2500     20.8386    217.3555     20.7044     78.3001
  1251.5000     20.8530    215.9477     20.3935     78.6911
  1251.7500     20.8143    214.8259     20.0679     79.7868
  1252.0000     20.7267    214.0167     19.7791     83.6475
  1252.2500     20.5925    213.5077     19.5689     87.5139
  1252.5000     20.3822    213.2763     19.4584     93.7517
  1252.7500     20.0452    213.3145     19.4500     97.1127
  1253.0000     19.5526    213.6399     19.5354     99.7569
  1253.2500     18.9368    214.2892     19.7033     99.9951
  1253.5000     18.3041    215.2978     19.9390     99.4100
  1253.7500     17.8178    216.6738     20.2201     99.3225
  1254.0000     17.6510    218.3751     20.5137    100.3689
  1254.2500     17.9340    220.2929     20.7799    101.6374
  1254.5000     18.7141    222.2575     20.9835    103.4939
  1254.7500     19.9331    224.0810     21.1103    104.1662
  1255.0000     21.4141    225.6199     21.1793    103.6387
  1255.2500     22.8781    226.8156     21.2373    102.0425
  1255.5000     24.0341    227.6868     21.3411     97.7901
  1255.7500     24.6936    228.2931     21.5348     93.9712
  1256.0000     24.8479    228.6996     21.8369     87.5304
  1256.2500     24.6649    228.9567     22.2373     83.2813
  1256.5000     24.3472    229.0938     22.7023     77.8709
  1256.7500     24.0393    229.1269     23.1832     75.4428
  1257.0000     23.8588    229.0721     23.6341     74.3778
  1257.2500     23.8776    228.9522     24.0305     75.5580
  1257.5000     24.1155    228.7942     24.3790     79.5326
  1257.7500     24.6013    228.6254     24.7036     82.7341
  1258.0000     25.3656    228.4803     25.0222     86.3004
  1258.2500     26.3530    228.4034     25.3387     86.8276
  1258.5000     27.4136    228.4350     25.6616     84.2902
  1258.7500     28.4165    228.5862     26.0253     80.9100
  1259.0000     29.3187    228.8269     26.4896     74.9604
  1259.2500     30.1131    229.0970     27.1178     71.2193
  1259.5000     30.7692    229.3296     27.9495     66.6126
  1259.7500     31.2385    229.4736     28.9760     64.3606
  1260.0000     31.4679    229.5082     30.1175     62.4371
  1260.2500     31.3997    229.4452     31.2188     62.1828
  1260.5000     31.0308    229.3154     32.0907     63.0263
  1260.7500     30.4723    229.1472     32.5950     63.9814
  1261.0000     29.8801    228.9522     32.7067     65.2342
  1261.2500     29.3420    228.7278     32.4961     65.7433
  1261.5000     28.8574    228.4704     32.0552     66.2876
  1261.7500     28.3865    228.1843     31.4456     66.8088
  1262.0000     27.8982    227.8844     30.7031     67.9241
  1262.2500     27.3900    227.5923     29.8662     68.6382
  1262.5000     26.8733    227.3304     28.9914     69.3688
  1262.7500     26.3558    227.1119     28.1435     69.8128
  1263.0000     25.8477    226.9280     27.3769     70.9323
  1263.2500     25.3715    226.7476     26.7228     71.9606
  1263.5000     24.9478    226.5411     26.1919     73.2559
  1263.7500     24.5682    226.3108     25.7893     73.6199
