~Version Information
VERS.                      2.0: CWLS Log ASCII Standard - VERSION 2.0
WRAP.                       NO: One line per depth step
~Well Information Block
STRT.FT               -11.5000: 
STOP.FT              1961.7500: 
STEP.FT                 0.2500: 
NULL.                -999.2500: 
COMP.          Petrogulf Corporation: COMPANY
WELL.           State 16-23R-X: WELL
FLD.           Purgatorie River: FIELD
LOC.           2381' FSL & 2072' FWL--: LOCATION
PROV.                       CO: PROVINCE
CNTY.               Las Animas: COUNTRY
SRVC.          Patterson Wireline: SERVICE COMPANY
DATE.          Fri Sep 09 14:32:42 2005: LOG DATE
UWI.           05 071 08324 00: UNIQUE WELL ID
~Curve Information Block
DEPT.FT            0 000 00 00: Depth
CCL.                          : Casing Collar Locator
TT3.usec                      : CBL 3' Travel Time
AMP3.mV                       : CBL 3' Amplitude
GR.GAPI                       : Gamma Ray
~Parameter Information Block
~A  Depth       CCL         TT3         AMP3         GR     
# ...
  1429.0000      0.0000    649.4596      9.5141    122.1645
  1429.2500      0.0000    655.1542      9.6453    128.5695
  1429.5000      0.0000    658.7167      9.8513    132.8386
  1429.7500      0.0000    659.6298     10.1316    134.2530
  1430.0000      0.0000    657.6659     10.4573    132.8311
  1430.2500      0.0000    651.6462     10.7978    129.4851
  1430.5000      0.0000    639.4100     11.1270    125.4289
  1430.7500      0.0000    619.6167     11.4152    121.6500
  1431.0000      0.0000    595.0419     11.6280    118.7187
  1431.2500      0.0000    574.2638     11.7404    116.5735
  1431.5000      0.0000    567.3414     11.7519    114.4030
  1431.7500      0.0000    577.0591     11.6940    111.1635
  1432.0000      0.0000    594.9205     11.6196    106.4570
  1432.2500      0.0000    606.8615     11.5859    100.8517
  1432.5000      0.0000    602.1854     11.6384     95.5496
  1432.7500      0.0000    578.2734     11.7906     92.1621
  1433.0000      0.0000    541.9883     11.9986     92.4882
  1433.2500      0.0000    509.0329     12.1548     97.5394
  1433.5000      0.0000    497.2447     12.1310    106.2593
  1433.7500      0.0000    514.6533     11.8488    115.4218
  1434.0000      0.0000    553.2279     11.3193    121.3252
  1434.2500      0.0000    595.7722     10.6263    122.2670
  1434.5000      0.0000    628.6542      9.8810    119.7812
  1434.7500      0.0000    648.0493      9.1806    117.2939
  1435.0000      0.0000    657.1052      8.5768    117.3152
  1435.2500      0.0000    660.4664      8.0627    119.9309
  1435.5000      0.0000    661.3388      7.5910    123.7631
  1435.7500      0.0000    661.2571      7.1176    127.6390
  1436.0000      0.0000    660.8323      6.6321    131.0901
  1436.2500      0.0000    660.4068      6.1490    134.0259
  1436.5000      0.0000    660.4576      5.6787    136.4871
  1436.7500      0.0000    661.8326      5.2180    138.2410
  1437.0000      0.0000    665.7755      4.7715    138.3272
  1437.2500      0.0000    673.2826      4.3701    135.4922
  1437.5000      0.0000    683.7201      4.0587    129.2781
  1437.7500      0.0000    694.0819      3.8670    120.4690
  1438.0000      0.0000    700.5255      3.7972    110.6618
  1438.2500      0.0000    701.4214      3.8370    101.8705
  1438.5000      0.0000    698.8263      3.9773     96.2776
  1438.7500      0.0000    696.8109      4.2169     95.3179
  1439.0000      0.0000    698.2349      4.5543     98.3605
  1439.2500      0.0000    702.7239      4.9775    102.7123
  1439.5000      0.0000    707.2679      5.4562    105.7181
  1439.7500      0.0000    708.5690      5.9448    107.0600
  1440.0000      0.0000    704.8341      6.4017    108.5459
  1440.2500      0.0000    696.1362      6.8132    111.4537
  1440.5000      0.0000    684.3412      7.1921    114.7162
  1440.7500      0.0000    672.6443      7.5477    116.1497
  1441.0000      0.0000    664.0117      7.8622    114.9284
  1441.2500      0.0000    659.5524      8.1004    112.3050
  1441.5000      0.0000    658.2462      8.2350    110.3422
  1441.7500      0.0000    657.8156      8.2631    110.5229
  1442.0000      0.0000    655.8375      8.2072    113.3060
  1442.2500      0.0000    650.8730      8.1086    118.2472
  1442.5000      0.0000    643.5172      8.0181    124.2318
  1442.7500      0.0000    636.6251      7.9841    130.0022
  1443.0000      0.0000    633.7637      8.0342    135.0886
  1443.2500      0.0000    636.5973      8.1557    140.3406
  1443.5000      0.0000    643.5680      8.2932    147.0560
  1443.7500      0.0000    651.2847      8.3816    155.3115
  1444.0000      0.0000    657.0933      8.3955    163.4289
  1444.2500      0.0000    660.3653      8.3676    169.0716
  1444.5000      0.0000    661.9559      8.3574    170.6794
  1444.7500      0.0000    663.0726      8.4013    168.2188
  1445.0000      0.0000    664.4727      8.4963    163.1792
  1445.2500      0.0000    665.8444      8.6259    157.8208
  1445.5000      0.0000    665.3893      8.7895    153.7019
  1445.7500      0.0000    660.4346      8.9990    150.3736
  1446.0000      0.0000    649.4791      9.2476    145.5503
  1446.2500      0.0000    634.2020      9.4936    136.8578
  1446.5000      0.0000    619.2862      9.6877    123.6788
  1446.7500      0.0000    609.8271      9.8201    107.6276
  1447.0000      0.0000    608.4365      9.9328     91.5874
  1447.2500      0.0000    614.2142     10.0786     78.2063
  1447.5000      0.0000    623.6433     10.2741     68.7550
  1447.7500      0.0000    632.1035     10.4918     62.8851
  1448.0000      0.0000    635.3179     10.6843     59.3594
  1448.2500      0.0000    630.9151     10.8043     57.1063
  1448.5000      0.0000    619.3419     10.8136     55.7190
  1448.7500      0.0000    603.4879     10.6870     55.1125
  1449.0000      0.0000    588.0990     10.4134     55.0537
  1449.2500      0.0000    579.8008      9.9956     55.2343
  1449.5000      0.0000    585.2878      9.4630     55.4882
  1449.7500      0.0000    606.2167      8.8955     55.6569
  1450.0000      0.0000    636.0512      8.4123     55.5281
  1450.2500      0.0000    664.0715      8.1038     55.2864
  1450.5000      0.0000    682.8572      7.9602     55.8601
  1450.7500     -2.0000    692.1171      7.8768     58.5265
  1451.0000      0.0000    696.7551      7.7299     64.1523
  1451.2500      0.0000    701.3122      7.4594     72.7713
  1451.5000      0.0000    705.2872      7.1018     83.7389
  1451.7500      0.0000    704.1854      6.7541     96.1585
  1452.0000      0.0000    695.0375      6.5021    109.1239
  1452.2500      0.0000    679.7379      6.3842    121.4591
  1452.5000      0.0000    663.4267      6.4180    131.4083
  1452.7500      0.0000    651.5279      6.6126    137.3032
  1453.0000      0.0000    647.7640      6.9264    139.1288
  1453.2500      0.0000    652.5579      7.2522    139.0631
  1453.5000      0.0000    662.7817      7.4862    139.8156
  1453.7500      0.0000    674.4716      7.5991    142.4097
  1454.0000      0.0000    686.1033      7.6298    145.8222
  1454.2500      0.0000    698.3480      7.6289    148.6071
  1454.5000      0.0000    711.0272      7.6205    150.4163
  1454.7500      0.0000    721.7849      7.6036    151.8723
  1455.0000      0.0000    727.8214      7.5747    153.5365
  1455.2500      0.0000    727.4801      7.5424    155.5277
  1455.5000      0.0000    720.1556      7.5173    157.9442
  1455.7500      0.0000    706.4634      7.4901    160.8933
  1456.0000      0.0000    688.9120      7.4335    163.7613
  1456.2500      0.0000    671.3358      7.3352    165.0308
  1456.5000      0.0000    657.4457      7.2227    163.5629
  1456.7500      0.0000    650.0499      7.1452    159.9321
  1457.0000      0.0000    650.2267      7.1314    155.9563
  1457.2500      0.0000    655.8409      7.1700    153.0713
  1457.5000      0.0000    661.4012      7.2295    151.7921
  1457.7500      0.0000    661.1921      7.2886    152.2838
  1458.0000      0.0000    653.4976      7.3416    154.0963
  1458.2500      0.0000    641.1883      7.3834    155.3166
  1458.5000      0.0000    627.6554      7.3998    153.5672
  1458.7500      0.0000    613.3988      7.3770    148.6556
  1459.0000      0.0000    597.7226      7.3160    143.3873
  1459.2500      0.0000    582.0685      7.2331    141.0201
  1459.5000      0.0000    569.4979      7.1494    142.3098
  1459.7500      0.0000    561.5444      7.0783    145.3318
  1460.0000      0.0000    556.9847      7.0226    147.6844
  1460.2500      0.0000    553.2200      6.9800    148.4242
  1460.5000      0.0000    548.0798      6.9462    148.0689
  1460.7500      0.0000    540.9483      6.9118    147.3795
  1461.0000      0.0000    533.0704      6.8649    146.9168
  1461.2500      0.0000    526.8615      6.8026    147.6859
  1461.5000      0.0000    524.5987      6.7362    150.7783
  1461.7500      0.0000    527.5610      6.6809    155.3266
  1462.0000      0.0000    536.0826      6.6451    157.8281
  1462.2500      0.0000    550.1827      6.6280    155.0277
