~Version Information
VERS.                      2.0: CWLS Log ASCII Standard - VERSION 2.0
WRAP.                       NO: One line per depth step
~Well Information Block
STRT.FT               240.0000: 
STOP.FT               940.5000: 
STEP.FT                 0.1000: 
NULL.                -999.2500: 
COMP.          Pioneer Natural Resources: COMPANY
WELL.               Ernie 31-6: WELL
FLD.           Purgatoire River: FIELD
LOC.           681' FNL & 2138' FEL: LOCATION
CNTY.               Las Animas: COUNTY
SRVC.                Patterson: SERVICE COMPANY
DATE.          Tue May 30 07:05:10 2006: LOG DATE
UWI.           05 071 08716 00: UNIQUE WELL ID
STAT.                 Colorado: STATE
~Curve Information Block
DEPT.FT            0 000 00 00: Depth
DCAL.in                       : CDL Caliper
RHOB.g/cc                     : CDL Bulk Density
RHOC.g/cc                     : CDL Density Correction
DPOR.pu                       : CDL Density Porosity
GR.GAPI                       : Gamma Ray
NPOR.pu                       : Neutron Porosity
~Parameter Information Block
~A  Depth       DCAL        RHOB        RHOC        DPOR         GR         NPOR    
# ...
   422.4000      8.0144      2.4793      0.0681     10.3444     72.1562     17.6253
   422.5000      8.0161      2.4747      0.0411     10.6263     66.5178     16.8449
   422.6000      8.0161      2.4772      0.1004     10.4706     61.9671     16.1541
   422.7000      8.0161      2.4822      0.0674     10.1689     59.4321     15.8362
   422.8000      8.0157      2.4819      0.0863     10.1901     58.6633     15.7579
   422.9000      8.0157      2.4719      0.0623     10.7927     57.5275     15.6527
   423.0000      8.0130      2.4619      0.0589     11.4030     56.9210     15.7941
   423.1000      8.0130      2.4621      0.0646     11.3860     58.2509     16.4651
   423.2000      8.0130      2.4662      0.0711     11.1378     58.2187     17.0640
   423.3000      8.0154      2.4670      0.0477     11.0881     54.3227     17.1015
   423.4000      8.0154      2.4676      0.0397     11.0570     48.8439     16.6886
   423.5000      8.0168      2.4607      0.0752     11.4699     46.2513     15.8592
   423.6000      8.0168      2.4374      0.0400     12.8843     49.4026     15.0781
   423.7000      8.0168      2.4161     -0.0059     14.1740     56.2762     14.9574
   423.8000      8.0143      2.4154      0.0262     14.2184     62.2050     15.4061
   423.9000      8.0143      2.4268      0.0479     13.5278     64.8581     15.7819
   424.0000      8.0152      2.4416      0.0255     12.6314     64.9992     15.7862
   424.1000      8.0152      2.4554      0.0880     11.7959     65.4220     15.9646
   424.2000      8.0152      2.4563      0.0515     11.7391     65.8386     16.6984
   424.3000      8.0151      2.4440      0.0620     12.4866     63.4580     17.3674
   424.4000      8.0151      2.4308      0.0261     13.2869     59.1406     17.6882
   424.5000      8.0173      2.4243      0.0426     13.6759     55.6884     17.9053
   424.6000      8.0173      2.4219      0.0532     13.8263     54.3329     17.8733
   424.7000      8.0173      2.4155      0.0281     14.2093     54.8351     17.6900
   424.8000      8.0163      2.4016      0.0268     15.0521     55.9760     17.5626
   424.9000      8.0163      2.3841      0.0221     16.1176     56.7546     17.4752
   425.0000      8.0163      2.3706      0.0171     16.9313     57.7981     17.2427
   425.1000      8.0163      2.3687      0.0008     17.0511     60.1182     16.7478
   425.2000      8.0163      2.3755      0.0099     16.6374     63.0889     16.7193
   425.3000      8.0153      2.3770      0.0231     16.5468     64.4822     17.3641
   425.4000      8.0153      2.3679      0.0065     17.0957     62.4269     17.8807
   425.5000      8.0160      2.3564      0.0156     17.7963     58.1190     18.1011
   425.6000      8.0160      2.3481     -0.0063     18.2962     54.4717     18.2910
   425.7000      8.0160      2.3435      0.0192     18.5743     51.8399     18.5331
   425.8000      8.0167      2.3429      0.0180     18.6123     49.9953     18.9189
   425.9000      8.0167      2.3506      0.0034     18.1470     51.7875     19.1948
   426.0000      8.0159      2.3667      0.0549     17.1699     57.1824     19.1848
   426.1000      8.0159      2.3811      0.0496     16.2980     62.7283     18.9808
   426.2000      8.0159      2.3866      0.0786     15.9619     64.8548     18.5574
   426.3000      8.0170      2.3866      0.0617     15.9607     61.5475     18.2947
   426.4000      8.0170      2.3947      0.0466     15.4756     58.0831     18.5806
   426.5000      8.0153      2.4198      0.0904     13.9514     60.9685     19.0393
   426.6000      8.0153      2.4516      0.1039     12.0213     69.0868     18.8634
   426.7000      8.0153      2.4709      0.1519     10.8525     77.6700     17.9878
   426.8000      8.0147      2.4692      0.1050     10.9577     84.1012     17.2666
   426.9000      8.0147      2.4541      0.0971     11.8735     87.3176     17.0742
   427.0000      8.0151      2.4386      0.0825     12.8102     85.5363     16.9725
   427.1000      8.0151      2.4304      0.0659     13.3065     79.5637     16.6512
   427.2000      8.0151      2.4196      0.1192     13.9638     72.5574     16.2959
   427.3000      8.0133      2.3937      0.0497     15.5359     67.9142     16.2935
   427.4000      8.0133      2.3697     -0.0019     16.9868     67.4284     16.8835
   427.5000      7.9992      2.3710      0.0124     16.9114     70.1852     17.8368
   427.6000      7.9992      2.3896      0.0689     15.7814     74.3268     18.5683
   427.7000      7.9992      2.3996      0.0943     15.1778     75.5665     18.6294
   427.8000      8.0147      2.3914      0.0563     15.6721     71.8395     18.1572
   427.9000      8.0147      2.3780      0.0503     16.4855     67.5981     17.7557
   428.0000      8.0154      2.3715      0.0582     16.8782     66.7708     17.7302
   428.1000      8.0154      2.3760      0.0439     16.6080     69.0138     17.9706
   428.2000      8.0154      2.3886      0.0628     15.8416     73.2325     18.2232
   428.3000      8.0150      2.3972      0.0798     15.3213     76.8087     18.3434
   428.4000      8.0150      2.3958      0.0268     15.4068     76.8229     18.4623
   428.5000      8.0123      2.3920      0.0484     15.6335     75.4612     18.5376
   428.6000      8.0123      2.3894      0.0319     15.7956     76.2575     18.4744
   428.7000      8.0123      2.3869      0.0356     15.9475     78.5461     18.4363
   428.8000      8.0158      2.3871      0.0348     15.9323     79.5217     18.4336
   428.9000      8.0158      2.3947      0.0124     15.4752     77.4545     18.2924
   429.0000      8.0156      2.4088      0.0270     14.6159     72.3684     18.0597
   429.1000      8.0156      2.4188      0.0496     14.0128     65.9566     17.9448
   429.2000      8.0156      2.4180      0.0272     14.0621     61.7965     18.0042
   429.3000      8.0152      2.4177     -0.0070     14.0799     61.6202     18.2428
   429.4000      8.0152      2.4262      0.0511     13.5632     63.3525     18.4924
   429.5000      8.0156      2.4353      0.0270     13.0139     65.0083     18.5041
   429.6000      8.0156      2.4432      0.0151     12.5324     66.8152     18.3230
   429.7000      8.0156      2.4523      0.0650     11.9839     67.7397     18.3356
   429.8000      8.0165      2.4551      0.0150     11.8098     65.4921     19.0233
   429.9000      8.0165      2.4500      0.0461     12.1196     61.7140     20.0353
   430.0000      8.0147      2.4456      0.0234     12.3907     61.4644     20.5565
   430.1000      8.0147      2.4494      0.0308     12.1557     67.2905     20.4720
   430.2000      8.0147      2.4594      0.0108     11.5493     72.8664     19.8297
   430.3000      8.0139      2.4738      0.0120     10.6774     72.6625     19.0005
   430.4000      8.0139      2.4916      0.0524      9.5993     72.6627     18.7637
   430.5000      8.0174      2.5063      0.0384      8.7091     75.9088     19.1217
   430.6000      8.0174      2.5200      0.0313      7.8781     76.5018     19.4540
   430.7000      8.0174      2.5377      0.0334      6.8077     73.0449     19.5598
   430.8000      8.0156      2.5528      0.0690      5.8900     70.3194     19.7906
   430.9000      8.0156      2.5569      0.0782      5.6454     71.3338     20.1509
   431.0000      8.0164      2.5553      0.0868      5.7414     73.7451     20.2352
   431.1000      8.0164      2.5590      0.1153      5.5125     73.7283     19.8874
   431.2000      8.0164      2.5605      0.1443      5.4243     73.5294     19.0162
   431.3000      8.0140      2.5486      0.0878      6.1449     75.3173     18.0346
   431.4000      8.0140      2.5354      0.0764      6.9452     75.7376     17.5607
   431.5000      8.0135      2.5353      0.0540      6.9495     72.9346     17.3415
   431.6000      8.0135      2.5402      0.1088      6.6538     69.6105     17.2254
   431.7000      8.0135      2.5352      0.0540      6.9553     68.6153     17.0910
   431.8000      8.0148      2.5226      0.0736      7.7242     70.8654     16.5270
   431.9000      8.0148      2.5061      0.1144      8.7207     75.1685     16.2557
