~Version Information
VERS.                      2.0: CWLS Log ASCII Standard - VERSION 2.0
WRAP.                       NO: One line per depth step
~Well Information Block
STRT.FT               260.0000: 
STOP.FT              1229.5000: 
STEP.FT                 0.1000: 
NULL.                -999.2500: 
COMP.          Pioneer Natural Resources: COMPANY
WELL.             Mahalo 12-20: WELL
FLD.           Purgatoire River: FIELD
LOC.           1689' FNL & 479' FWL: LOCATION
CNTY.               Las Animas: COUNTY
SRVC.                Patterson: SERVICE COMPANY
DATE.          Mon Feb 27 07:00:19 2006: LOG DATE
UWI.           05 071 08700 00: UNIQUE WELL ID
STAT.                 Colorado: STATE
~Curve Information Block
DEPT.FT            0 000 00 00: Depth
DCAL.in                       : CDL Caliper
RHOB.g/cc                     : CDL Bulk Density
RHOC.g/cc                     : CDL Density Correction
DPOR.pu                       : CDL Density Porosity
GR.GAPI                       : Gamma Ray
NPOR.pu                       : Neutron Porosity
~Parameter Information Block
~A  Depth       DCAL        RHOB        RHOC        DPOR         GR         NPOR    
# ...
   768.8000      7.8129      2.5630     -0.0050      5.2703    114.2554     23.6587
   768.9000      7.8129      2.5696      0.0445      4.8737    122.4050     22.7250
   769.0000      7.8162      2.5770      0.0512      4.4228    131.5145     22.3118
   769.1000      7.8162      2.5801      0.0267      4.2387    131.0976     22.9015
   769.2000      7.8162      2.5813      0.0215      4.1637    122.8608     24.4991
   769.3000      7.8155      2.5765      0.0386      4.4532    112.1677     25.9254
   769.4000      7.8155      2.5635      0.0287      5.2425    104.3968     25.7907
   769.5000      7.8138      2.5530     -0.0071      5.8785    104.2706     24.7052
   769.6000      7.8138      2.5551      0.0221      5.7514    106.2117     24.3428
   769.7000      7.8138      2.5633      0.0382      5.2551    102.3626     24.5485
   769.8000      7.8137      2.5657     -0.0028      5.1062     93.3883     24.5097
   769.9000      7.8137      2.5604     -0.0069      5.4305     89.1369     24.5835
   770.0000      7.8121      2.5516      0.0055      5.9631     94.9209     25.1916
   770.1000      7.8121      2.5441     -0.0030      6.4152    105.2287     26.2485
   770.2000      7.8121      2.5411      0.0387      6.5977    112.9824     27.0676
   770.3000      7.8131      2.5413     -0.0113      6.5855    115.0804     26.7104
   770.4000      7.8131      2.5405      0.0675      6.6334    114.5806     25.4507
   770.5000      7.8093      2.5379     -0.0141      6.7940    115.8628     24.2199
   770.6000      7.8093      2.5376      0.0049      6.8129    118.7422     23.2836
   770.7000      7.8093      2.5365      0.0503      6.8764    121.3962     22.4733
   770.8000      7.8115      2.5357     -0.0141      6.9251    123.0236     21.9478
   770.9000      7.8115      2.5440      0.0431      6.4230    121.4020     22.1194
   771.0000      7.8118      2.5539      0.0521      5.8220    115.3503     22.7631
   771.1000      7.8118      2.5504      0.0562      6.0388    108.2861     23.2190
   771.2000      7.8118      2.5339      0.0110      7.0377    101.5264     23.2332
   771.3000      7.8132      2.5201     -0.0044      7.8752     98.1703     23.1274
   771.4000      7.8132      2.5189      0.0139      7.9465    103.3394     23.3354
   771.5000      7.8124      2.5307      0.0244      7.2285    109.3754     23.7485
   771.6000      7.8124      2.5578      0.0377      5.5878    106.8112     23.6227
   771.7000      7.8124      2.5945      0.0801      3.3646    102.8140     22.8078
   771.8000      7.8143      2.6186      0.1128      1.9035    105.3327     22.3202
   771.9000      7.8143      2.6197      0.0748      1.8364    109.9746     22.3727
   772.0000      7.8131      2.6125      0.0668      2.2699    114.5858     21.9297
   772.1000      7.8131      2.6066      0.1119      2.6326    119.0349     20.8317
   772.2000      7.8131      2.6000      0.0487      3.0326    116.9632     19.9336
   772.3000      7.8140      2.5949      0.0953      3.3393    106.8717     20.1889
   772.4000      7.8140      2.5924      0.0590      3.4886     98.0097     22.1185
   772.5000      7.8150      2.5948      0.0389      3.3430     93.5142     24.4858
   772.6000      7.8150      2.6049      0.0382      2.7361     88.5822     25.2003
   772.7000      7.8150      2.6183      0.0688      1.9234     83.1695     24.2458
   772.8000      7.8146      2.6270      0.0488      1.3961     81.5458     22.9459
   772.9000      7.8146      2.6241      0.0740      1.5680     82.7784     21.8590
   773.0000      7.8129      2.6059      0.0502      2.6715     83.1396     20.8528
   773.1000      7.8129      2.5794      0.0401      4.2809     84.0755     20.0826
   773.2000      7.8129      2.5582     -0.0051      5.5619     87.8408     19.8209
   773.3000      7.8122      2.5452     -0.0000      6.3545     94.2008     19.9616
   773.4000      7.8122      2.5359      0.0007      6.9122     99.8307     20.3823
   773.5000      7.8134      2.5397     -0.0435      6.6857     99.7267     20.8680
   773.6000      7.8134      2.5569      0.0437      5.6452     92.9981     20.9998
   773.7000      7.8134      2.5666      0.0197      5.0546     86.2282     20.9213
   773.8000      7.8134      2.5626      0.0114      5.2977     84.0056     21.0548
   773.9000      7.8134      2.5541     -0.0123      5.8111     83.4446     21.3044
   774.0000      7.8119      2.5440     -0.0060      6.4242     82.2494     21.7210
   774.1000      7.8119      2.5339      0.0005      7.0394     81.8699     21.9481
   774.2000      7.8119      2.5334     -0.0244      7.0661     84.8174     21.6380
   774.3000      7.8127      2.5450     -0.0003      6.3644     91.8394     21.5909
   774.4000      7.8127      2.5582     -0.0091      5.5664     99.3912     22.1746
   774.5000      7.8134      2.5717     -0.0145      4.7449    100.4649     22.7031
   774.6000      7.8134      2.5828      0.0408      4.0737     92.6872     22.5511
   774.7000      7.8134      2.5727      0.0411      4.6865     83.6082     21.3313
   774.8000      7.8126      2.5399      0.0227      6.6700     79.5357     19.9254
   774.9000      7.8126      2.5138     -0.0281      8.2559     80.0668     19.6561
   775.0000      7.8129      2.5164     -0.0096      8.0995     81.9400     19.8551
   775.1000      7.8129      2.5297      0.0387      7.2904     82.3831     19.7007
   775.2000      7.8129      2.5257      0.0514      7.5327     82.1235     19.4517
   775.3000      7.8142      2.5114      0.0058      8.3984     81.8042     19.2088
   775.4000      7.8142      2.5123     -0.0117      8.3443     79.9869     19.3821
   775.5000      7.8140      2.5245      0.0523      7.6054     76.5816     20.2027
   775.6000      7.8140      2.5282      0.0181      7.3798     73.1222     20.6703
   775.7000      7.8140      2.5246      0.0107      7.5997     71.2662     20.2643
   775.8000      7.8140      2.5200      0.0179      7.8814     72.7138     19.7250
   775.9000      7.8140      2.5165      0.0341      8.0901     75.7002     19.3418
   776.0000      7.8135      2.5188      0.0150      7.9524     76.2420     18.7343
   776.1000      7.8135      2.5308      0.0219      7.2238     74.7488     17.6855
   776.2000      7.8135      2.5459      0.0554      6.3064     71.7258     16.4387
   776.3000      7.8123      2.5531      0.0388      5.8750     66.5367     15.7765
   776.4000      7.8123      2.5533      0.0522      5.8623     64.4623     16.0444
   776.5000      7.8105      2.5517      0.0545      5.9596     69.0039     16.8162
   776.6000      7.8105      2.5461      0.0690      6.2960     75.3157     17.9100
   776.7000      7.8105      2.5350      0.0122      6.9687     78.3291     19.0001
   776.8000      7.8101      2.5230      0.0247      7.6951     77.8961     19.1528
   776.9000      7.8101      2.5137      0.0374      8.2590     76.8089     18.3898
   777.0000      7.8109      2.5158     -0.0255      8.1314     77.7034     17.8056
   777.1000      7.8109      2.5314      0.0532      7.1886     80.4557     18.1997
   777.2000      7.8109      2.5434     -0.0067      6.4626     83.6074     19.6915
   777.3000      7.8103      2.5491      0.0182      6.1170     87.2049     21.8289
   777.4000      7.8103      2.5593      0.0228      5.4985     89.6503     23.8226
   777.5000      7.8095      2.5673      0.0633      5.0143     88.9779     25.1252
   777.6000      7.8095      2.5611      0.0146      5.3893     86.5671     25.9089
   777.7000      7.8095      2.5529      0.0092      5.8829     86.1567     25.7748
   777.8000      7.8107      2.5601      0.0081      5.4479     90.0326     24.3790
   777.9000      7.8107      2.5773      0.0461      4.4064     95.0647     22.8624
   778.0000      7.8093      2.5888      0.0510      3.7096     94.8980     22.2396
   778.1000      7.8093      2.5905      0.0270      3.6066     89.0019     22.2640
   778.2000      7.8093      2.5835      0.0457      4.0325     83.8939     22.2686
   778.3000      7.8112      2.5656      0.0045      5.1173     83.8061     21.7548
