~Version Information
VERS.                      2.0: CWLS Log ASCII Standard - VERSION 2.0
WRAP.                       NO: One line per depth step
~Well Information Block
STRT.FT               555.0000: 
STOP.FT              2283.0000: 
STEP.FT                 0.2500: 
NULL.                -999.2500: 
COMP.          Pioneer Natural Resources: COMPANY
WELL.          Roadster 41-33 Kv: WELL
FLD.           Purgatoire River: FIELD
LOC.           903' FNL & 248' FEL: LOCATION
PROV.                 Colorado: PROVINCE
CNTY.               Las Animas: COUNTRY
SRVC.                Patterson: SERVICE COMPANY
DATE.          Wed Dec 14 23:52:42 2005: LOG DATE
UWI.           05 071 08615 00: UNIQUE WELL ID
~Curve Information Block
DEPT.FT            0 000 00 00: Depth
SN.Ohm-m                      : IEL Short Normal
SP.mV                         : IEL Spontaneous Potential
DIR.Ohm-m                     : IEL Induction Resistivity
GR.GAPI                       : Gamma Ray
~Parameter Information Block
~A  Depth        SN          SP         DIR          GR     
   555.0000   2000.0000   2000.0000    158.4953     62.7795
   555.2500   2000.0000   2000.0000    147.2315     66.5361
   555.5000   2000.0000   2000.0000    135.8981     73.0935
   555.7500   2000.0000   2000.0000    125.8193     77.3162
   556.0000   2000.0000   2000.0000    116.2288     82.0031
   556.2500   2000.0000   2000.0000    105.8961     83.5847
   556.5000   2000.0000   2000.0000     94.7327     83.9928
   556.7500   2000.0000   2000.0000     83.9571     83.6117
   557.0000   2000.0000   2000.0000     74.9193     83.1867
   557.2500   2000.0000   2000.0000     68.2207     83.3670
   557.5000   2000.0000   2000.0000     63.7356     84.4032
   557.7500   2000.0000   2000.0000     60.9959     85.4750
   558.0000   2000.0000   2000.0000     59.4664     87.5310
   558.2500   2000.0000   2000.0000     58.6674     89.2517
   558.5000   2000.0000   2000.0000     58.2230     92.2972
   558.7500   2000.0000   2000.0000     57.9226     94.2903
   559.0000   2000.0000   2000.0000     57.8028     96.2177
   559.2500   2000.0000   2000.0000     58.1770     96.3093
   559.5000   2000.0000   2000.0000     59.5711     94.5422
   559.7500   2000.0000   2000.0000     62.6053     92.4368
   560.0000   2000.0000   2000.0000     67.8495     88.6179
   560.2500   2000.0000   2000.0000     75.5966     85.8236
   560.5000   2000.0000   2000.0000     85.4357     81.1387
   560.7500   2000.0000   2000.0000     95.7272     77.6595
   561.0000   2000.0000   2000.0000    103.6057     72.5424
   561.2500   2000.0000   2000.0000    106.1249     69.9317
   561.5000   2000.0000   2000.0000    102.0082     68.2396
   561.7500   2000.0000   2000.0000     92.6310     68.6311
   562.0000   2000.0000   2000.0000     81.3168     70.8133
   562.2500   2000.0000   2000.0000     71.3234     72.9142
   562.5000   2000.0000   2000.0000     64.3944     76.4336
   562.7500   2000.0000   2000.0000     60.8018     78.5262
   563.0000   2000.0000   2000.0000     59.9106     80.3049
   563.2500   2000.0000   2000.0000     60.5065     80.3821
   563.5000   2000.0000   2000.0000     61.0510     79.5598
   563.7500   2000.0000   2000.0000     60.3224     79.1603
   564.0000   2000.0000   2000.0000     58.1909     79.8809
   564.2500   2000.0000   2000.0000     55.7090     81.5044
   564.5000   2000.0000   2000.0000     54.6300     85.3151
   564.7500   2000.0000   2000.0000     57.3827     88.1450
   565.0000   2000.0000   2000.0000     68.9477     91.5234
   565.2500   2000.0000   2000.0000    108.5272     92.7585
   565.5000   2000.0000   2000.0000    461.8004     93.3187
   565.7500   2000.0000   2000.0000 100000.0000     93.3666
   566.0000   2000.0000   2000.0000 100000.0000     93.8372
   566.2500   2000.0000   2000.0000 100000.0000     94.6356
   566.5000   2000.0000   2000.0000 100000.0000     96.4915
   566.7500   2000.0000   2000.0000 100000.0000     98.0676
   567.0000   2000.0000   2000.0000 100000.0000    100.6213
   567.2500   2000.0000   2000.0000 100000.0000    101.9213
   567.5000   2000.0000   2000.0000 100000.0000    101.8859
   567.7500   2000.0000   2000.0000 100000.0000     99.9642
   568.0000   2000.0000   2000.0000 100000.0000     94.3516
   568.2500   2000.0000   2000.0000 100000.0000     89.3867
   568.5000   2000.0000   2000.0000 100000.0000     81.5382
   568.7500   2000.0000   2000.0000 100000.0000     76.9106
   569.0000   2000.0000   2000.0000 100000.0000     71.9236
   569.2500   2000.0000   2000.0000 100000.0000     70.0108
   569.5000   2000.0000   2000.0000 100000.0000     68.8245
   569.7500   2000.0000   2000.0000 100000.0000     68.8878
   570.0000   2000.0000   2000.0000 100000.0000     70.1287
   570.2500   2000.0000   2000.0000 100000.0000     71.8055
   570.5000   2000.0000   2000.0000 100000.0000     75.9225
   570.7500   2000.0000   2000.0000 100000.0000     79.9414
   571.0000   2000.0000   2000.0000 100000.0000     87.8914
   571.2500   2000.0000   2000.0000 100000.0000     94.0717
   571.5000   2000.0000   2000.0000 100000.0000    103.2645
   571.7500   2000.0000   2000.0000 100000.0000    108.3956
   572.0000   2000.0000   2000.0000     58.5547    113.6255
   572.2500   2000.0000   2000.0000      7.2497    115.5592
   572.5000   2000.0000   2000.0000      4.0355    116.9647
   572.7500   2000.0000   2000.0000      3.1549    117.2921
   573.0000   2000.0000   2000.0000      2.9676    117.0791
   573.2500   2000.0000   2000.0000      3.1371    116.5894
   573.5000   2000.0000   2000.0000      3.5815    115.8115
   573.7500   2000.0000   2000.0000      4.3433    115.5182
   574.0000   2000.0000   2000.0000      5.6386    115.5093
   574.2500   2000.0000   2000.0000      8.0331    115.7459
   574.5000   2000.0000   2000.0000     12.8348    116.3752
   574.7500   2000.0000   2000.0000     22.1256    116.8325
   575.0000   2000.0000   2000.0000     32.2918    117.0674
   575.2500   2000.0000   2000.0000     29.2243    116.6596
   575.5000   2000.0000   2000.0000     20.4234    115.2330
   575.7500   2000.0000   2000.0000     14.8971    114.0229
   576.0000   2000.0000   2000.0000     12.1576    112.3016
   576.2500   2000.0000   2000.0000     10.9089    111.3894
   576.5000   2000.0000   2000.0000     10.4284    110.8123
   576.7500   2000.0000   2000.0000     10.3446    111.4116
   577.0000   2000.0000   2000.0000     10.4687    114.5126
   577.2500   2000.0000   2000.0000     10.7150    118.0771
   577.5000   2000.0000   2000.0000     11.0578    124.7650
   577.7500   2000.0000   2000.0000     11.5186    129.2257
   578.0000   2000.0000   2000.0000     12.1617    134.5573
   578.2500   2000.0000   2000.0000     13.0755    136.8412
   578.5000   2000.0000   2000.0000     14.3184    138.5691
   578.7500   2000.0000   2000.0000     15.8338    138.9735
   579.0000   2000.0000   2000.0000     17.3837    138.9993
   579.2500   2000.0000   2000.0000     18.6077    138.7451
   579.5000   2000.0000   2000.0000     19.2456    138.1116
   579.7500   2000.0000   2000.0000     19.3017    137.7087
   580.0000   2000.0000   2000.0000     18.9551    137.2985
   580.2500   2000.0000   2000.0000     18.3802    136.9846
   580.5000   2000.0000   2000.0000     17.6848    136.0173
   580.7500   2000.0000   2000.0000     16.9525    134.9838
   581.0000   2000.0000   2000.0000     16.2816    133.1755
   581.2500   2000.0000   2000.0000     15.7752    132.0178
   581.5000   2000.0000   2000.0000     15.5009    130.4086
   581.7500   2000.0000   2000.0000     15.4645    129.2844
   582.0000   2000.0000   2000.0000     15.6070    127.2813
   582.2500   2000.0000   2000.0000     15.8239    125.6904
   582.5000   2000.0000   2000.0000     15.9964    123.1191
   582.7500   2000.0000   2000.0000     16.0266    121.6192
   583.0000   2000.0000   2000.0000     15.8665    120.2738
   583.2500   2000.0000   2000.0000     15.5292    119.9015
   583.5000   2000.0000   2000.0000     15.0716    119.0980
   583.7500   2000.0000   2000.0000     14.5607    117.8074
   584.0000   2000.0000   2000.0000     14.0459    114.9419
   584.2500   2000.0000   2000.0000     13.5518    113.3383
   584.5000   2000.0000   2000.0000     13.0884    113.3455
   584.7500   2000.0000   2000.0000     12.6612    115.5240
   585.0000   2000.0000   2000.0000     12.2746    121.3121
   585.2500   2000.0000   2000.0000     11.9292    125.7334
   585.5000   2000.0000   2000.0000     11.6181    131.3217
   585.7500   2000.0000   2000.0000     11.3291    133.6691
   586.0000   2000.0000   2000.0000     11.0506    134.6892
   586.2500   2000.0000   2000.0000     10.7779    133.8225
   586.5000   2000.0000   2000.0000     10.5175    131.0784
   586.7500   2000.0000   2000.0000     10.2848    129.1533
   587.0000   2000.0000   2000.0000     10.0977    127.8146
   587.2500   2000.0000   2000.0000      9.9701    128.6230
   587.5000   2000.0000   2000.0000      9.9080    132.0961
   587.7500   2000.0000   2000.0000      9.9110    134.8809
   588.0000   2000.0000   2000.0000      9.9754    137.7659
   588.2500   2000.0000   2000.0000     10.0976    138.3702
