~Version Information
VERS.                      2.0: CWLS Log ASCII Standard - VERSION 2.0
WRAP.                       NO: One line per depth step
~Well Information Block
STRT.FT                 0.0000: 
STOP.FT              1674.7500: 
STEP.FT                 0.2500: 
NULL.                -999.2500: 
COMP.          Pioneer Natural Resources: COMPANY
WELL.          Culver 14-12 Tr: WELL
FLD.           Purgatorie River: FIELD
LOC.           915' FSL & 1048' FWL: LOCATION
STAT.                 Colorado: Colorado
CNTY.               Las Animas: COUNTY
CTRY. USA : Country
SECT. 12 : Section
TOWN. 32S : Township
RANG. 66W : Range
SRVC.                Patterson: SERVICE COMPANY
DATE.          Mon Oct 03 12:52:29 2005: LOG DATE
API. 05-071-08520                         : UNIQUE WELL ID
~Curve Information Block
DEPT.FT            0 000 00 00: Depth
CCL.                          : Casing Collar Locator
TT3.usec                      : CBL 3' Travel Time
AMP3.mV                       : CBL 3' Amplitude
GR.GAPI                       : Gamma Ray
~Parameter Information Block
~A  Depth       CCL         TT3         AMP3         GR     
# ...
  1541.0000      0.0000    748.5035      8.4090    135.2237
  1541.2500      0.0000    750.4292      8.4995    134.8902
  1541.5000      0.0000    754.6826      8.5698    134.4023
  1541.7500      0.0000    760.8129      8.4642    133.8751
  1542.0000      0.0000    763.2936      8.0572    133.4421
  1542.2500      0.0000    755.8782      7.3106    133.2575
  1542.5000      0.0000    741.9529      6.3187    133.0080
  1542.7500      0.0000    733.0122      5.3389    131.5018
  1543.0000      0.0000    734.8083      4.6051    126.9738
  1543.2500      0.0000    742.3754      4.0917    118.0950
  1543.5000      0.0000    748.2773      3.6270    105.1439
  1543.7500      0.0000    751.5055      3.1216     90.3463
  1544.0000      0.0000    756.1134      2.5794     76.7707
  1544.2500      0.0000    759.3214      2.0282     66.6913
  1544.5000      0.0000    749.8383      1.5011     60.7890
  1544.7500      0.0000    726.7676      1.0606     58.2984
  1545.0000      0.0000    711.2808      0.8316     57.6560
  1545.2500      0.0000    730.2717      0.9578     57.5687
  1545.5000      0.0000    785.6918      1.4781     57.8790
  1545.7500      0.0000    841.6804      2.2848     59.4045
  1546.0000      0.0000    860.4731      3.2652     63.0462
  1546.2500      0.0000    843.0261      4.4650     69.1613
  1546.5000      0.0000    813.3033      6.0400     77.3030
  1546.7500      0.0000    792.0963      8.0538     85.9330
  1547.0000      0.0000    789.5522     10.4262     92.6104
  1547.2500      0.0000    790.9932     13.0995     95.4592
  1547.5000      0.0000    761.6777     16.1577     94.8413
  1547.7500      0.0000    683.8533     19.5941     93.0596
  1548.0000      0.0000    580.9650     22.8424     92.2899
  1548.2500      0.0000    495.9044     24.9318     93.2159
  1548.5000      0.0000    449.8392     25.3290     95.4228
  1548.7500      0.0000    435.3829     24.2801     98.2187
  1549.0000      0.0000    442.9821     22.4195    100.8182
  1549.2500      0.0000    477.7135     20.3126    102.3406
  1549.5000      0.0000    545.5788     18.2360    102.2604
  1549.7500      0.0000    627.5429     16.1837    101.0167
  1550.0000      0.0000    687.0806     14.0098     99.9217
  1550.2500      0.0000    708.7455     11.7343    100.1950
  1550.5000      0.0000    708.4291      9.8831    101.9477
  1550.7500      0.0000    710.3403      9.0447    104.0556
  1551.0000      0.0000    727.8690      8.9135    104.9354
  1551.2500      0.0000    756.8688      8.7131    103.4904
  1551.5000      0.0000    782.8332      8.3490     99.6853
  1551.7500      0.0000    798.1205      8.1225     94.6870
  1552.0000      0.0000    805.7362      8.0326     90.6257
  1552.2500      0.0000    806.4199      7.9466     89.9110
  1552.5000     -2.0000    800.7643      7.8486     94.0767
  1552.7500      0.0000    799.3840      7.7546    102.6396
  1553.0000      0.0000    805.2623      7.6822    112.9841
  1553.2500      0.0000    804.6750      7.7888    121.7117
  1553.5000      0.0000    791.0892      8.1627    126.3956
  1553.7500      0.0000    773.2823      8.4186    126.3475
  1554.0000      0.0000    760.2393      8.3021    122.3149
  1554.2500      0.0000    753.4747      8.3563    115.9110
  1554.5000      0.0000    749.1528      8.9905    108.9981
  1554.7500      0.0000    742.4136      9.7810    102.9377
  1555.0000      0.0000    732.0771     10.2362     98.1086
  1555.2500      0.0000    722.5826     10.3525     94.0933
  1555.5000      0.0000    719.4155     10.3433     90.2404
  1555.7500      0.0000    725.4125     10.3430     86.1027
  1556.0000      0.0000    740.4000     10.3684     81.7272
  1556.2500      0.0000    757.6623     10.3864     77.7436
  1556.5000      0.0000    764.6331     10.3743     74.8943
  1556.7500      0.0000    754.2576     10.3167     73.3065
  1557.0000      0.0000    734.9329     10.1990     72.4855
  1557.2500      0.0000    725.2923     10.0373     72.1485
  1557.5000      0.0000    735.7639      9.8740     72.7425
  1557.7500      0.0000    758.1843      9.7564     74.9644
  1558.0000      0.0000    777.4288      9.7266     78.8581
  1558.2500      0.0000    787.2073      9.7846     83.3201
  1558.5000      0.0000    790.3712      9.8696     86.3792
  1558.7500      0.0000    791.0687      9.9105     86.2458
  1559.0000      0.0000    791.3161      9.8777     82.5477
  1559.2500      0.0000    791.6810      9.7698     76.6230
  1559.5000      0.0000    792.2218      9.5992     70.4309
  1559.7500      0.0000    792.7796      9.4216     65.1330
  1560.0000      0.0000    793.1082      9.3217     60.7938
  1560.2500      0.0000    793.1917      9.3397     57.4076
  1560.5000      0.0000    793.2933      9.4695     55.9710
  1560.7500      0.0000    793.5182      9.7079     58.3043
  1561.0000      0.0000    793.6371     10.0223     65.7960
  1561.2500      0.0000    793.4644     10.3128     78.4710
  1561.5000      0.0000    793.1665     10.4763     95.0298
  1561.7500      0.0000    792.9447     10.4819    113.0956
  1562.0000      0.0000    792.2474     10.3800    129.2086
  1562.2500      0.0000    789.5347     10.2703    139.5792
  1562.5000      0.0000    783.5753     10.2376    142.3414
  1562.7500      0.0000    774.7109     10.2908    139.5260
  1563.0000      0.0000    764.6429     10.3561    135.9778
  1563.2500      0.0000    756.8657     10.3420    135.4624
  1563.5000      0.0000    755.2480     10.2374    137.7871
  1563.7500      0.0000    759.6109     10.1197    139.8676
  1564.0000      0.0000    765.8448     10.0367    139.1779
  1564.2500      0.0000    770.0136      9.9432    135.7704
  1564.5000      0.0000    772.0046      9.8005    131.3928
  1564.7500      0.0000    775.4770      9.6713    127.3740
  1565.0000      0.0000    781.9918      9.6580    123.4284
  1565.2500      0.0000    788.5410      9.7781    118.2954
  1565.5000      0.0000    792.3836      9.9538    111.4399
  1565.7500      0.0000    793.5874     10.1150    103.9649
  1566.0000      0.0000    792.8626     10.2648     97.8020
  1566.2500      0.0000    790.2213     10.4543     94.2803
  1566.5000      0.0000    786.4252     10.7119     93.5274
  1566.7500      0.0000    783.9301     10.9908     94.9035
  1567.0000      0.0000    783.7888     11.1920     97.9620
  1567.2500      0.0000    784.2699     11.2729    103.1520
  1567.5000      0.0000    785.2640     11.3074    111.2922
  1567.7500      0.0000    788.3707     11.3835    122.0122
  1568.0000      0.0000    792.4971     11.5172    133.0718
  1568.2500      0.0000    795.2900     11.6848    141.8417
  1568.5000      0.0000    796.6176     11.8418    147.3775
  1568.7500      0.0000    798.1746     11.9513    150.6145
  1569.0000      0.0000    801.6866     12.0311    152.6405
  1569.2500      0.0000    806.6826     12.1154    153.3229
  1569.5000      0.0000    809.6821     12.1969    151.6688
  1569.7500      0.0000    809.0512     12.2610    146.9142
  1570.0000      0.0000    809.2203     12.3302    138.8469
  1570.2500      0.0000    815.2789     12.4487    127.6777
  1570.5000      0.0000    826.2486     12.6481    114.5350
  1570.7500      0.0000    838.0694     12.9206    101.9596
  1571.0000      0.0000    850.0700     13.2252     93.0000
  1571.2500      0.0000    862.0043     13.5231     89.3356
  1571.5000      0.0000    867.3007     13.7878     90.2690
  1571.7500      0.0000    859.8236     14.0035     93.4469
  1572.0000      0.0000    845.2421     14.1601     96.5270
  1572.2500      0.0000    835.4940     14.2210     98.4273
  1572.5000      0.0000    834.9763     14.1418     99.3621
  1572.7500      0.0000    838.3743     13.9536    100.0490
  1573.0000      0.0000    839.5366     13.7599    100.8630
  1573.2500      0.0000    838.0248     13.6367    101.3935
  1573.5000      0.0000    838.4423     13.5588    100.7122
  1573.7500      0.0000    847.0892     13.4325     98.2979
  1574.0000      0.0000    870.5201     13.2052     94.6641
  1574.2500      0.0000    910.9703     12.9209     90.9096
