~Version Information
VERS.                      2.0: CWLS Log ASCII Standard - VERSION 2.0
WRAP.                       NO: One line per depth step
~Well Information Block
STRT.FT                -8.5000: 
STOP.FT              2030.0000: 
STEP.FT                 0.2500: 
NULL.                -999.2500: 
COMP.          Pioneer Natural Resources: COMPANY
WELL.           Alabaster 11-8: WELL
FLD.           Purgatorie River: FIELD
LOC.           1249' FNL & 215' FWL--: LOCATION
PROV.                       CO: PROVINCE
CNTY.               Las Animas: COUNTRY
SRVC.          Patterson Wireline: SERVICE COMPANY
DATE.          Mon Jan 30 11:59:01 2006: LOG DATE
UWI.           05 071 08642 00: UNIQUE WELL ID
~Curve Information Block
DEPT.FT            0 000 00 00: Depth
CCL.                          : Casing Collar Locator
TT3.usec                      : CBL 3' Travel Time
AMP3.mV                       : CBL 3' Amplitude
GR.GAPI                       : Gamma Ray
~Parameter Information Block
~A  Depth       CCL         TT3         AMP3         GR     
# ...
  2001.5000      0.0000    306.6969     20.9331     67.5099
  2001.7500      0.0000    306.5659     20.9546     70.4673
  2002.0000      0.0000    306.4569     20.9957     73.2259
  2002.2500      0.0000    306.4234     21.0435     75.1468
  2002.5000      0.0000    306.4996     21.0794     76.1470
  2002.7500      0.0000    306.6843     21.0761     76.5967
  2003.0000      0.0000    306.9337     21.0105     77.0470
  2003.2500      0.0000    307.1684     20.8903     78.0892
  2003.5000      0.0000    307.3082     20.7643     80.2846
  2003.7500      0.0000    307.3160     20.7018     83.8771
  2004.0000      0.0000    307.2135     20.7572     88.6207
  2004.2500      0.0000    307.0566     20.9407     94.1592
  2004.5000      0.0000    306.8956     21.2168    100.2915
  2004.7500      0.0000    306.7489     21.5299    106.3427
  2005.0000      0.0000    306.6093     21.8353    110.5704
  2005.2500      0.0000    306.4745     22.1080    111.0050
  2005.5000      0.0000    306.3727     22.3328    107.1303
  2005.7500      0.0000    306.3499     22.4962    100.5822
  2006.0000      0.0000    306.4312     22.5931     94.1373
  2006.2500      0.0000    306.5901     22.6393     89.9597
  2006.5000      0.0000    306.7632     22.6689     88.4896
  2006.7500      0.0000    306.9020     22.7106     88.5469
  2007.0000      0.0000    307.0128     22.7679     88.3671
  2007.2500      0.0000    307.1356     22.8275     86.8972
  2007.5000      0.0000    307.2869     22.8856     84.5093
  2007.7500      0.0000    307.4318     22.9577     82.4844
  2008.0000      0.0000    307.5151     23.0602     81.6630
  2008.2500      0.0000    307.5134     23.1890     81.7683
  2008.5000      0.0000    307.4512     23.3194     82.2121
  2008.7500      0.0000    307.3760     23.4235     83.1206
  2009.0000      0.0000    307.3247     23.4844     85.0368
  2009.2500      0.0000    307.3107     23.4999     87.8497
  2009.5000      0.0000    307.3300     23.4756     90.5834
  2009.7500      0.0000    307.3717     23.4169     92.2991
  2010.0000      0.0000    307.4217     23.3279     92.8543
  2010.2500      0.0000    307.4614     23.2205     92.6638
  2010.5000      0.0000    307.4716     23.1207     91.9802
  2010.7500      0.0000    307.4405     23.0610     90.7838
  2011.0000      0.0000    307.3638     23.0621     89.4539
  2011.2500      0.0000    307.2381     23.1214     89.0238
  2011.5000      0.0000    307.0632     23.2158     90.2884
  2011.7500      0.0000    306.8550     23.3107     92.8291
  2012.0000      0.0000    306.6494     23.3691     95.2382
  2012.2500      0.0000    306.4870     23.3612     96.2665
  2012.5000      0.0000    306.3893     23.2818     95.7502
  2012.7500      0.0000    306.3410     23.1628     94.5131
  2013.0000      0.0000    306.2589     23.0987     93.4311
  2013.2500      0.0000    305.9128     23.3115     92.7744
  2013.5000      0.0000    304.7896     24.2614     92.4926
  2013.7500      0.0000    302.0573     26.6617     92.6802
  2014.0000      0.0000    296.9383     31.1458     93.3869
  2014.2500      0.0000    289.4907     37.6107     94.2419
  2014.5000      0.0000    281.0584     44.8694     94.4386
  2014.7500      0.0000    273.6236     51.2280     92.9328
  2015.0000      0.0000    268.5154     55.5772     88.9282
  2015.2500      0.0000    265.7770     57.9062     82.5573
  2015.5000      0.0000    264.6286     58.8967     74.7077
  2015.7500      0.0000    264.2496     59.2545     65.7884
  2016.0000      0.0000    264.1497     59.3981     55.1429
  2016.2500      0.0000    264.1280     59.4993     42.2671
  2016.5000      0.0000    264.1234     59.6103     28.3764
  2016.7500      0.0000    264.1228     59.7377     16.1028
  2017.0000      0.0000    264.1232     59.8725      7.5273
  2017.2500      0.0000    264.1242     60.0037      2.8480
  2017.5000      0.0000    264.1245     60.1326      0.8617
  2017.7500      0.0000    264.1222     60.2805      0.2066
  2018.0000      0.0000    264.1150     60.4870      0.0386
  2018.2500      0.0000    264.1009     60.7858      0.0054
  2018.5000      0.0000    264.0807     61.1656      0.0000
  2018.7500      0.0000    264.0599     61.5470   -999.2500
  2019.0000      0.0000    264.0472     61.8037   -999.2500
  2019.2500      0.0000    264.0530     61.7997   -999.2500
  2019.5000      0.0000    264.0873     61.4161   -999.2500
  2019.7500      0.0000    264.1415     60.5680   -999.2500
  2020.0000      0.0000    264.1425     59.2189   -999.2500
  2020.2500      0.0000    263.7238     57.3294   -999.2500
  2020.5000      0.0000    261.6317     54.7025   -999.2500
  2020.7500      0.0000    254.7686     50.8245   -999.2500
  2021.0000      0.0000    237.9162     44.9730   -999.2500
  2021.2500      0.0000    206.0896     36.7577   -999.2500
  2021.5000      0.0000    159.5145     26.7850   -999.2500
  2021.7500      0.0000    106.5624     16.7398   -999.2500
  2022.0000      0.0000     59.7394      8.5310   -999.2500
  2022.2500      0.0000     27.5196      3.1636   -999.2500
  2022.5000      0.0000     10.2607      0.3810   -999.2500
  2022.7500      0.0000      3.0629     -0.7557   -999.2500
  2023.0000      0.0000      0.7254     -1.1200   -999.2500
  2023.2500      0.0000      0.1343     -1.2114   -999.2500
  2023.5000      0.0000      0.0179     -1.2292   -999.2500
  2023.7500      0.0000   -999.2500   -999.2500   -999.2500
  2024.0000      0.0000   -999.2500   -999.2500   -999.2500
  2024.2500      0.0000   -999.2500   -999.2500   -999.2500
  2024.5000      0.0000   -999.2500   -999.2500   -999.2500
  2024.7500      0.0000   -999.2500   -999.2500   -999.2500
  2025.0000      0.0000   -999.2500   -999.2500   -999.2500
  2025.2500      0.0000   -999.2500   -999.2500   -999.2500
  2025.5000      0.0000   -999.2500   -999.2500   -999.2500
  2025.7500      0.0000   -999.2500   -999.2500   -999.2500
  2026.0000      0.0000   -999.2500   -999.2500   -999.2500
  2026.2500      0.0000   -999.2500   -999.2500   -999.2500
  2026.5000      0.0000   -999.2500   -999.2500   -999.2500
  2026.7500      0.0000   -999.2500   -999.2500   -999.2500
  2027.0000      0.0000   -999.2500   -999.2500   -999.2500
  2027.2500      0.0000   -999.2500   -999.2500   -999.2500
  2027.5000      0.0000   -999.2500   -999.2500   -999.2500
  2027.7500      0.0000   -999.2500   -999.2500   -999.2500
  2028.0000      0.0000   -999.2500   -999.2500   -999.2500
  2028.2500      0.0000   -999.2500   -999.2500   -999.2500
  2028.5000      0.0000   -999.2500   -999.2500   -999.2500
  2028.7500      0.0000   -999.2500   -999.2500   -999.2500
  2029.0000      0.0000   -999.2500   -999.2500   -999.2500
  2029.2500      0.0000   -999.2500   -999.2500   -999.2500
  2029.5000   -999.2500   -999.2500   -999.2500   -999.2500
  2029.7500   -999.2500   -999.2500   -999.2500   -999.2500
  2030.0000   -999.2500   -999.2500   -999.2500   -999.2500
