~Version Information
VERS.                      2.0: CWLS Log ASCII Standard - VERSION 2.0
WRAP.                       NO: One line per depth step
~Well Information Block
STRT.FT               505.0000: 
STOP.FT               770.5000: 
STEP.FT                 0.1000: 
NULL.                -999.2500: 
COMP.          Pioneer Natural Resources: COMPANY
WELL.                Zed 11-23: WELL
FLD.           Purgatoire River: FIELD
LOC.           641' FNL & 952' FWL: LOCATION
CNTY.               Las Animas: COUNTY
SRVC.                Patterson: SERVICE COMPANY
DATE.          Mon Feb 27 07:12:43 2006: LOG DATE
UWI.           05 071 08702 00: UNIQUE WELL ID
STAT.                 Colorado: STATE
~Curve Information Block
DEPT.FT            0 000 00 00: Depth
DCAL.in                       : CDL Caliper
RHOB.g/cc                     : CDL Bulk Density
RHOC.g/cc                     : CDL Density Correction
DPOR.pu                       : CDL Density Porosity
GR.GAPI                       : Gamma Ray
NPOR.pu                       : Neutron Porosity
~Parameter Information Block
~A  Depth       DCAL        RHOB        RHOC        DPOR         GR         NPOR    
# ...
   725.8000      7.8874      2.4669      0.0345     11.0954    107.1149     27.8141
   725.9000      7.8874      2.4712      0.0701     10.8346    113.9863     27.6293
   726.0000      7.8872      2.4699      0.1210     10.9126    121.3068     26.3938
   726.1000      7.8872      2.4623      0.0911     11.3780    123.1702     25.2493
   726.2000      7.8872      2.4609      0.0440     11.4606    117.8391     24.5897
   726.3000      7.8813      2.4700      0.0837     10.9116    112.6126     24.0737
   726.4000      7.8813      2.4743      0.0756     10.6504    111.2738     23.9752
   726.5000      7.8809      2.4653      0.0684     11.1920    110.2671     24.6877
   726.6000      7.8809      2.4548      0.0212     11.8280    107.3360     25.5548
   726.7000      7.8809      2.4485      0.0748     12.2106    108.2187     25.4221
   726.8000      7.8786      2.4425      0.0329     12.5781    115.6601     24.3440
   726.9000      7.8786      2.4472      0.0003     12.2887    120.8862     23.8033
   727.0000      7.8897      2.4678      0.0633     11.0427    119.5495     24.2919
   727.1000      7.8897      2.4787      0.0831     10.3823    116.1146     24.7082
   727.2000      7.8897      2.4611      0.0349     11.4500    112.5396     24.9728
   727.3000      7.9024      2.4283      0.0450     13.4353    110.4986     25.8273
   727.4000      7.9024      2.4029      0.0039     14.9764    110.0959     26.8125
   727.5000      7.9004      2.4034     -0.0109     14.9445    105.7185     26.9905
   727.6000      7.9004      2.4325      0.0032     13.1793     95.5594     26.5330
   727.7000      7.9004      2.4663      0.0943     11.1306     87.3294     26.1521
   727.8000      7.9027      2.4786      0.0446     10.3860     89.5304     26.1274
   727.9000      7.9027      2.4708      0.0372     10.8602     98.3018     26.2391
   728.0000      7.8917      2.4589      0.0481     11.5843    102.4054     26.1190
   728.1000      7.8917      2.4484      0.0244     12.2186    101.2859     26.1851
   728.2000      7.8917      2.4384      0.0264     12.8238     99.8518     26.8249
   728.3000      7.9301      2.4401     -0.0067     12.7240     98.5494     27.6208
   728.4000      7.9301      2.4625      0.0271     11.3636     99.3674     27.9327
   728.5000      7.9410      2.4833      0.0670     10.1057    102.1311     27.2768
   728.6000      7.9410      2.4833      0.0058     10.1053    100.5717     26.1304
   728.7000      7.9410      2.4766      0.0361     10.5094     95.9221     25.3206
   728.8000      7.9427      2.4711      0.0302     10.8419     96.5754     25.0395
   728.9000      7.9427      2.4575      0.0273     11.6660    102.0716     25.2578
   729.0000      7.9400      2.4364      0.0239     12.9446    106.9552     25.3605
   729.1000      7.9400      2.4247     -0.0205     13.6538    111.5996     24.9523
   729.2000      7.9400      2.4366     -0.0105     12.9310    113.9923     24.7978
   729.3000      7.9385      2.4606      0.0765     11.4771    109.9621     25.4425
   729.4000      7.9385      2.4741      0.0524     10.6631    106.6765     26.2367
   729.5000      7.9356      2.4778      0.0297     10.4390    108.8326     26.1703
   729.6000      7.9356      2.4802      0.0463     10.2903    110.4713     25.1189
   729.7000      7.9356      2.4762      0.0428     10.5355    110.8151     23.9808
   729.8000      7.9210      2.4650      0.0481     11.2141    114.3864     23.7968
   729.9000      7.9210      2.4641     -0.0038     11.2638    120.8192     24.8311
   730.0000      7.9124      2.4812      0.0711     10.2274    125.7243     25.7769
   730.1000      7.9124      2.4952      0.0496      9.3819    126.3621     25.0791
   730.2000      7.9124      2.4961      0.0348      9.3267    122.1627     23.6855
   730.3000      7.9246      2.4928      0.0678      9.5298    116.3483     23.3383
   730.4000      7.9246      2.4876      0.0393      9.8418    115.2079     23.5405
   730.5000      7.9254      2.4825      0.0665     10.1488    118.7239     23.7190
   730.6000      7.9254      2.4785      0.0566     10.3936    119.4105     24.6302
   730.7000      7.9254      2.4719      0.0141     10.7963    114.0163     25.9078
   730.8000      7.9156      2.4620      0.0552     11.3964    109.9796     26.2661
   730.9000      7.9156      2.4520      0.0522     11.9972    112.9446     25.7633
   731.0000      7.8903      2.4501      0.0373     12.1174    114.4541     25.2470
   731.1000      7.8903      2.4645      0.0229     11.2442    109.8641     25.0086
   731.2000      7.8903      2.4942      0.0382      9.4421    106.1561     25.0119
   731.3000      7.8506      2.5295      0.0931      7.3025    106.9799     25.4828
   731.4000      7.8506      2.5610      0.1180      5.3940    108.8517     26.2570
   731.5000      7.8328      2.5828      0.1074      4.0745    109.4248     26.2887
   731.6000      7.8328      2.5953      0.0990      3.3130    112.8059     25.1462
   731.7000      7.8328      2.6054      0.0973      2.7044    120.4470     24.0592
   731.8000      7.8332      2.6052      0.1858      2.7150    127.4819     23.9406
   731.9000      7.8332      2.5851      0.0559      3.9350    133.0504     24.1949
   732.0000      7.8317      2.5629      0.0912      5.2788    137.4356     24.3144
   732.1000      7.8317      2.5524      0.0707      5.9123    137.8853     24.3515
   732.2000      7.8317      2.5389      0.0644      6.7353    134.1723     24.1588
   732.3000      7.8311      2.5079      0.0498      8.6095    129.1347     23.7725
   732.4000      7.8311      2.4746     -0.0255     10.6278    128.8197     23.6476
   732.5000      7.8841      2.4614     -0.0130     11.4294    134.2532     24.1209
   732.6000      7.8841      2.4612      0.0485     11.4401    139.3189     24.7834
   732.7000      7.8841      2.4548      0.0232     11.8331    140.1288     24.7788
   732.8000      7.9524      2.4435      0.0164     12.5172    133.1759     24.0651
   732.9000      7.9524      2.4372      0.0110     12.8999    118.9995     23.5354
   733.0000      7.9435      2.4383      0.0528     12.8312    104.9793     23.8223
   733.1000      7.9435      2.4477      0.0438     12.2612     97.7687     24.5424
   733.2000      7.9435      2.4614      0.0861     11.4318     97.6774     25.0771
   733.3000      7.9231      2.4658      0.0792     11.1657     99.0773     25.5361
   733.4000      7.9231      2.4553      0.0948     11.8019     97.4795     25.8360
   733.5000      7.8883      2.4402      0.0459     12.7135     93.3749     25.5207
   733.6000      7.8883      2.4314      0.0393     13.2461     89.5546     24.9918
   733.7000      7.8883      2.4317      0.0403     13.2319     89.1780     24.9469
   733.8000      7.8621      2.4412      0.0672     12.6558     91.8962     25.1494
   733.9000      7.8621      2.4566      0.0806     11.7203     95.0484     25.0881
   734.0000      7.8732      2.4698      0.0977     10.9221    101.1258     24.8709
   734.1000      7.8732      2.4745      0.0996     10.6348    108.4406     24.5027
   734.2000      7.8732      2.4731      0.0886     10.7206    109.4277     24.0302
   734.3000      7.8653      2.4718      0.0876     10.7970    105.9652     24.1166
   734.4000      7.8653      2.4762      0.0564     10.5351    105.8687     24.7911
   734.5000      7.8637      2.4847      0.1136     10.0162    106.6811     25.0370
   734.6000      7.8637      2.4804      0.1229     10.2803    102.8150     24.5936
   734.7000      7.8637      2.4547      0.0705     11.8368     99.6591     23.9076
   734.8000      7.8630      2.4277      0.0063     13.4717    103.0557     23.0610
   734.9000      7.8630      2.4200      0.0212     13.9403    110.4354     22.3120
   735.0000      7.8722      2.4280      0.0424     13.4519    117.6536     22.3952
   735.1000      7.8722      2.4358      0.0737     12.9814    121.4657     23.3506
   735.2000      7.8722      2.4309      0.0895     13.2806    116.0739     24.4421
   735.3000      7.8767      2.4169      0.0495     14.1249    102.0506     24.9891
