~Version Information
VERS.                      2.0: CWLS Log ASCII Standard - VERSION 2.0
WRAP.                       NO: One line per depth step
~Well Information Block
STRT.FT                -8.5000: 
STOP.FT              1214.7500: 
STEP.FT                 0.2500: 
NULL.                -999.2500: 
COMP.          Pioneer Natural Resources: COMPANY
WELL.          Rock Island 44-24 Tr: WELL
FLD.           Purgatorie River: FIELD
LOC.           814' FSL & 761' FEL--: LOCATION
CNTY.               Las Animas: COUNTY
SRVC.          Patterson Wireline: SERVICE COMPANY
DATE.          Fri Apr 28 10:23:18 2006: LOG DATE
UWI.           05 071 08680 00: UNIQUE WELL ID
STAT.                       CO: STATE
~Curve Information Block
DEPT.FT            0 000 00 00: Depth
CCL.                          : Casing Collar Locator
TT3.usec                      : CBL 3' Travel Time
AMP3.mV                       : CBL 3' Amplitude
GR.GAPI                       : Gamma Ray
~Parameter Information Block
~A  Depth       CCL         TT3         AMP3         GR     
# ...
   862.5000      0.0000    794.5883      6.5371    114.1114
   862.7500      0.0000    784.2670      6.5490    114.5544
   863.0000      0.0000    769.8342      6.5689    116.7129
   863.2500      0.0000    755.3777      6.5803    120.9765
   863.5000      0.0000    744.6285      6.5572    126.7577
   863.7500      0.0000    737.6497      6.4863    132.3541
   864.0000      0.0000    730.7957      6.3769    136.0583
   864.2500      0.0000    719.8508      6.2513    137.4090
   864.5000      0.0000    703.4315      6.1306    137.2208
   864.7500      0.0000    685.1017      6.0320    136.5280
   865.0000      0.0000    672.7338      5.9762    135.6392
   865.2500      0.0000    673.2148      5.9856    134.3305
   865.5000      0.0000    685.9739      6.0677    133.0349
   865.7500      0.0000    702.9449      6.2030    133.2420
   866.0000      0.0000    715.5733      6.3538    136.0334
   866.2500      0.0000    720.8472      6.4852    140.7472
   866.5000      0.0000    721.0941      6.5789    145.8616
   866.7500      0.0000    720.2234      6.6335    150.6398
   867.0000      0.0000    720.9539      6.6551    155.0170
   867.2500      0.0000    724.2212      6.6488    158.3233
   867.5000      0.0000    729.6036      6.6200    159.1448
   867.7500      0.0000    735.9457      6.5813    156.6472
   868.0000      0.0000    741.9592      6.5509    151.6122
   868.2500      0.0000    746.5001      6.5402    146.1290
   868.5000      0.0000    748.3998      6.5462    142.4827
   868.7500      0.0000    746.3878      6.5571    142.0880
   869.0000      0.0000    739.8495      6.5640    144.6959
   869.2500      0.0000    730.3151      6.5670    148.2110
   869.5000      0.0000    722.2108      6.5711    149.7946
   869.7500      0.0000    721.0350      6.5806    147.7959
   870.0000      0.0000    729.3490      6.5980    142.7645
   870.2500      0.0000    744.0775      6.6261    136.5041
   870.5000      0.0000    758.2731      6.6668    130.2095
   870.7500      0.0000    766.1758      6.7180    123.8451
   871.0000      0.0000    766.8371      6.7757    117.4784
   871.2500      0.0000    763.2957      6.8384    112.6410
   871.5000      0.0000    759.0638      6.9046    111.4880
   871.7500      0.0000    755.6707      6.9651    114.6496
   872.0000      0.0000    752.5479      7.0027    120.5276
   872.2500      0.0000    748.0873      7.0055    126.6547
   872.5000      0.0000    740.8939      6.9761    131.2021
   872.7500      0.0000    730.9887      6.9289    133.2386
   873.0000      0.0000    720.3260      6.8765    132.3767
   873.2500      0.0000    711.8517      6.8225    128.8199
   873.5000      0.0000    707.6273      6.7648    123.4756
   873.7500      0.0000    707.4401      6.7023    117.6227
   874.0000      0.0000    708.8835      6.6363    112.6462
   874.2500      0.0000    708.9068      6.5669    110.1644
   874.5000      0.0000    705.7972      6.4945    111.8008
   874.7500      0.0000    700.0062      6.4257    118.1348
   875.0000      0.0000    692.9038      6.3731    127.6970
   875.2500      0.0000    684.7173      6.3462    137.2673
   875.5000      0.0000    674.5996      6.3350    143.7058
   875.7500      0.0000    663.5373      6.3050    145.9974
   876.0000      0.0000    655.9504      6.2257    145.4951
   876.2500      0.0000    656.2706      6.1109    144.0550
   876.5000      0.0000    664.1403      6.0169    142.0842
   876.7500      0.0000    674.8170      5.9907    138.6101
   877.0000      0.0000    684.0938      6.0311    133.2308
   877.2500      0.0000    690.9471      6.1039    127.5280
   877.5000     -2.0000    696.1416      6.1805    124.0982
   877.7500      2.0000    700.5469      6.2585    124.4156
   878.0000      0.0000    704.3028      6.3646    127.9568
   878.2500      0.0000    705.8828      6.5461    132.9277
   878.5000      0.0000    702.9840      6.8313    137.2060
   878.7500      0.0000    695.6371      7.1674    138.8726
   879.0000      0.0000    687.1613      7.4213    136.7915
   879.2500      0.0000    681.1380      7.4817    131.1553
   879.5000      0.0000    678.5243      7.3549    123.3675
   879.7500      0.0000    678.0505      7.1397    115.3509
   880.0000      0.0000    678.1752      6.9336    108.8830
   880.2500      0.0000    678.1126      6.7837    104.9701
   880.5000      0.0000    677.7289      6.6966    103.1491
   880.7500      0.0000    677.0873      6.6581    101.4460
   881.0000      0.0000    676.1440      6.6435     97.5465
   881.2500      0.0000    674.7051      6.6280     90.3746
   881.5000      0.0000    672.6584      6.5957     80.7090
   881.7500      0.0000    670.1939      6.5418     70.5768
   882.0000      0.0000    667.6367      6.4696     62.2016
   882.2500      0.0000    665.0395      6.3836     57.1726
   882.5000      0.0000    662.2217      6.2837     56.0617
   882.7500      0.0000    659.3282      6.1674     58.5326
   883.0000      0.0000    657.0964      6.0385     63.6415
   883.2500      0.0000    656.4641      5.9105     69.8917
   883.5000      0.0000    657.9600      5.8025     75.3884
   883.7500      0.0000    661.2624      5.7309     78.6681
   884.0000      0.0000    665.2366      5.7033     79.6217
   884.2500      0.0000    668.6390      5.7149     79.2155
   884.5000      0.0000    670.9041      5.7524     78.1071
   884.7500      0.0000    672.3073      5.8056     75.8311
   885.0000      0.0000    673.6115      5.8770     71.6587
   885.2500      0.0000    675.7988      5.9820     66.1243
   885.5000      0.0000    679.9264      6.1378     61.0600
   885.7500      0.0000    686.6918      6.3454     57.8277
   886.0000      0.0000    695.7531      6.5790     56.0200
   886.2500      0.0000    705.4944      6.7942     54.2346
   886.5000      0.0000    713.5945      6.9549     51.6722
   886.7500      0.0000    717.9149      7.0505     48.6507
   887.0000      0.0000    717.2026      7.0869     45.9812
   887.2500      0.0000    711.5037      7.0705     44.3837
   887.5000      0.0000    702.1892      7.0073     44.4228
   887.7500      0.0000    691.6547      6.9125     46.5398
   888.0000      0.0000    682.6132      6.8057     50.9305
   888.2500      0.0000    676.8452      6.6975     57.4413
   888.5000      0.0000    674.3107      6.5851     65.5574
   888.7500      0.0000    673.6658      6.4622     74.3283
   889.0000      0.0000    673.4302      6.3295     82.4917
   889.2500      0.0000    672.4586      6.1973     89.1614
   889.5000      0.0000    669.6910      6.0838     94.5032
   889.7500      0.0000    664.4009      6.0056     99.3225
   890.0000      0.0000    657.4079      5.9602    103.9263
   890.2500      0.0000    651.9636      5.9172    107.9251
   890.5000      0.0000    652.3264      5.8439    111.1727
   890.7500      0.0000    660.5922      5.7418    113.9669
   891.0000      0.0000    675.2885      5.6494    115.9131
   891.2500      0.0000    693.4796      5.6042    115.4447
   891.5000      0.0000    712.9296      5.6090    111.3892
   891.7500      0.0000    730.7988      5.6381    104.8683
   892.0000     -2.0000    741.7939      5.6676     98.9807
   892.2500      0.0000    741.4702      5.6971     96.4973
   892.5000      0.0000    732.6179      5.7476     98.0319
   892.7500      0.0000    725.3392      5.8367    102.0561
   893.0000      0.0000    728.2122      5.9541    106.2356
   893.2500      0.0000    740.5357      6.0688    108.9738
   893.5000      0.0000    754.4242      6.1690    110.2206
   893.7500      0.0000    762.7300      6.2732    111.0028
   894.0000      0.0000    763.6134      6.3920    112.3280
   894.2500      0.0000    759.4381      6.5050    114.6971
   894.5000      0.0000    753.7526      6.5865    118.3422
   894.7500      0.0000    749.3589      6.6370    123.2590
   895.0000      0.0000    747.3552      6.6787    128.8646
   895.2500      0.0000    746.7476      6.7319    134.0751
   895.5000      0.0000    745.1512      6.7984    138.1043
   895.7500      0.0000    740.6962      6.8606    141.0309
