~Version Information
VERS.                      2.0: CWLS Log ASCII Standard - VERSION 2.0
WRAP.                       NO: One line per depth step
~Well Information Block
STRT.FT              1585.0000: 
STOP.FT              2353.0000: 
STEP.FT                 0.2500: 
NULL.                -999.2500: 
COMP.          XTO Energy Inc.: COMPANY
WELL.          Hill Ranch 15-11: WELL
FLD.           Purgatrorie River: FIELD
LOC.           1862' FSL & 1801' FWL: LOCATION
STAT.                       CO: State
CNTY.               Las Animas: COUNTY
CTRY. USA : Country
SECT. 15 : Section
TOWN. 35S : Township
RANG. 67W : Range
SRVC.          Patterson Wireline: SERVICE COMPANY
DATE.          Thu Dec 08 10:20:02 2005: LOG DATE
API.              05 071 08472: UNIQUE WELL ID
~Curve Information Block
DEPT.FT            0 000 00 00: Depth
CCL.                          : Casing Collar Locator
TT3.usec                      : CBL 3' Travel Time
AMP3.mV                       : CBL 3' Amplitude
BONDIX.                       : CBL Bond Index
GR.GAPI                       : Gamma Ray
~Parameter Information Block
~A  Depth       CCL         TT3         AMP3       BONDIX        GR     
# ...
  2313.0000      0.0000    745.7528      6.5381      0.5875     71.9696
  2313.2500      0.0000    737.1832      6.5486      0.5871     77.0084
  2313.5000      0.0000    736.3616      6.4717      0.5897     81.8197
  2313.7500      0.0000    740.7995      6.2854      0.5962     85.1279
  2314.0000      0.0000    745.3959      6.0072      0.6061     86.3099
  2314.2500      0.0000    745.5981      5.6671      0.6189     85.5856
  2314.5000      0.0000    740.3138      5.2828      0.6343     83.5587
  2314.7500      0.0000    732.1792      4.8614      0.6526     80.8554
  2315.0000      0.0000    724.9328      4.4181      0.6736     77.9626
  2315.2500      0.0000    721.0958      3.9850      0.6963     74.7171
  2315.5000      0.0000    722.0587      3.6006      0.7186     70.1596
  2315.7500      0.0000    728.7739      3.2924      0.7382     63.7617
  2316.0000      0.0000    740.7899      3.0685      0.7537     56.7981
  2316.2500      0.0000    754.8369      2.9221      0.7644     51.6885
  2316.5000      0.0000    765.8958      2.8392      0.7707     49.6678
  2316.7500      0.0000    770.3644      2.8036      0.7735     49.5377
  2317.0000      0.0000    767.8773      2.7998      0.7738     49.0040
  2317.2500      0.0000    760.7697      2.8131      0.7728     47.0148
  2317.5000      0.0000    753.0795      2.8274      0.7717     44.4034
  2317.7500      0.0000    749.3062      2.8276      0.7716     42.5320
  2318.0000      0.0000    751.6607      2.8055      0.7734     42.0598
  2318.2500      0.0000    757.7803      2.7669      0.7764     43.0013
  2318.5000      0.0000    762.6923      2.7303      0.7793     45.2317
  2318.7500      0.0000    763.9430      2.7180      0.7803     48.6619
  2319.0000      0.0000    763.9218      2.7438      0.7783     53.1778
  2319.2500      0.0000    766.3254      2.8083      0.7732     58.4855
  2319.5000      0.0000    771.0587      2.9034      0.7658     64.2300
  2319.7500      0.0000    773.9141      3.0174      0.7574     70.4935
  2320.0000      0.0000    771.0051      3.1354      0.7489     77.7960
  2320.2500      0.0000    761.9981      3.2401      0.7417     86.2428
  2320.5000      0.0000    749.0449      3.3162      0.7366     94.9968
  2320.7500      0.0000    734.5660      3.3555      0.7340    102.7511
  2321.0000      0.0000    721.1216      3.3560      0.7340    108.3114
  2321.2500      0.0000    711.9210      3.3194      0.7364    110.7444
  2321.5000      0.0000    709.7454      3.2514      0.7410    109.6175
  2321.7500      0.0000    715.3388      3.1678      0.7467    105.5093
  2322.0000      0.0000    727.1131      3.0918      0.7520    100.1001
  2322.2500      0.0000    741.7910      3.0404      0.7557     95.4550
  2322.5000      0.0000    754.9476      3.0123      0.7577     92.9837
  2322.7500      0.0000    762.1660      2.9933      0.7591     92.8655
  2323.0000      0.0000    761.4405      2.9739      0.7606     94.2794
  2323.2500      0.0000    754.9982      2.9603      0.7616     96.1956
  2323.5000      0.0000    748.1151      2.9721      0.7607     98.2565
  2323.7500      0.0000    745.1043      3.0316      0.7563    101.1482
  2324.0000      0.0000    745.7103      3.1547      0.7476    105.9103
  2324.2500      0.0000    745.6667      3.3501      0.7344    112.5012
  2324.5000      0.0000    741.2957      3.6196      0.7174    118.9181
  2324.7500      0.0000    733.0428      3.9505      0.6982    122.0732
  2325.0000      0.0000    724.1006      4.3090      0.6791    120.0917
  2325.2500      0.0000    716.4199      4.6509      0.6623    114.0723
  2325.5000      0.0000    708.8204      4.9443      0.6489    107.4496
  2325.7500      0.0000    698.8793      5.1768      0.6388    103.3438
  2326.0000      0.0000    686.2887      5.3485      0.6316    102.3122
  2326.2500      0.0000    673.6970      5.4642      0.6269    102.4805
  2326.5000      0.0000    663.8250      5.5354      0.6241    101.5910
  2326.7500      0.0000    657.1852      5.5791      0.6223     98.9110
  2327.0000      0.0000    654.0271      5.6108      0.6211     95.6383
  2327.2500      0.0000    656.7046      5.6378      0.6200     93.9144
  2327.5000      0.0000    667.3230      5.6611      0.6191     95.2507
  2327.7500      0.0000    683.7093      5.6794      0.6184     99.3363
  2328.0000      0.0000    699.9963      5.6895      0.6180    104.2103
  2328.2500      0.0000    711.3248      5.6851      0.6182    107.8777
  2328.5000      0.0000    717.1370      5.6549      0.6194    109.8485
  2328.7500      0.0000    720.4289      5.5851      0.6221    110.8567
  2329.0000      0.0000    724.6062      5.4703      0.6267    111.2533
  2329.2500      0.0000    730.5225      5.3247      0.6326    110.3541
  2329.5000      0.0000    735.8286      5.1755      0.6388    107.4732
  2329.7500      0.0000    737.2819      5.0358      0.6449    102.9780
  2330.0000      0.0000    733.8013      4.8914      0.6512     98.2604
  2330.2500      0.0000    727.3881      4.7212      0.6590     95.1105
  2330.5000      0.0000    721.6246      4.5248      0.6684     94.8164
  2330.7500      0.0000    719.5931      4.3285      0.6781     97.2017
  2331.0000      0.0000    722.5286      4.1716      0.6862    100.6432
  2331.2500      0.0000    729.5301      4.0825      0.6910    103.4358
  2331.5000      0.0000    738.2400      4.0586      0.6922    105.1139
  2331.7500      0.0000    746.0771      4.0719      0.6915    106.3998
  2332.0000      2.0000    751.3816      4.1029      0.6899    108.1613
  2332.2500      0.0000    753.7643      4.1618      0.6867    110.6717
  2332.5000      0.0000    753.5638      4.2706      0.6811    113.8133
  2332.7500      0.0000    751.3511      4.4336      0.6728    117.5306
  2333.0000      0.0000    747.9484      4.6298      0.6633    121.4646
  2333.2500      0.0000    744.1667      4.8219      0.6544    124.2896
  2333.5000      0.0000    740.2471      4.9658      0.6479    124.4282
  2333.7500      0.0000    736.0751      5.0395      0.6447    121.6984
  2334.0000      0.0000    731.9510      5.0680      0.6435    117.5421
  2334.2500      0.0000    728.6104      5.1012      0.6420    113.6112
  2334.5000      0.0000    726.5623      5.1630      0.6394    110.8441
  2334.7500      0.0000    725.8286      5.2380      0.6362    109.6846
  2335.0000      0.0000    726.2885      5.2982      0.6337    110.1716
  2335.2500      0.0000    727.9095      5.3263      0.6325    111.5889
  2335.5000      0.0000    730.4381      5.3168      0.6329    112.7647
  2335.7500      0.0000    732.9557      5.2733      0.6347    113.1541
  2336.0000      0.0000    734.1456      5.2069      0.6375    113.4438
  2336.2500      0.0000    733.3367      5.1324      0.6407    114.8944
  2336.5000      0.0000    731.1369      5.0634      0.6437    118.0298
  2336.7500      0.0000    728.8009      5.0124      0.6459    121.8840
  2337.0000      0.0000    727.1951      4.9938      0.6467    124.6093
  2337.2500      0.0000    726.5388      5.0208      0.6455    125.1170
  2337.5000      0.0000    726.8453      5.0934      0.6424    124.0319
  2337.7500      0.0000    728.2291      5.1936      0.6381    122.6617
  2338.0000      0.0000    730.6588      5.2944      0.6339    121.1402
  2338.2500      0.0000    733.5690      5.3775      0.6304    117.7715
  2338.5000      0.0000    736.0195      5.4393      0.6279    109.8379
  2338.7500      0.0000    737.3241      5.4796      0.6263     95.1219
  2339.0000      0.0000    737.2748      5.4915      0.6258     73.8011
  2339.2500      0.0000    735.8213      5.4668      0.6268     49.5526
  2339.5000      0.0000    733.0762      5.4069      0.6292     27.9642
  2339.7500      0.0000    729.6575      5.3232      0.6327     12.9717
  2340.0000      0.0000    726.4938      5.2277      0.6366      4.8676
  2340.2500      0.0000    724.1770      5.1258      0.6410      1.4610
  2340.5000      0.0000    722.7220      5.0175      0.6457      0.3475
  2340.7500      0.0000    721.8643      4.9033      0.6507      0.0647
