~Version Information
VERS.                      2.0: CWLS Log ASCII Standard - VERSION 2.0
WRAP.                       NO: One line per depth step
~Well Information Block
STRT.FT               680.0000: 
STOP.FT              1585.5000: 
STEP.FT                 0.1000: 
NULL.                -999.2500: 
COMP.          Pioneer Natural Resources: COMPANY
WELL.          Screamin' 12-29: WELL
FLD.           Purgatoire River: FIELD
LOC.           2038' FNL & 612' FWL: LOCATION
CNTY.               Las Animas: COUNTY
SRVC.                Patterson: SERVICE COMPANY
DATE.          Wed Mar 29 10:01:18 2006: LOG DATE
UWI.           05 071 08661 00: UNIQUE WELL ID
STAT.                 Colorado: STATE
~Curve Information Block
DEPT.FT            0 000 00 00: Depth
DCAL.in                       : CDL Caliper
RHOB.g/cc                     : CDL Bulk Density
RHOC.g/cc                     : CDL Density Correction
DPOR.pu                       : CDL Density Porosity
GR.GAPI                       : Gamma Ray
NPOR.pu                       : Neutron Porosity
~Parameter Information Block
~A  Depth       DCAL        RHOB        RHOC        DPOR         GR         NPOR    
# ...
  1092.8000      7.8456      2.4031      0.1446     14.9660    107.1138     28.2452
  1092.9000      7.8456      2.4577      0.1627     11.6571    106.3620     28.9187
  1093.0000      7.8439      2.4968      0.1499      9.2840    107.4179     28.9301
  1093.1000      7.8439      2.5371      0.1535      6.8423    103.5715     27.7506
  1093.2000      7.8439      2.5824      0.1419      4.0974     95.3601     26.2579
  1093.3000      7.8425      2.6102      0.1407      2.4101     89.5294     25.3120
  1093.4000      7.8425      2.6077      0.0975      2.5614     89.2390     24.4251
  1093.5000      7.8429      2.5904      0.0795      3.6109     90.2931     23.6752
  1093.6000      7.8429      2.5726      0.0641      4.6928     86.9787     24.2054
  1093.7000      7.8429      2.5581      0.0280      5.5699     80.1850     25.7632
  1093.8000      7.8432      2.5479      0.0060      6.1871     75.7339     26.1941
  1093.9000      7.8432      2.5407     -0.0126      6.6222     74.8095     24.9714
  1094.0000      7.8424      2.5422     -0.0040      6.5316     75.8492     23.9388
  1094.1000      7.8424      2.5610      0.0339      5.3915     78.3274     23.8891
  1094.2000      7.8424      2.5915      0.0723      3.5484     80.7804     23.9996
  1094.3000      7.8426      2.6172      0.0915      1.9871     82.2522     23.6960
  1094.4000      7.8426      2.6259      0.1011      1.4631     82.7948     23.6801
  1094.5000      7.8439      2.6120      0.1057      2.3014     83.2766     24.8763
  1094.6000      7.8439      2.5865      0.0710      3.8461     85.3105     26.4354
  1094.7000      7.8439      2.5711      0.0385      4.7828     88.5948     26.1852
  1094.8000      7.8443      2.5687      0.0824      4.9250     90.7771     23.8720
  1094.9000      7.8443      2.5702      0.0310      4.8335     90.1445     22.0653
  1095.0000      7.8437      2.5780      0.0298      4.3638     88.7172     22.5624
  1095.1000      7.8437      2.5887      0.0427      3.7156     88.0862     23.6110
  1095.2000      7.8437      2.5902      0.0359      3.6268     86.6055     23.0854
  1095.3000      7.8424      2.5810      0.0173      4.1816     84.2609     22.2165
  1095.4000      7.8424      2.5681      0.0140      4.9613     82.6515     22.1945
  1095.5000      7.8401      2.5624     -0.0054      5.3081     82.6786     22.3965
  1095.6000      7.8401      2.5688      0.0499      4.9197     82.8349     22.7342
  1095.7000      7.8401      2.5767      0.0378      4.4397     80.1722     23.5089
  1095.8000      7.8380      2.5781      0.0506      4.3565     77.4872     24.2621
  1095.9000      7.8380      2.5716      0.0434      4.7510     79.2105     24.3587
  1096.0000      7.8376      2.5609      0.0193      5.4017     82.8835     23.9689
  1096.1000      7.8376      2.5527      0.0242      5.8988     84.4671     23.6378
  1096.2000      7.8376      2.5450      0.0128      6.3615     83.2398     23.5505
  1096.3000      7.8381      2.5358      0.0313      6.9224     81.5561     23.5112
  1096.4000      7.8381      2.5316      0.0181      7.1748     84.1080     23.3543
  1096.5000      7.8381      2.5382      0.0027      6.7743     89.2965     22.9979
  1096.6000      7.8381      2.5490      0.0279      6.1241     90.2735     22.7166
  1096.7000      7.8381      2.5528      0.0034      5.8905     87.7589     23.1957
  1096.8000      7.8381      2.5512      0.0173      5.9858     86.0185     24.2038
  1096.9000      7.8381      2.5515      0.0567      5.9668     83.8774     24.4662
  1097.0000      7.8393      2.5531      0.0497      5.8749     79.5705     23.6845
  1097.1000      7.8393      2.5516      0.0553      5.9642     77.2097     22.7306
  1097.2000      7.8393      2.5421      0.0436      6.5407     77.6136     22.4073
  1097.3000      7.8402      2.5226      0.0343      7.7226     77.1224     22.7073
  1097.4000      7.8402      2.5038      0.0342      8.8590     74.8721     23.3515
  1097.5000      7.8382      2.5001      0.0178      9.0859     71.6974     24.2588
  1097.6000      7.8382      2.5130      0.0362      8.3054     69.4361     24.8532
  1097.7000      7.8382      2.5324      0.0561      7.1294     67.8459     24.5200
  1097.8000      7.8361      2.5493      0.0573      6.1053     67.7082     23.3105
  1097.9000      7.8361      2.5591      0.0439      5.5070     70.9458     21.8939
  1098.0000      7.8353      2.5552      0.0868      5.7437     73.6671     21.1532
  1098.1000      7.8353      2.5406      0.0211      6.6303     72.1795     21.3250
  1098.2000      7.8353      2.5332      0.0521      7.0772     70.9984     21.4949
  1098.3000      7.8352      2.5353      0.0612      6.9526     74.3890     20.9772
  1098.4000      7.8352      2.5335      0.0481      7.0607     77.3982     20.5125
  1098.5000      7.8362      2.5198      0.0453      7.8881     73.3222     20.9407
  1098.6000      7.8362      2.4987      0.0305      9.1695     65.7281     21.7826
  1098.7000      7.8362      2.4821      0.0397     10.1735     61.7777     21.7760
  1098.8000      7.8385      2.4748      0.0390     10.6178     61.5050     21.0994
  1098.9000      7.8385      2.4698      0.0427     10.9197     61.4215     21.1708
  1099.0000      7.8401      2.4612      0.0352     11.4440     59.7778     22.1702
  1099.1000      7.8401      2.4504      0.0344     12.0963     57.2807     22.5359
  1099.2000      7.8401      2.4421      0.0062     12.6007     55.9837     21.7208
  1099.3000      7.8385      2.4393      0.0243     12.7681     55.9733     21.1362
  1099.4000      7.8385      2.4433      0.0131     12.5299     54.4196     21.6032
  1099.5000      7.8365      2.4530      0.0454     11.9401     51.4611     22.8456
  1099.6000      7.8365      2.4627      0.0579     11.3524     49.2822     24.2344
  1099.7000      7.8365      2.4733      0.0259     10.7099     47.4969     24.9788
  1099.8000      7.8361      2.4870      0.0672      9.8787     44.5619     25.0825
  1099.9000      7.8361      2.4968      0.0483      9.2821     39.9124     24.7801
  1100.0000      7.8364      2.5018      0.0294      8.9839     35.6588     24.0583
  1100.1000      7.8364      2.5021      0.0493      8.9619     33.9190     23.5473
  1100.2000      7.8364      2.4970      0.0271      9.2708     34.7969     23.3661
  1100.3000      7.8366      2.4934      0.0469      9.4905     36.8941     23.0251
  1100.4000      7.8366      2.4942      0.0582      9.4429     38.4934     22.5572
  1100.5000      7.8366      2.4985      0.0134      9.1799     40.2447     22.2335
  1100.6000      7.8366      2.5030      0.0542      8.9093     43.0519     22.2244
  1100.7000      7.8366      2.4982      0.0456      9.2015     46.0691     22.0136
  1100.8000      7.8365      2.4860      0.0225      9.9375     48.3370     21.3530
  1100.9000      7.8365      2.4741      0.0308     10.6581     49.4687     21.2826
  1101.0000      7.8365      2.4657      0.0060     11.1700     50.6855     22.4491
  1101.1000      7.8365      2.4665     -0.0103     11.1188     52.5206     23.9553
  1101.2000      7.8365      2.4726      0.0105     10.7501     52.1558     24.6314
  1101.3000      7.8362      2.4738     -0.0187     10.6785     48.4821     24.3829
  1101.4000      7.8362      2.4720      0.0027     10.7865     46.1831     23.9045
  1101.5000      7.8363      2.4736     -0.0197     10.6906     49.0909     24.0891
  1101.6000      7.8363      2.4777      0.0234     10.4434     53.5024     24.9418
  1101.7000      7.8363      2.4756      0.0158     10.5678     54.4097     25.4424
  1101.8000      7.8367      2.4623      0.0402     11.3775     52.1624     25.2116
  1101.9000      7.8367      2.4452     -0.0240     12.4127     49.4467     24.7867
  1102.0000      7.8360      2.4401     -0.0349     12.7224     47.7715     24.4556
  1102.1000      7.8360      2.4466     -0.0071     12.3258     45.9946     24.4945
  1102.2000      7.8360      2.4466      0.0290     12.3286     42.8718     25.0250
  1102.3000      7.8338      2.4366     -0.0269     12.9331     40.0551     25.3522
