~Version Information
VERS.                      2.0: CWLS Log ASCII Standard - VERSION 2.0
WRAP.                       NO: One line per depth step
~Well Information Block
STRT.FT                -6.5000: 
STOP.FT              1564.2500: 
STEP.FT                 0.2500: 
NULL.                -999.2500: 
COMP.          Pioneer Natural Resources: COMPANY
WELL.            Bluesky 44-17: WELL
FLD.           Purgatorie River: FIELD
LOC.           --39' FSL & 288' FEL------: LOCATION
STAT.                       CO: State
CNTY.               Las Animas: COUNTY
CTRY. USA : Country
SECT. 17 : Section
TOWN. 33S : Township
RANG. 66W : Range
SRVC.          Patterson Wireline: SERVICE COMPANY
DATE.          Tue Sep 13 13:24:14 2005: LOG DATE
API.           05 071 08511 00: UNIQUE WELL ID
~Curve Information Block
DEPT.FT            0 000 00 00: Depth
CCL.                          : Casing Collar Locator
TT3.usec                      : CBL 3' Travel Time
AMP3.mV                       : CBL 3' Amplitude
GR.GAPI                       : Gamma Ray
~Parameter Information Block
~A  Depth       CCL         TT3         AMP3         GR     
# ...
   295.0000      0.0000    994.2421     12.0366    102.6434
   295.2500      0.0000   1019.3091     12.0554    101.8492
   295.5000      0.0000   1037.8142     12.0669     99.9035
   295.7500      0.0000   1046.1049     12.0681     96.5493
   296.0000      0.0000   1043.9862     12.0638     91.1020
   296.2500      0.0000   1033.5643     12.0665     83.8684
   296.5000      0.0000   1017.4270     12.0861     76.5812
   296.7500      0.0000    998.2711     12.1241     71.1898
   297.0000      0.0000    980.7523     12.1779     68.0572
   297.2500      0.0000    971.8084     12.2476     65.5035
   297.5000      0.0000    975.0674     12.3321     61.5036
   297.7500      0.0000    984.4854     12.4102     55.9132
   298.0000      0.0000    987.8514     12.4165     50.7611
   298.2500      0.0000    979.1931     12.2424     48.2796
   298.5000      0.0000    966.5839     11.7949     48.9340
   298.7500      0.0000    966.2629     11.0868     51.4732
   299.0000      0.0000    988.0143     10.2732     54.4494
   299.2500      0.0000   1025.7705      9.5730     57.2113
   299.5000      0.0000   1062.5071      9.1311     59.6250
   299.7500      0.0000   1082.9559      8.9463     61.4759
   300.0000      0.0000   1081.5835      8.9192     62.4274
   300.2500     -2.0000   1063.2626      8.9523     62.3993
   300.5000      0.0000   1040.2048      9.0105     61.9890
   300.7500      0.0000   1024.9487      9.1153     62.5231
   301.0000      0.0000   1021.4465      9.3044     65.1988
   301.2500      0.0000   1023.3351      9.5931     69.8184
   301.5000      0.0000   1022.4142      9.9739     74.7060
   301.7500      0.0000   1016.6989     10.4444     78.0764
   302.0000      0.0000   1009.5609     10.9999     79.2504
   302.2500      0.0000   1004.3336     11.5832     78.6892
   302.5000      0.0000   1001.7560     12.0854     77.3669
   302.7500      0.0000   1000.9151     12.4195     76.1369
   303.0000      0.0000   1000.6079     12.5795     75.3017
   303.2500      0.0000    999.5606     12.6221     74.6676
   303.5000      0.0000    995.9667     12.6139     74.1661
   303.7500      0.0000    987.2606     12.5986     74.3777
   304.0000      0.0000    971.3253     12.5955     76.0962
   304.2500      0.0000    948.6422     12.6088     79.2979
   304.5000      0.0000    922.7607     12.6339     82.9530
   304.7500      0.0000    897.8357     12.6603     85.9212
   305.0000      0.0000    876.4197     12.6783     87.5373
   305.2500      0.0000    860.1265     12.6859     87.2703
   305.5000      0.0000    850.3935     12.6885     84.5857
   305.7500      0.0000    847.0828     12.6941     79.6824
   306.0000      0.0000    847.7527     12.7088     74.0122
   306.2500      0.0000    849.4509     12.7385     69.5326
   306.5000      0.0000    850.5878     12.7893     67.5305
   306.7500      0.0000    850.9800     12.8622     68.2917
   307.0000      0.0000    850.9637     12.9491     71.4152
   307.2500      0.0000    850.8220     13.0359     76.0293
   307.5000      0.0000    850.6788     13.1104     81.0513
   307.7500      0.0000    850.5630     13.1652     85.5707
   308.0000      0.0000    850.4906     13.1973     88.9325
   308.2500      0.0000    850.4438     13.2062     90.7236
   308.5000      0.0000    850.3320     13.1959     91.0484
   308.7500      0.0000    849.9648     13.1766     90.5688
   309.0000      0.0000    849.0262     13.1611     89.9416
   309.2500      0.0000    847.1384     13.1586     89.3416
   309.5000      0.0000    843.9642     13.1668     88.6620
   309.7500      0.0000    838.8616     13.1703     87.8403
   310.0000      0.0000    829.6467     13.1491     86.7366
   310.2500      0.0000    811.9781     13.0915     85.0540
   310.5000      0.0000    782.9125     13.0002     82.8252
   310.7500      0.0000    748.0696     12.8864     80.7883
   311.0000      0.0000    723.3463     12.7641     79.8666
   311.2500      0.0000    723.9576     12.6490     80.2614
   311.5000      0.0000    750.1621     12.5557     81.3757
   311.7500      0.0000    786.5502     12.4893     82.6135
   312.0000      0.0000    815.0009     12.4408     83.8034
   312.2500      0.0000    824.8162     12.3942     84.6668
   312.5000      0.0000    811.7869     12.3419     84.5392
   312.7500      0.0000    774.6118     12.2914     83.1893
   313.0000      0.0000    716.9224     12.2594     81.5368
   313.2500      0.0000    650.4161     12.2582     81.0030
   313.5000      0.0000    590.4931     12.2846     82.2361
   313.7500      0.0000    546.4556     12.3195     84.6444
   314.0000      0.0000    516.9232     12.3396     87.0243
   314.2500      0.0000    495.3448     12.3296     88.5621
   314.5000      0.0000    479.3099     12.2871     89.3980
   314.7500      0.0000    474.5705     12.2181     90.2521
   315.0000      0.0000    490.3172     12.1332     91.3757
   315.2500      0.0000    530.2906     12.0436     91.8929
   315.5000      0.0000    588.1327     11.9573     90.5355
   315.7500      0.0000    651.0264     11.8771     87.1116
   316.0000      0.0000    707.5665     11.8018     82.8980
   316.2500      0.0000    752.5344     11.7282     79.4522
   316.5000      0.0000    786.0120     11.6488     77.3685
   316.7500      0.0000    810.0663     11.5533     76.0976
   317.0000      0.0000    826.5599     11.4389     74.5267
   317.2500      0.0000    836.6853     11.3206     71.6752
   317.5000      0.0000    841.4517     11.2263     67.2646
   317.7500      0.0000    842.3459     11.1785     61.9401
   318.0000      0.0000    841.5215     11.1813     56.9256
   318.2500      0.0000    841.1792     11.2220     53.3545
   318.5000      0.0000    842.4644     11.2829     51.8086
   318.7500      0.0000    845.0860     11.3516     52.2034
   319.0000      0.0000    848.2454     11.4238     53.7637
   319.2500      0.0000    852.0088     11.4983     55.1584
   319.5000      0.0000    857.7018     11.5711     55.3167
   319.7500      0.0000    866.6563     11.6365     54.4560
   320.0000      0.0000    877.8001     11.6926     53.8868
   320.2500      0.0000    886.3498     11.7450     54.5171
   320.5000      0.0000    886.1949     11.8034     55.9137
   320.7500      0.0000    874.8447     11.8761     56.9756
   321.0000      0.0000    855.9546     11.9643     57.1880
   321.2500      0.0000    836.6775     12.0616     56.9767
   321.5000      0.0000    822.7463     12.1568     57.0541
   321.7500      0.0000    815.8433     12.2402     57.7869
   322.0000      0.0000    814.8611     12.3080     59.2473
   322.2500      0.0000    818.4882     12.3624     61.5975
   322.5000      0.0000    825.6168     12.4101     65.1596
   322.7500      0.0000    834.1746     12.4631     70.0844
   323.0000      0.0000    841.5073     12.5366     76.0010
   323.2500      0.0000    846.1505     12.6399     81.9786
   323.5000      0.0000    848.4193     12.7636     86.8547
   323.7500      0.0000    849.3948     12.8785     89.7021
   324.0000      0.0000    849.8820     12.9543     90.1529
   324.2500      0.0000    850.1584     12.9799     88.6050
   324.5000      0.0000    849.7935     12.9656     86.2614
   324.7500      0.0000    847.0898     12.9292     84.6016
   325.0000      0.0000    838.1794     12.8848     84.3382
   325.2500      0.0000    817.6418     12.8434     84.8126
   325.5000      0.0000    782.5880     12.8144     84.5498
   325.7500      0.0000    738.4260     12.8006     82.3543
   326.0000      0.0000    699.4499     12.7918     77.9134
   326.2500      0.0000    680.4367     12.7700     71.8588
   326.5000      0.0000    685.4072     12.7235     65.6194
   326.7500      0.0000    704.7032     12.6557     60.9444
   327.0000      0.0000    725.5892     12.5830     59.0842
   327.2500      0.0000    746.9814     12.5228     60.1834
   327.5000      0.0000    779.7874     12.4825     63.3277
   327.7500      0.0000    829.7531     12.4645     67.0689
   328.0000      0.0000    885.5081     12.4767     70.1367
   328.2500      0.0000    928.9858     12.5310     72.2119
