~Version Information
VERS.                      2.0: CWLS Log ASCII Standard - VERSION 2.0
WRAP.                       NO: One line per depth step
~Well Information Block
STRT.FT               260.0000: 
STOP.FT               713.2000: 
STEP.FT                 0.1000: 
NULL.                -999.2500: 
COMP.          Pioneer Natural Resources: COMPANY
WELL.           Quintessa 23-7: WELL
FLD.           Purgatoire River: FIELD
LOC.           1964' FSL & 2589' FWL--: LOCATION
PROV.                 Colorado: PROVINCE
CNTY.               Las Animas: COUNTRY
SRVC.                Patterson: SERVICE COMPANY
DATE.          Sat Nov 19 09:15:07 2005: LOG DATE
UWI.           05 071 08558 00: UNIQUE WELL ID
~Curve Information Block
DEPT.FT            0 000 00 00: Depth
DCAL.in                       : CDL Caliper
RHOB.g/cc                     : CDL Bulk Density
RHOC.g/cc                     : CDL Density Correction
DPOR.pu                       : CDL Density Porosity
NPOR.pu                       : Neutron Porosity
GR.GAPI                       : Gamma Ray
~Parameter Information Block
~A  Depth       DCAL        RHOB        RHOC        DPOR        NPOR         GR     
# ...
   567.2000      7.9274      2.5452      0.0227      6.3522     26.0555     93.3190
   567.3000      7.9356      2.5531      0.0747      5.8720     26.6811     95.8362
   567.4000      7.9356      2.5546      0.0707      5.7847     27.4314    100.1416
   567.5000      7.9443      2.5416      0.0408      6.5695     28.1420    105.5629
   567.6000      7.9443      2.5261      0.0316      7.5086     28.9727    108.0388
   567.7000      7.9443      2.5076      0.0440      8.6323     29.5899    104.6767
   567.8000      7.9556      2.4770     -0.0003     10.4861     29.7116     99.9190
   567.9000      7.9556      2.4340      0.0106     13.0916     29.8374     99.7415
   568.0000      7.9654      2.3770     -0.0166     16.5441     30.3342    102.9108
   568.1000      7.9654      2.3049     -0.0439     20.9181     31.1058    105.4598
   568.2000      7.9654      2.2164     -0.0633     26.2775     32.2815    103.9293
   568.3000      7.9746      2.1089     -0.0812     32.7963     33.7347     95.1750
   568.4000      7.9746      1.9939     -0.1501     39.7665     34.8172     81.3902
   568.5000      7.9860      1.8896     -0.1196     46.0840     35.3836     68.6103
   568.6000      7.9860      1.7916     -0.1407     52.0225     35.5595     60.7087
   568.7000      7.9860      1.6861     -0.1522     58.4179     35.6054     56.6550
   568.8000      8.0027      1.5747     -0.1689     65.1707     35.8541     53.9304
   568.9000      8.0027      1.4741     -0.1722     71.2675     36.0568     51.4672
   569.0000      8.0270      1.4036     -0.1259     75.5414     36.0034     47.1136
   569.1000      8.0270      1.3683     -0.0482     77.6813     35.8774     40.0999
   569.2000      8.0270      1.3559      0.0202     78.4276     35.9295     35.5069
   569.3000      8.0517      1.3485      0.0484     78.8783     36.3508     36.5912
   569.4000      8.0517      1.3361      0.0360     79.6300     36.9778     38.9420
   569.5000      8.0577      1.3247      0.0035     80.3185     37.3463     37.6708
   569.6000      8.0577      1.3290     -0.0167     80.0622     37.0660     33.5376
   569.7000      8.0577      1.3510      0.0241     78.7254     36.3705     31.9504
   569.8000      8.0306      1.3775      0.0481     77.1194     35.9650     35.4956
   569.9000      8.0306      1.3993      0.0577     75.7994     36.0171     39.5879
   570.0000      8.0079      1.4183      0.0660     74.6509     36.2797     40.1170
   570.1000      8.0079      1.4377      0.0864     73.4701     36.5740     38.7558
   570.2000      8.0079      1.4606      0.0790     72.0877     36.6526     39.6507
   570.3000      8.0088      1.4943      0.0709     70.0451     36.4773     41.0742
   570.4000      8.0088      1.5477      0.0885     66.8080     36.3151     38.8608
   570.5000      8.0272      1.6237      0.0998     62.1985     36.1256     36.8424
   570.6000      8.0272      1.7164      0.1320     56.5820     35.6120     39.6805
   570.7000      8.0272      1.8161      0.1418     50.5379     34.9935     45.2045
   570.8000      8.0541      1.9227      0.1659     44.0786     34.3894     50.9955
   570.9000      8.0541      2.0376      0.2345     37.1166     33.4523     57.0325
   571.0000      8.0629      2.1518      0.2444     30.1909     32.4235     62.2627
   571.1000      8.0629      2.2536      0.2750     24.0252     31.4093     68.7219
   571.2000      8.0629      2.3371      0.2225     18.9633     30.0738     76.7332
   571.3000      8.0343      2.4049      0.1830     14.8572     28.7469     80.9711
   571.4000      8.0343      2.4526      0.1807     11.9608     27.7969     83.5474
   571.5000      7.9846      2.4723      0.1316     10.7695     27.1635     90.5296
   571.6000      7.9846      2.4778      0.0836     10.4360     26.9706     99.2469
   571.7000      7.9846      2.4940      0.0790      9.4530     27.0876    104.3364
   571.8000      7.9526      2.5238      0.0817      7.6461     26.9556    106.2238
   571.9000      7.9526      2.5547      0.0882      5.7760     26.5769    105.5443
   572.0000      7.9423      2.5746      0.1112      4.5683     26.4186    102.0179
   572.1000      7.9423      2.5767      0.0746      4.4443     26.2624     98.2648
   572.2000      7.9423      2.5678      0.0677      4.9813     25.7061     95.2890
   572.3000      7.9422      2.5625      0.0344      5.3034     25.2446     94.5814
   572.4000      7.9422      2.5620      0.0576      5.3308     25.3315     97.8784
   572.5000      7.9508      2.5538      0.0314      5.8294     25.7001    102.8223
   572.6000      7.9508      2.5369      0.0486      6.8525     26.2956    107.4330
   572.7000      7.9508      2.5246      0.0077      7.5984     27.0531    113.4695
   572.8000      7.9679      2.5225      0.0460      7.7287     27.6797    120.6394
   572.9000      7.9679      2.5246      0.0295      7.6010     28.0901    123.5232
   573.0000      7.9830      2.5274      0.0282      7.4331     28.0299    119.5701
   573.1000      7.9830      2.5275      0.0513      7.4217     27.4714    112.8108
   573.2000      7.9830      2.5202      0.0680      7.8645     27.0340    109.9000
   573.3000      7.9872      2.5127      0.0402      8.3195     27.0685    114.3424
   573.4000      7.9872      2.5178      0.0128      8.0130     27.2079    122.6111
   573.5000      7.9886      2.5287      0.0739      7.3543     26.9651    126.5190
   573.6000      7.9886      2.5319      0.0477      7.1597     26.6443    122.1674
   573.7000      7.9886      2.5344      0.0256      7.0063     26.8621    114.5788
   573.8000      7.9953      2.5411      0.0449      6.5979     27.4572    108.1629
   573.9000      7.9953      2.5430      0.0555      6.4823     27.8692    105.1774
   574.0000      8.0048      2.5456      0.0140      6.3284     27.8481    109.3639
   574.1000      8.0048      2.5619      0.0424      5.3374     27.5540    118.2660
   574.2000      8.0048      2.5877      0.0627      3.7759     27.2013    126.3626
   574.3000      8.0111      2.6094      0.0534      2.4581     26.8015    131.3995
   574.4000      8.0111      2.6142      0.0547      2.1721     26.4817    129.7337
   574.5000      8.0136      2.5949      0.0411      3.3376     26.3530    120.2979
   574.6000      8.0136      2.5694     -0.0228      4.8844     26.2842    105.9417
   574.7000      8.0136      2.5616      0.0260      5.3583     26.3568     93.4681
   574.8000      8.0153      2.5637      0.0448      5.2287     26.7987     90.0517
   574.9000      8.0153      2.5597      0.0322      5.4750     27.6485     93.2063
   575.0000      8.0252      2.5611     -0.0224      5.3859     28.7373     97.9010
   575.1000      8.0252      2.5778      0.0605      4.3770     29.6041    101.5185
   575.2000      8.0252      2.5882      0.0334      3.7472     30.0236    103.1008
   575.3000      8.0417      2.5749      0.0683      4.5511     30.0807    105.9894
   575.4000      8.0417      2.5470      0.0306      6.2416     29.6867    111.6187
   575.5000      8.0526      2.5243      0.0229      7.6198     29.2306    119.9410
   575.6000      8.0526      2.5135      0.0350      8.2718     29.2519    130.6518
   575.7000      8.0526      2.5101      0.0246      8.4776     29.6740    136.5238
   575.8000      8.0592      2.5135      0.0213      8.2720     30.3412    131.6543
   575.9000      8.0592      2.5201      0.0851      7.8714     31.2862    126.5217
   576.0000      8.0642      2.5243      0.0132      7.6174     32.3013    132.3021
   576.1000      8.0642      2.5270      0.0496      7.4522     32.6244    142.1619
   576.2000      8.0642      2.5243      0.0513      7.6197     31.8636    147.1854
   576.3000      8.0616      2.5119      0.0364      8.3680     30.8913    149.5579
   576.4000      8.0616      2.4981      0.0420      9.2049     30.5855    150.3792
   576.5000      8.0472      2.4947      0.0090      9.4091     30.6008    147.7062
   576.6000      8.0472      2.4972      0.0418      9.2602     30.2069    143.8029
   576.7000      8.0472      2.4963      0.0364      9.3163     29.4060    141.8045
