~Version Information
VERS.                      2.0: CWLS Log ASCII Standard - VERSION 2.0
WRAP.                       NO: One line per depth step
~Well Information Block
STRT.FT               555.0000: 
STOP.FT              1158.0000: 
STEP.FT                 0.1000: 
NULL.                -999.2500: 
COMP.          Pioneer Natural Resources: COMPANY
WELL.              Draco 31-21: WELL
FLD.           Purgatoire River: FIELD
LOC.           491' FNL & 2446' FEL: LOCATION
CNTY.               Las Animas: COUNTY
SRVC.                Patterson: SERVICE COMPANY
DATE.          Wed Feb 01 07:01:32 2006: LOG DATE
UWI.           05 071 08672 00: UNIQUE WELL ID
STAT.                 Colorado: STATE
~Curve Information Block
DEPT.FT            0 000 00 00: Depth
DCAL.in                       : CDL Caliper
RHOB.g/cc                     : CDL Bulk Density
RHOC.g/cc                     : CDL Density Correction
DPOR.pu                       : CDL Density Porosity
GR.GAPI                       : Gamma Ray
NPOR.pu                       : Neutron Porosity
~Parameter Information Block
~A  Depth       DCAL        RHOB        RHOC        DPOR         GR         NPOR    
# ...
  1063.8000      7.8423      2.4135      0.0325     14.3341     99.6206     24.9771
  1063.9000      7.8423      2.4008      0.0449     15.1012     92.4452     24.5721
  1064.0000      7.8429      2.3918      0.0187     15.6507     84.8313     24.2048
  1064.1000      7.8429      2.3942      0.0423     15.5038     84.3890     24.8150
  1064.2000      7.8429      2.4054      0.0097     14.8272     89.9744     26.3975
  1064.3000      7.8443      2.4151      0.0693     14.2380     95.2048     27.4402
  1064.4000      7.8443      2.4147      0.0471     14.2589     94.6174     27.1165
  1064.5000      7.8359      2.4086      0.0365     14.6300     88.8166     26.0525
  1064.6000      7.8359      2.4030      0.0558     14.9689     86.0193     25.0212
  1064.7000      7.8359      2.3993      0.0055     15.1929     93.2441     24.5701
  1064.8000      7.8362      2.4021      0.0161     15.0240    105.7845     24.9994
  1064.9000      7.8362      2.4071      0.0477     14.7220    114.1224     25.7596
  1065.0000      7.8344      2.4056      0.0009     14.8120    113.8831     25.8602
  1065.1000      7.8344      2.4060      0.0105     14.7901    105.9883     25.4525
  1065.2000      7.8344      2.4145      0.0457     14.2709     97.3293     25.1368
  1065.3000      7.8350      2.4175      0.0445     14.0901     94.5467     25.1167
  1065.4000      7.8350      2.4062      0.0143     14.7751     97.4977     25.1804
  1065.5000      7.8362      2.3887      0.0237     15.8346    101.5952     24.6354
  1065.6000      7.8362      2.3781      0.0104     16.4781    104.6720     23.7927
  1065.7000      7.8362      2.3837      0.0170     16.1423    106.3312     23.5506
  1065.8000      7.8338      2.4026      0.0178     14.9929    104.1511     23.8764
  1065.9000      7.8338      2.4259      0.0384     13.5839    100.5080     24.1336
  1066.0000      7.8326      2.4445      0.0492     12.4521     98.8009     23.9759
  1066.1000      7.8326      2.4448      0.0759     12.4364     99.2710     23.8957
  1066.2000      7.8326      2.4237      0.0161     13.7164    101.7585     24.4793
  1066.3000      7.8216      2.4002     -0.0008     15.1400    102.9479     25.5468
  1066.4000      7.8216      2.3873      0.0177     15.9222    101.8414     26.4299
  1066.5000      7.8313      2.3818      0.0388     16.2552    102.8825     26.7796
  1066.6000      7.8313      2.3833      0.0087     16.1639    107.6667     26.7851
  1066.7000      7.8313      2.3947      0.0285     15.4730    113.1546     26.5232
  1066.8000      7.8343      2.4099      0.0389     14.5486    117.7040     26.2026
  1066.9000      7.8343      2.4232      0.0350     13.7450    118.8933     26.0600
  1067.0000      7.8323      2.4364      0.0400     12.9466    113.0923     25.6599
  1067.1000      7.8323      2.4495      0.0473     12.1509    103.0073     24.6681
  1067.2000      7.8323      2.4552      0.0958     11.8060     95.7904     23.5895
  1067.3000      7.8307      2.4519      0.0241     12.0040     93.0749     23.1839
  1067.4000      7.8307      2.4510      0.0514     12.0602     92.0112     23.2901
  1067.5000      7.8297      2.4585      0.0533     11.6058     90.5977     23.2277
  1067.6000      7.8297      2.4677      0.0662     11.0484     87.5441     23.2943
  1067.7000      7.8297      2.4701      0.0358     10.9036     84.8488     23.8416
  1067.8000      7.8295      2.4653      0.0358     11.1939     86.4533     24.2861
  1067.9000      7.8295      2.4566      0.0312     11.7223     91.6615     24.2248
  1068.0000      7.8267      2.4485      0.0173     12.2135     95.5813     24.3183
  1068.1000      7.8267      2.4440      0.0211     12.4839     96.6886     24.9100
  1068.2000      7.8267      2.4358      0.0589     12.9802    100.3193     25.0688
  1068.3000      7.8267      2.4197      0.0064     13.9571    109.0266     24.4570
  1068.4000      7.8267      2.4083     -0.0047     14.6511    117.0880     23.8956
  1068.5000      7.8344      2.4113      0.0157     14.4678    118.4692     23.6024
  1068.6000      7.8344      2.4264      0.0277     13.5543    115.8136     23.2845
  1068.7000      7.8344      2.4492      0.0364     12.1727    115.3850     23.1496
  1068.8000      7.8387      2.4706      0.0551     10.8744    116.3099     23.3706
  1068.9000      7.8387      2.4792      0.0716     10.3539    114.5435     23.7635
  1069.0000      7.8377      2.4713      0.0755     10.8288    109.9265     24.1883
  1069.1000      7.8377      2.4522      0.0400     11.9904    105.8397     24.6791
  1069.2000      7.8377      2.4350      0.0280     13.0293    104.8395     25.1326
  1069.3000      7.8372      2.4347     -0.0113     13.0490    108.0935     25.1070
  1069.4000      7.8372      2.4488      0.0670     12.1944    115.3364     24.8444
  1069.5000      7.8370      2.4550      0.0468     11.8198    118.7916     25.0207
  1069.6000      7.8370      2.4427      0.0206     12.5634    112.8215     25.2871
  1069.7000      7.8370      2.4282      0.0087     13.4398    104.3058     25.1397
  1069.8000      7.8363      2.4261      0.0126     13.5704    100.5633     24.6881
  1069.9000      7.8363      2.4268      0.0533     13.5278    102.2616     24.1788
  1070.0000      7.8379      2.4157      0.0302     14.1999    104.8227     24.2660
  1070.1000      7.8379      2.3972      0.0101     15.3230    105.0551     25.2040
  1070.2000      7.8379      2.3896     -0.0202     15.7839    103.5911     26.0779
  1070.3000      7.8390      2.4039      0.0079     14.9151    102.1171     25.7543
  1070.4000      7.8390      2.4283      0.0404     13.4359     98.3163     24.5676
  1070.5000      7.8355      2.4472      0.0293     12.2910     90.7925     24.0197
  1070.6000      7.8355      2.4591      0.0427     11.5705     86.1358     24.3907
  1070.7000      7.8355      2.4632      0.0612     11.3199     88.4678     24.8540
  1070.8000      7.8384      2.4566      0.0450     11.7210     93.2399     25.3007
  1070.9000      7.8384      2.4422      0.0448     12.5966     95.2865     26.0410
  1071.0000      7.8403      2.4259      0.0408     13.5844     94.7445     26.7040
  1071.1000      7.8403      2.4129      0.0342     14.3683     95.3753     26.5027
  1071.2000      7.8403      2.4106     -0.0312     14.5074     97.1580     25.6799
  1071.3000      7.8399      2.4173      0.0116     14.1025     99.1298     25.0749
  1071.4000      7.8399      2.4164      0.0459     14.1564    103.2372     24.5970
  1071.5000      7.8379      2.4043      0.0241     14.8933    108.5453     23.9511
  1071.6000      7.8379      2.3948      0.0220     15.4642    111.9248     23.5797
  1071.7000      7.8379      2.3914      0.0290     15.6738    112.0810     23.7378
  1071.8000      7.8401      2.3896      0.0009     15.7812    112.1790     24.2186
  1071.9000      7.8401      2.3963      0.0030     15.3787    115.1902     24.7835
  1072.0000      7.8370      2.4136      0.0098     14.3302    116.7138     25.1394
  1072.1000      7.8370      2.4293      0.0462     13.3786    113.6822     25.1575
  1072.2000      7.8370      2.4381      0.0174     12.8422    111.6596     25.1252
  1072.3000      7.8380      2.4429      0.0361     12.5535    112.4272     25.4078
  1072.4000      7.8380      2.4412      0.0202     12.6522    109.0124     25.6729
  1072.5000      7.8396      2.4390      0.0146     12.7861    102.5936     25.3242
  1072.6000      7.8396      2.4470      0.0279     12.3060    102.6630     25.0894
  1072.7000      7.8396      2.4626      0.0460     11.3582    107.4504     25.8756
  1072.8000      7.8375      2.4705      0.0872     10.8807    110.8692     26.8990
  1072.9000      7.8375      2.4574      0.0634     11.6742    116.8906     27.0006
  1073.0000      7.8381      2.4292      0.0167     13.3838    127.2002     26.3598
  1073.1000      7.8381      2.4039      0.0323     14.9158    133.0400     25.8156
  1073.2000      7.8381      2.3940      0.0015     15.5122    131.0582     25.5986
  1073.3000      7.8391      2.3960      0.0347     15.3932    127.9130     25.5638
