~Version Information
VERS.                      2.0: CWLS Log ASCII Standard - VERSION 2.0
WRAP.                       NO: One line per depth step
~Well Information Block
STRT.FT               580.0000: 
STOP.FT              1179.0000: 
STEP.FT                 0.1000: 
NULL.                -999.2500: 
COMP.          Pioneer Natural Resources: COMPANY
WELL.          Tin Barn 14-20 TR: WELL
FLD.           Purgatorie River: FIELD
LOC.           925 FSL & 1151 FWL: LOCATION
PROV.                 Colorado: PROVINCE
CNTY.               Las Animas: COUNTRY
SRVC.                Patterson: SERVICE COMPANY
DATE.          Thu Jan 12 12:02:37 2006: LOG DATE
UWI.                          : UNIQUE WELL ID
~Curve Information Block
DEPT.FT            0 000 00 00: Depth
DCAL.in                       : CDL Caliper
RHOB.g/cc                     : CDL Bulk Density
RHOC.g/cc                     : CDL Density Correction
DPOR.pu                       : CDL Density Porosity
GR.GAPI                       : Gamma Ray
~Parameter Information Block
~A  Depth       DCAL        RHOB        RHOC        DPOR         GR     
   580.0000   -999.2500   -999.2500   -999.2500   -999.2500     50.1800
   580.1000   -999.2500   -999.2500   -999.2500   -999.2500     50.4828
   580.2000   -999.2500   -999.2500   -999.2500   -999.2500     51.7833
   580.3000   -999.2500   -999.2500   -999.2500   -999.2500     54.0016
   580.4000   -999.2500   -999.2500   -999.2500   -999.2500     56.0223
   580.5000   -999.2500   -999.2500   -999.2500   -999.2500     57.4176
   580.6000   -999.2500   -999.2500   -999.2500   -999.2500     59.4829
   580.7000   -999.2500   -999.2500   -999.2500   -999.2500     62.5008
   580.8000   -999.2500   -999.2500   -999.2500   -999.2500     63.9652
   580.9000   -999.2500   -999.2500   -999.2500   -999.2500     63.7945
   581.0000   -999.2500   -999.2500   -999.2500   -999.2500     65.4496
   581.1000   -999.2500   -999.2500   -999.2500   -999.2500     69.2807
   581.2000   -999.2500   -999.2500   -999.2500   -999.2500     71.8992
   581.3000   -999.2500   -999.2500   -999.2500   -999.2500     70.3288
   581.4000   -999.2500   -999.2500   -999.2500   -999.2500     66.0340
   581.5000   -999.2500   -999.2500   -999.2500   -999.2500     62.5521
   581.6000   -999.2500   -999.2500   -999.2500   -999.2500     60.3048
   581.7000   -999.2500   -999.2500   -999.2500   -999.2500     58.2466
   581.8000   -999.2500   -999.2500   -999.2500   -999.2500     55.2945
   581.9000   -999.2500   -999.2500   -999.2500   -999.2500     50.9091
   582.0000   -999.2500   -999.2500   -999.2500   -999.2500     46.7282
   582.1000   -999.2500   -999.2500   -999.2500   -999.2500     43.5214
   582.2000   -999.2500   -999.2500   -999.2500   -999.2500     40.3055
   582.3000   -999.2500   -999.2500   -999.2500   -999.2500     36.6801
   582.4000   -999.2500   -999.2500   -999.2500   -999.2500     33.3364
   582.5000   -999.2500   -999.2500   -999.2500   -999.2500     31.2926
   582.6000   -999.2500   -999.2500   -999.2500   -999.2500     31.0618
   582.7000   -999.2500   -999.2500   -999.2500   -999.2500     31.9378
   582.8000   -999.2500   -999.2500   -999.2500   -999.2500     32.2012
   582.9000   -999.2500   -999.2500   -999.2500   -999.2500     30.8829
   583.0000   -999.2500   -999.2500   -999.2500   -999.2500     29.0912
   583.1000   -999.2500   -999.2500   -999.2500   -999.2500     28.3494
   583.2000   -999.2500   -999.2500   -999.2500   -999.2500     28.8641
   583.3000      8.1912   -999.2500   -999.2500   -999.2500     30.0027
   583.4000      8.1912   -999.2500     -0.3630   -999.2500     30.8222
   583.5000      8.1914   -999.2500     -0.4240   -999.2500     31.0710
   583.6000      8.1914   -999.2500     -0.4122   -999.2500     31.6626
   583.7000      8.1914   -999.2500     -0.4814   -999.2500     32.2800
   583.8000      8.1896   -999.2500     -0.4727   -999.2500     31.7819
   583.9000      8.1896      2.6186     -0.4188      1.9018     30.8685
   584.0000      8.1918      2.5948     -0.4176      3.3441     30.0798
   584.1000      8.1918      2.5279     -0.5606      7.4005     29.2191
   584.2000      8.1918      2.4716     -0.6199     10.8149     28.8137
   584.3000      8.1938      2.4594     -0.4995     11.5501     29.4557
   584.4000      8.1938      2.4654     -0.5585     11.1859     30.8044
   584.5000      8.1838      2.4734     -0.5373     10.7002     31.9081
   584.6000      8.1838      2.4810     -0.5122     10.2410     33.1724
   584.7000      8.1838      2.4737     -0.4783     10.6846     36.0514
   584.8000      8.1826      2.4460     -0.5120     12.3651     39.5698
   584.9000      8.1826      2.4113     -0.5294     14.4641     41.5331
   585.0000      8.1822      2.3861     -0.5517     15.9961     43.3711
   585.1000      8.1822      2.3738     -0.5215     16.7371     47.6816
   585.2000      8.1822      2.3643     -0.5119     17.3156     53.2062
   585.3000      8.1723      2.3520     -0.5513     18.0612     57.0430
   585.4000      8.1723      2.3425     -0.5355     18.6382     59.0846
   585.5000      8.1728      2.3325     -0.4966     19.2425     60.9922
   585.6000      8.1728      2.3154     -0.5328     20.2811     62.4976
   585.7000      8.1728      2.3024     -0.5567     21.0679     62.4249
   585.8000      8.1721      2.3049     -0.5501     20.9139     62.9635
   585.9000      8.1721      2.3224     -0.5401     19.8523     65.8224
   586.0000      8.1715      2.3544     -0.5179     17.9162     68.7812
   586.1000      8.1715      2.3904     -0.4315     15.7354     70.7741
   586.2000      8.1715      2.4098     -0.4338     14.5555     72.2528
   586.3000      8.1690      2.4048     -0.4398     14.8593     73.3935
   586.4000      8.1690      2.3847     -0.5031     16.0795     74.5672
   586.5000      8.1725      2.3650     -0.4971     17.2727     76.6150
   586.6000      8.1725      2.3550     -0.5349     17.8766     78.9147
   586.7000      8.1725      2.3510     -0.4567     18.1206     77.5176
   586.8000      8.1718      2.3411     -0.4872     18.7199     73.2116
   586.9000      8.1718      2.3260     -0.4782     19.6387     71.8133
   587.0000      8.1699      2.3213     -0.5622     19.9188     73.8483
   587.1000      8.1699      2.3281     -0.4080     19.5063     74.4629
   587.2000      8.1699      2.3242     -0.4698     19.7432     72.3077
   587.3000      8.1718      2.3106     -0.4711     20.5705     69.5526
   587.4000      8.1718      2.3059     -0.4969     20.8541     66.2844
   587.5000      8.1730      2.3121     -0.5164     20.4788     62.8814
   587.6000      8.1730      2.3166     -0.4706     20.2072     61.3566
   587.7000      8.1730      2.3106     -0.4411     20.5701     62.3860
   587.8000      8.1719      2.3031     -0.5080     21.0220     63.9586
   587.9000      8.1719      2.3083     -0.5104     20.7100     63.2621
   588.0000      8.1710      2.3266     -0.4696     19.6011     60.2617
   588.1000      8.1710      2.3519     -0.4852     18.0644     57.2792
   588.2000      8.1710      2.3801     -0.4803     16.3559     55.5270
   588.3000      8.1725      2.4013     -0.4114     15.0752     54.6125
   588.4000      8.1725      2.4063     -0.4363     14.7688     53.9367
   588.5000      8.1697      2.4089     -0.5566     14.6095     52.9181
   588.6000      8.1697      2.4246     -0.4905     13.6592     51.7183
   588.7000      8.1697      2.4373     -0.4354     12.8907     50.6922
   588.8000      8.1699      2.4393     -0.4640     12.7724     49.4771
   588.9000      8.1699      2.4487     -0.4581     12.2029     48.7968
   589.0000      8.1733      2.4629     -0.4257     11.3365     49.8361
   589.1000      8.1733      2.4691     -0.4183     10.9665     52.5284
   589.2000      8.1733      2.4739     -0.4856     10.6699     55.3253
   589.3000      8.1695      2.4799     -0.4274     10.3104     56.4434
   589.4000      8.1695      2.4792     -0.4367     10.3531     55.4914
   589.5000      8.1747      2.4751     -0.4567     10.6027     53.6504
   589.6000      8.1747      2.4696     -0.4438     10.9327     52.7636
   589.7000      8.1747      2.4542     -0.4568     11.8647     53.3425
   589.8000      8.1730      2.4217     -0.4196     13.8387     54.4799
   589.9000      8.1730      2.3883     -0.5290     15.8615     56.3065
   590.0000      8.1697      2.3810     -0.4573     16.3016     59.4759
   590.1000      8.1697      2.3948     -0.4489     15.4695     63.6895
   590.2000      8.1697      2.4028     -0.4407     14.9793     67.7642
   590.3000      8.1775      2.3952     -0.4799     15.4441     70.5333
   590.4000      8.1775      2.3816     -0.4728     16.2647     71.4975
   590.5000      8.1794      2.3678     -0.4968     17.1046     71.0134
   590.6000      8.1794      2.3524     -0.4950     18.0347     70.7523
   590.7000      8.1794      2.3403     -0.5134     18.7694     72.0795
   590.8000      8.1775      2.3434     -0.5362     18.5793     74.7610
   590.9000      8.1775      2.3637     -0.4680     17.3514     77.7398
   591.0000      8.1772      2.3861     -0.4198     15.9958     80.7518
   591.1000      8.1772      2.3963     -0.4113     15.3764     84.1247
