~Version Information
VERS.                      2.0: CWLS Log ASCII Standard - VERSION 2.0
WRAP.                       NO: One line per depth step
~Well Information Block
STRT.FT               460.0000: 
STOP.FT              1509.0000: 
STEP.FT                 0.2500: 
NULL.                -999.2500: 
COMP.          Pioneer Natural Resources: COMPANY
WELL.           Amore 32-09 Tr: WELL
FLD.           Purgatoire River: FIELD
LOC.           1941' FNL & 2297' FEL: LOCATION
PROV.                 Colorado: PROVINCE
CNTY.               Las Animas: COUNTRY
SRVC.                Patterson: SERVICE COMPANY
DATE.          Mon Nov 14 11:07:52 2005: LOG DATE
UWI.           05 071 08584 00: UNIQUE WELL ID
~Curve Information Block
DEPT.FT            0 000 00 00: Depth
SN.Ohm-m                      : IEL Short Normal
SP.mV                         : IEL Spontaneous Potential
DIR.Ohm-m                     : IEL Induction Resistivity
GR.GAPI                       : Gamma Ray
~Parameter Information Block
~A  Depth        SN          SP         DIR          GR     
# ...
  1264.0000     31.4010    125.7641     24.9140     89.8888
  1264.2500     29.4481    125.6293     23.5320     93.0979
  1264.5000     27.4766    125.5158     22.3451    100.7603
  1264.7500     25.6165    125.4141     21.3416    107.1119
  1265.0000     23.9005    125.3188     20.4901    117.0134
  1265.2500     22.3212    125.2260     19.7566    122.8193
  1265.5000     20.9172    125.1278     19.1159    128.4922
  1265.7500     19.7710    125.0117     18.5531    129.6733
  1266.0000     18.9631    124.8676     18.0597    128.4344
  1266.2500     18.5215    124.6936     17.6298    127.0537
  1266.5000     18.4175    124.4970     17.2575    126.5333
  1266.7500     18.5852    124.2920     16.9387    127.6671
  1267.0000     18.8425    124.0953     16.6721    130.5531
  1267.2500     18.9337    123.9250     16.4596    132.2624
  1267.5000     18.7408    123.7976     16.3062    133.5470
  1267.7500     18.3383    123.7254     16.2206    133.7841
  1268.0000     17.8907    123.7120     16.2167    134.3605
  1268.2500     17.5430    123.7530     16.3097    135.3108
  1268.5000     17.3420    123.8389     16.5072    137.0776
  1268.7500     17.2812    123.9556     16.7983    137.6966
  1269.0000     17.4136    124.0834     17.1490    136.7309
  1269.2500     17.8012    124.2013     17.5090    134.7376
  1269.5000     18.4162    124.2998     17.8292    130.3806
  1269.7500     19.1767    124.3889     18.0786    127.2632
  1270.0000     19.9738    124.4915     18.2520    123.6192
  1270.2500     20.6475    124.6288     18.3637    122.3049
  1270.5000     21.0516    124.8083     18.4317    121.3433
  1270.7500     21.1561    125.0200     18.4649    120.3916
  1271.0000     21.0452    125.2414     18.4587    117.3666
  1271.2500     20.8246    125.4501     18.3999    114.6772
  1271.5000     20.5511    125.6378     18.2747    111.8274
  1271.7500     20.2493    125.8157     18.0733    111.9355
  1272.0000     19.9544    126.0079     17.7939    115.5738
  1272.2500     19.7023    126.2373     17.4475    119.6011
  1272.5000     19.4789    126.5134     17.0583    126.2259
  1272.7500     19.1655    126.8294     16.6565    130.2307
  1273.0000     18.5800    127.1656     16.2665    135.0169
  1273.2500     17.6665    127.4951     15.8973    137.3412
  1273.5000     16.6267    127.7875     15.5447    139.6957
  1273.7500     15.7680    128.0132     15.2006    140.6890
  1274.0000     15.2281    128.1478     14.8653    141.5289
  1274.2500     14.9400    128.1742     14.5532    141.6457
  1274.5000     14.8299    128.0804     14.2869    141.0719
  1274.7500     14.8803    127.8532     14.0843    140.2043
  1275.0000     15.0160    127.4731     13.9490    138.3378
  1275.2500     15.1059    126.9110     13.8697    136.9069
  1275.5000     15.1036    126.1307     13.8286    134.8601
  1275.7500     15.0941    125.1036     13.8111    133.5920
  1276.0000     15.1717    123.8414     13.8121    131.4801
  1276.2500     15.3207    122.4435     13.8352    129.8256
  1276.5000     15.4392    121.1348     13.8853    127.2618
  1276.7500     15.4272    120.2417     13.9624    125.5473
  1277.0000     15.2324    120.0727     14.0613    122.2535
  1277.2500     14.8926    120.7513     14.1779    119.0888
  1277.5000     14.5768    122.1273     14.3160    113.3188
  1277.7500     14.5365    123.8522     14.4862    110.0104
  1278.0000     14.9455    125.5575     14.6998    108.3482
  1278.2500     15.7814    126.9940     14.9644    110.0386
  1278.5000     16.8999    128.0628     15.2838    115.3675
  1278.7500     18.1334    128.7742     15.6601    119.0562
  1279.0000     19.2575    129.1927     16.0928    122.1125
  1279.2500     20.0516    129.3970     16.5748    121.7683
  1279.5000     20.4897    129.4571     17.0913    118.1175
  1279.7500     20.7488    129.4250     17.6239    114.5215
  1280.0000     21.0411    129.3345     18.1628    108.8714
  1280.2500     21.5065    129.2064     18.7148    105.1631
  1280.5000     22.1952    129.0538     19.2994     99.2654
  1280.7500     23.1134    128.8866     19.9325     95.0084
  1281.0000     24.2465    128.7122     20.6136     88.7472
  1281.2500     25.5008    128.5346     21.3288     85.2236
  1281.5000     26.7296    128.3575     22.0666     81.6114
  1281.7500     27.8624    128.1896     22.8275     80.3688
  1282.0000     28.9033    128.0443     23.6146     79.7097
  1282.2500     29.8397    127.9321     24.4125     79.5796
  1282.5000     30.6274    127.8535     25.1698     79.1543
  1282.7500     31.2086    127.8004     25.7981     78.5005
  1283.0000     31.5365    127.7657     26.1933     76.8524
  1283.2500     31.6081    127.7504     26.2769     75.3993
  1283.5000     31.4570    127.7649     26.0366     73.3332
  1283.7500     31.1475    127.8236     25.5284     72.7920
  1284.0000     30.7477    127.9352     24.8421     74.7349
  1284.2500     30.2484    128.0953     24.0599     78.3083
  1284.5000     29.5613    128.2840     23.2389     86.6538
  1284.7500     28.6186    128.4709     22.4152     93.6600
  1285.0000     27.4339    128.6261     21.6117    105.5468
  1285.2500     26.1075    128.7297     20.8416    113.8360
  1285.5000     24.7665    128.7786     20.1079    125.2413
  1285.7500     23.4399    128.7859     19.4059    131.1190
  1286.0000     22.0606    128.7725     18.7303    136.4029
  1286.2500     20.6098    128.7581     18.0818    137.8282
  1286.5000     19.1452    128.7595     17.4682    138.0884
  1286.7500     17.7500    128.7941     16.9005    137.5219
  1287.0000     16.5533    128.8792     16.3886    135.5087
  1287.2500     15.6857    129.0208     15.9426    133.3038
  1287.5000     15.1435    129.2052     15.5740    129.4080
  1287.7500     14.7943    129.4017     15.2947    127.1908
  1288.0000     14.5496    129.5773     15.1111    125.4819
  1288.2500     14.4611    129.7082     15.0186    125.6368
  1288.5000     14.6403    129.7827     15.0011    127.5555
  1288.7500     15.1149    129.8016     15.0345    129.4499
  1289.0000     15.7830    129.7776     15.0953    131.7421
  1289.2500     16.5112    129.7306     15.1700    131.9419
  1289.5000     17.2150    129.6762     15.2648    129.5826
  1289.7500     17.8249    129.6205     15.4077    126.9734
  1290.0000     18.2414    129.5651     15.6407    123.9638
  1290.2500     18.3695    129.5172     15.9996    123.4696
  1290.5000     18.2056    129.4905     16.4909    124.2168
  1290.7500     17.8605    129.4970     17.0772    124.2917
  1291.0000     17.5147    129.5370     17.6861    121.5661
  1291.2500     17.3679    129.5941     18.2454    117.4265
  1291.5000     17.5624    129.6421     18.7204    108.5854
  1291.7500     18.1516    129.6572     19.1215    101.9371
  1292.0000     19.1378    129.6290     19.4777     92.5403
  1292.2500     20.4659    129.5622     19.8096     87.4108
  1292.5000     21.9693    129.4724     20.1241     82.2026
  1292.7500     23.3712    129.3810     20.4266     80.5388
  1293.0000     24.4352    129.3090     20.7305     80.4673
  1293.2500     25.1083    129.2734     21.0525     81.5665
  1293.5000     25.4429    129.2842     21.3985     83.8745
  1293.7500     25.4734    129.3422     21.7509     85.3718
  1294.0000     25.2300    129.4384     22.0701     87.5728
  1294.2500     24.7692    129.5551     22.3138     89.4968
  1294.5000     24.1900    129.6712     22.4647     93.6346
  1294.7500     23.6304    129.7679     22.5410     96.8128
  1295.0000     23.1818    129.8330     22.5794    100.6992
  1295.2500     22.8505    129.8641     22.6113    102.2053
  1295.5000     22.6055    129.8682     22.6579    103.2468
  1295.7500     22.4261    129.8587     22.7451    103.6226
  1296.0000     22.3804    129.8484     22.9122    103.9801
  1296.2500     22.5910    129.8454     23.1985    103.8478
  1296.5000     23.0617    129.8505     23.6205    102.5409
  1296.7500     23.7122    129.8585     24.1628    100.8533
  1297.0000     24.5390    129.8611     24.7937     97.5948
  1297.2500     25.5608    129.8505     25.4851     95.4071
