~Version Information
VERS.                      2.0: CWLS Log ASCII Standard - VERSION 2.0
WRAP.                       NO: One line per depth step
~Well Information Block
STRT.FT               845.0000: 
STOP.FT              2102.0000: 
STEP.FT                 0.1000: 
NULL.                -999.2500: 
COMP.          Petrogulf Corporation: COMPANY
WELL.               YWAM 7-32R: WELL
FLD.           Purgatorie River: FIELD
LOC.           2355' FNL & 2376' FEL: LOCATION
PROV.                 Colorado: PROVINCE
CNTY.               Las Animas: COUNTRY
SRVC.                Patterson: SERVICE COMPANY
DATE.          Fri Sep 30 11:07:31 2005: LOG DATE
UWI.                          : UNIQUE WELL ID
~Curve Information Block
DEPT.FT            0 000 00 00: Depth
DCAL.in                       : CDL Caliper
RHOB.g/cc                     : CDL Bulk Density
RHOC.g/cc                     : CDL Density Correction
DPOR.pu                       : CDL Density Porosity
GR.GAPI                       : Gamma Ray
NPOR.pu                       : Neutron Porosity
~Parameter Information Block
~A  Depth       DCAL        RHOB        RHOC        DPOR         GR         NPOR    
   845.0000      8.3217      2.4757     -0.5132     10.5665     72.0392     28.8774
   845.1000      8.3217      2.4702     -0.5001     10.8958     73.5599     29.0581
   845.2000      8.3217      2.4562     -0.5605     11.7484     74.2413     29.3874
   845.3000      8.3205      2.4424     -0.5240     12.5833     74.6922     29.7022
   845.4000      8.3205      2.4311     -0.5267     13.2652     73.5105     29.9683
   845.5000      8.3197      2.4221     -0.5191     13.8141     70.6622     30.1681
   845.6000      8.3197      2.4128     -0.5075     14.3743     69.0879     30.2525
   845.7000      8.3197      2.3973     -0.4845     15.3127     70.5701     30.0537
   845.8000      8.3061      2.3834     -0.5676     16.1564     73.2760     29.4578
   845.9000      8.3061      2.3834     -0.5868     16.1600     75.8982     28.9464
   846.0000      8.3096      2.3838     -0.5052     16.1320     78.7195     29.0650
   846.1000      8.3096      2.3663     -0.5481     17.1963     79.8364     29.5072
   846.2000      8.3096      2.3442     -0.5672     18.5356     77.8055     29.7997
   846.3000      8.3094      2.3415     -0.5941     18.6961     74.2690     29.9936
   846.4000      8.3094      2.3603     -0.5042     17.5555     71.1703     30.1395
   846.5000      8.2930      2.3826     -0.5384     16.2042     69.2573     30.1053
   846.6000      8.2930      2.3916     -0.4459     15.6603     67.6070     29.9527
   846.7000      8.2930      2.3823     -0.5027     16.2232     66.0925     29.8999
   846.8000      8.2847      2.3648     -0.5059     17.2834     66.1763     30.1093
   846.9000      8.2847      2.3567     -0.5503     17.7764     68.3161     30.2469
   847.0000      8.2788      2.3593     -0.4638     17.6152     71.5258     29.8627
   847.1000      8.2788      2.3464     -0.4338     18.3996     74.7798     29.4278
   847.2000      8.2788      2.3069     -0.5746     20.7969     77.5553     29.6555
   847.3000      8.2876      2.2679     -0.6178     23.1589     78.6949     30.2867
   847.4000      8.2876      2.2518     -0.5268     24.1330     77.1842     30.5774
   847.5000      8.2837      2.2513     -0.5528     24.1659     74.1364     30.2801
   847.6000      8.2837      2.2522     -0.5654     24.1104     72.0163     29.7160
   847.7000      8.2837      2.2503     -0.6171     24.2268     72.6851     29.4160
   847.8000      8.2917      2.2459     -0.5643     24.4932     75.6769     29.4622
   847.9000      8.2917      2.2356     -0.5529     25.1179     77.7988     29.5713
   848.0000      8.2901      2.2223     -0.6127     25.9220     77.4434     29.6961
   848.1000      8.2901      2.2238     -0.6185     25.8287     76.1115     29.9921
   848.2000      8.2901      2.2472     -0.5763     24.4128     73.7342     30.5315
   848.3000      8.2884      2.2758     -0.5627     22.6818     70.5354     30.9719
   848.4000      8.2884      2.2949     -0.5487     21.5229     69.9296     30.9941
   848.5000      8.2875      2.3099     -0.5726     20.6139     72.7641     30.8636
   848.6000      8.2875      2.3298     -0.4943     19.4032     76.9676     30.7535
   848.7000      8.2875      2.3466     -0.5024     18.3856     82.2451     30.7193
   848.8000      8.2837      2.3461     -0.4534     18.4173     87.4240     31.0469
   848.9000      8.2837      2.3290     -0.5046     19.4524     87.5776     31.6649
   849.0000      8.2914      2.3115     -0.4860     20.5147     81.3018     32.0278
   849.1000      8.2914      2.3110     -0.5587     20.5465     74.7149     31.8909
   849.2000      8.2914      2.3351     -0.5165     19.0860     71.8409     31.6164
   849.3000      8.2787      2.3631     -0.5066     17.3901     71.2718     31.5108
   849.4000      8.2787      2.3656     -0.5194     17.2335     72.6992     31.3923
   849.5000      8.2880      2.3485     -0.5646     18.2698     75.8781     31.0379
   849.6000      8.2880      2.3392     -0.5712     18.8339     79.2547     30.6467
   849.7000      8.2880      2.3495     -0.5401     18.2133     82.7271     30.4610
   849.8000      8.2784      2.3697     -0.5525     16.9896     86.3948     30.5206
   849.9000      8.2784      2.3768     -0.4416     16.5575     87.4241     30.7811
   850.0000      8.2882      2.3658     -0.5809     17.2254     83.0027     30.9165
   850.1000      8.2882      2.3707     -0.5889     16.9301     76.6870     30.6641
   850.2000      8.2882      2.4005     -0.4857     15.1226     74.0199     30.2710
   850.3000      8.2781      2.4188     -0.4822     14.0126     74.5354     30.1388
   850.4000      8.2781      2.4075     -0.5176     14.6986     75.6739     30.2424
   850.5000      8.2743      2.3856     -0.5544     16.0221     76.2116     30.2706
   850.6000      8.2743      2.3748     -0.5753     16.6777     75.4931     30.2024
   850.7000      8.2743      2.3747     -0.5323     16.6857     72.9212     30.2609
   850.8000      8.2593      2.3794     -0.6203     16.3989     68.0719     30.5589
   850.9000      8.2593      2.3987     -0.5805     15.2280     63.3594     31.0122
   851.0000      8.2593      2.4294     -0.5160     13.3704     61.6416     31.2860
   851.1000      8.2593      2.4509     -0.5010     12.0692     62.0210     31.1215
   851.2000      8.2593      2.4562     -0.4721     11.7448     61.9786     30.5908
   851.3000      8.2295      2.4464     -0.5155     12.3391     60.8835     29.9785
   851.4000      8.2295      2.4214     -0.4847     13.8572     61.2773     29.3097
   851.5000      8.2449      2.3942     -0.6065     15.5013     63.7832     28.4732
   851.6000      8.2449      2.3877     -0.5607     15.8967     64.3879     27.8559
   851.7000      8.2449      2.3985     -0.5479     15.2404     62.6107     27.7685
   851.8000      8.2604      2.3994     -0.4921     15.1877     61.5595     27.9096
   851.9000      8.2604      2.3843     -0.6029     16.1057     61.4115     27.9624
   852.0000      8.2165      2.3741     -0.5159     16.7232     60.7077     27.9409
   852.1000      8.2165      2.3711     -0.5339     16.9013     59.7356     28.0872
   852.2000      8.2165      2.3656     -0.5320     17.2394     60.5236     28.4087
   852.3000      8.2246      2.3645     -0.5454     17.3038     63.4011     28.6869
   852.4000      8.2246      2.3759     -0.4577     16.6119     66.3200     28.8656
   852.5000      8.2104      2.3925     -0.4697     15.6035     69.5716     29.0271
   852.6000      8.2104      2.4020     -0.4485     15.0285     74.6345     29.1860
   852.7000      8.2104      2.3936     -0.5017     15.5411     79.6682     29.2481
   852.8000      8.2258      2.3667     -0.4615     17.1707     82.9476     29.4629
   852.9000      8.2258      2.3334     -0.5187     19.1896     84.9024     30.1563
   853.0000      8.2536      2.3073     -0.4969     20.7670     87.0428     31.1946
   853.1000      8.2536      2.2864     -0.4452     22.0348     90.5119     32.1893
   853.2000      8.2536      2.2658     -0.5132     23.2860     95.2462     32.9384
   853.3000      8.2653      2.2495     -0.5015     24.2739    100.3825     33.4990
   853.4000      8.2653      2.2368     -0.4807     25.0421    104.4948     33.8187
   853.5000      8.2882      2.2400     -0.6050     24.8476    105.3564     33.7242
   853.6000      8.2882      2.2734     -0.4772     22.8267    101.2222     33.3609
   853.7000      8.2882      2.3166     -0.4883     20.2066     93.1243     33.0879
   853.8000      8.2890      2.3370     -0.4225     18.9702     86.3855     33.1251
   853.9000      8.2890      2.3233     -0.4885     19.7973     86.3279     33.3946
   854.0000      8.2911      2.2998     -0.5282     21.2236     92.6674     33.5148
   854.1000      8.2911      2.2956     -0.4901     21.4766     97.9638     33.3843
   854.2000      8.2911      2.3099     -0.4630     20.6111     97.1470     33.1870
   854.3000      8.2894      2.3258     -0.4825     19.6463     94.7988     33.0250
   854.4000      8.2894      2.3295     -0.4237     19.4223     95.1797     33.1331
   854.5000      8.2843      2.3164     -0.4864     20.2204     96.3922     33.6217
