~Version Information
VERS.                      2.0: CWLS Log ASCII Standard - VERSION 2.0
WRAP.                       NO: One line per depth step
~Well Information Block
STRT.FT               460.0000: 
STOP.FT              2311.7500: 
STEP.FT                 0.2500: 
NULL.                -999.2500: 
COMP.          Pioneer Natural Resources: COMPANY
WELL.          McDonald 33-31 R: WELL
FLD.           Purgatoire River: FIELD
LOC.           1386' FSL & 1926' FEL: LOCATION
STAT.                 Colorado: State
CNTY.               Las Animas: COUNTY
CTRY.                      USA: Country
SECT.                       31: Section
TOWN.                      32S: Township
RANG.                      66W: Range
SRVC.                Patterson: SERVICE COMPANY
DATE.          Fri Sep 23 00:08:18 2005: LOG DATE
API.           05 071 08533 00: API#
~Curve Information Block
DEPT.FT            0 000 00 00: Depth
SN.Ohm-m                      : IEL Short Normal
SP.mV                         : IEL Spontaneous Potential
DIR.Ohm-m                     : IEL Induction Resistivity
GR.GAPI                       : Gamma Ray
~Parameter Information Block
~A  Depth        SN          SP         DIR          GR     
# ...
   929.0000      2.1892   -368.1094     12.2717    110.8232
   929.2500      2.1290   -368.5386     12.9064    107.5735
   929.5000      2.0745   -369.4889     13.4085    103.9806
   929.7500      2.0352   -370.9501     13.7802    102.5866
   930.0000      2.0106   -372.8493     14.0367    101.6248
   930.2500      1.9997   -375.0505     14.1960    101.3516
   930.5000      2.0077   -377.3636     14.2740    100.9417
   930.7500      2.0428   -379.5697     14.2838    100.4935
   931.0000      2.1047   -381.4558     14.2358     99.6085
   931.2500      2.1725   -382.8516     14.1390     99.1150
   931.5000      2.2114   -383.6569     14.0018     98.9846
   931.7500      2.1967   -383.8531     13.8333     99.3660
   932.0000      2.1381   -383.4980     13.6429    100.3417
   932.2500      2.0772   -382.7051     13.4394    101.0934
   932.5000      2.0555   -381.6179     13.2289    102.4534
   932.7500      2.0846   -380.3842     13.0126    103.6864
   933.0000      2.1447   -379.1365     12.7876    106.1353
   933.2500      2.2034   -377.9798     12.5516    108.0545
   933.5000      2.2353   -376.9860     12.3064    111.0075
   933.7500      2.2357   -376.1929     12.0571    112.8063
   934.0000      2.2225   -375.6073     11.8084    114.8887
   934.2500      2.2209   -375.2097     11.5609    115.7263
   934.5000      2.2417   -374.9616     11.3134    116.2964
   934.7500      2.2709   -374.8148     11.0672    116.5439
   935.0000      2.2781   -374.7202     10.8299    117.1771
   935.2500      2.2419   -374.6361     10.6138    117.7266
   935.5000      2.1727   -374.5327     10.4329    118.3692
   935.7500      2.1048   -374.3947     10.2981    118.5606
   936.0000      2.0669   -374.2184     10.2160    118.4719
   936.2500      2.0661   -374.0093     10.1869    118.1309
   936.5000      2.0937   -373.7769     10.2062    116.9947
   936.7500      2.1310   -373.5305     10.2656    115.5971
   937.0000      2.1572   -373.2781     10.3557    112.2805
   937.2500      2.1657   -373.0251     10.4687    109.5173
   937.5000      2.1749   -372.7764     10.6004    105.8181
   937.7500      2.2124   -372.5388     10.7496    104.3952
   938.0000      2.2850   -372.3220     10.9155    104.0965
   938.2500      2.3666   -372.1390     11.0944    104.6358
   938.5000      2.4181   -372.0046     11.2757    105.5234
   938.7500      2.4245   -371.9313     11.4401    105.9474
   939.0000      2.4089   -371.9251     11.5598    106.6031
   939.2500      2.4097   -371.9825     11.6032    107.1911
   939.5000      2.4476   -372.0889     11.5424    108.0283
   939.7500      2.5101   -372.2209     11.3632    108.2411
   940.0000      2.5603   -372.3502     11.0704    107.7521
   940.2500      2.5655   -372.4487     10.6870    106.9821
   940.5000      2.5249   -372.4939     10.2470    105.6988
   940.7500      2.4707   -372.4727      9.7846    105.2049
   941.0000      2.4400   -372.3827      9.3267    105.7809
   941.2500      2.4502   -372.2316      8.8900    107.2723
   941.5000      2.4912   -372.0338      8.4839    110.8038
   941.7500      2.5345   -371.8062      8.1140    113.3885
   942.0000      2.5518   -371.5635      7.7852    116.4072
   942.2500      2.5366   -371.3143      7.5021    117.4988
   942.5000      2.5074   -371.0597      7.2690    118.0327
   942.7500      2.4907   -370.7944      7.0892    118.0500
   943.0000      2.5046   -370.5097      6.9647    117.9983
   943.2500      2.5493   -370.1974      6.8974    118.0241
   943.5000      2.6043   -369.8526      6.8885    118.5652
   943.7500      2.6404   -369.4753      6.9384    119.6186
   944.0000      2.6466   -369.0696      7.0452    122.3838
   944.2500      2.6461   -368.6433      7.2042    124.6502
   944.5000      2.6794   -368.2060      7.4074    127.8047
   944.7500      2.7701   -367.7682      7.6439    129.3845
   945.0000      2.9018   -367.3412      7.9020    130.5898
   945.2500      3.0242   -366.9359      8.1714    130.5366
   945.5000      3.0921   -366.5623      8.4455    129.5972
   945.7500      3.1075   -366.2278      8.7229    128.9232
   946.0000      3.1147   -365.9369      9.0080    128.5509
   946.2500      3.1472   -365.6913      9.3117    128.7955
   946.5000      3.1893   -365.4906      9.6509    129.5613
   946.7500      3.1937   -365.3347     10.0465    130.0560
   947.0000      3.1316   -365.2247     10.5181    130.4144
   947.2500      3.0216   -365.1632     11.0790    130.2260
   947.5000      2.9136   -365.1536     11.7320    128.5273
   947.7500      2.8479   -365.1971     12.4685    125.5392
   948.0000      2.8261   -365.2904     13.2717    116.8457
   948.2500      2.8190   -365.4228     14.1219    108.4217
   948.5000      2.7977   -365.5762     15.0007     94.6086
   948.7500      2.7567   -365.7261     15.8889     87.0452
   949.0000      2.7098   -365.8455     16.7614     81.6803
   949.2500      2.6727   -365.9097     17.5843     82.9573
   949.5000      2.6559   -365.9019     18.3225     91.2071
   949.7500      2.6625   -365.8175     18.9520     99.2409
   950.0000      2.6815   -365.6658     19.4675    111.4227
   950.2500      2.6913   -365.4694     19.8784    117.8409
   950.5000      2.6799   -365.2598     20.2004    123.3886
   950.7500      2.6599   -365.0706     20.4505    124.3512
   951.0000      2.6539   -364.9311     20.6481    122.5610
   951.2500      2.6696   -364.8591     20.8164    119.9520
   951.5000      2.6899   -364.8580     20.9776    115.3046
   951.7500      2.6856   -364.9163     21.1483    112.5228
   952.0000      2.6412   -365.0117     21.3415    110.0295
   952.2500      2.5740   -365.1172     21.5740    109.8621
   952.5000      2.5241   -365.2086     21.8698    111.4650
   952.7500      2.5234   -365.2697     22.2537    112.9445
   953.0000      2.5728   -365.2968     22.7383    114.0537
   953.2500      2.6408   -365.2964     23.3149    113.3632
   953.5000      2.6823   -365.2832     23.9505    110.0979
   953.7500      2.6724   -365.2728     24.5933    106.9649
   954.0000      2.6295   -365.2769     25.1795    101.9494
   954.2500      2.6017   -365.2989     25.6423     98.6213
   954.5000      2.6265   -365.3336     25.9234     93.0407
   954.7500      2.7012   -365.3694     25.9949     88.5300
   955.0000      2.7863   -365.3928     25.8853     81.1349
   955.2500      2.8371   -365.3935     25.6894     76.8668
   955.5000      2.8414   -365.3692     25.5438     73.2720
   955.7500      2.8304   -365.3262     25.5782     73.0556
   956.0000      2.8505   -365.2791     25.8703     75.0601
   956.2500      2.9253   -365.2469     26.4177     76.9517
   956.5000      3.0383   -365.2486     27.1295     79.0560
   956.7500      3.1477   -365.2976     27.8372     79.4332
   957.0000      3.2199   -365.3974     28.3404     78.1729
   957.2500      3.2538   -365.5390     28.4835     76.1956
   957.5000      3.2704   -365.6998     28.2242     72.1587
   957.7500      3.2875   -365.8445     27.6369     69.5469
   958.0000      3.3116   -365.9289     26.8563     67.5622
   958.2500      3.3380   -365.9053     26.0136     68.3439
   958.5000      3.3488   -365.7306     25.2056     72.8950
   958.7500      3.3219   -365.3750     24.4917     77.6963
   959.0000      3.2535   -364.8289     23.8976     86.3009
   959.2500      3.1685   -364.1063     23.4186     92.1664
   959.5000      3.1036   -363.2439     23.0279     99.6011
   959.7500      3.0819   -362.2939     22.6929    102.8003
   960.0000      3.0993   -361.3156     22.3941    104.2508
   960.2500      3.1246   -360.3667     22.1356    103.1417
   960.5000      3.1193   -359.4971     21.9412     99.2736
   960.7500      3.0694   -358.7465     21.8381     95.9804
   961.0000      2.9999   -358.1453     21.8392     91.5744
   961.2500      2.9516   -357.7149     21.9334     89.8570
   961.5000      2.9469   -357.4673     22.0859     89.6650
   961.7500      2.9735   -357.4015     22.2440     90.7993
   962.0000      2.9978   -357.5011     22.3461     93.4462
   962.2500      2.9937   -357.7322     22.3318     95.4645
