~Version Information
VERS.                      2.0: CWLS Log ASCII Standard - VERSION 2.0
WRAP.                       NO: One line per depth step
~Well Information Block
STRT.FT               615.0000: 
STOP.FT              1607.0000: 
STEP.FT                 0.1000: 
NULL.                -999.2500: 
COMP.          Pioneer Natural Resources: COMPANY
WELL.          Galloway 32-13 Tr: WELL
FLD.           Purgatoire River: FIELD
LOC.           1910' FNL & 2002' FEL: LOCATION
PROV.                 Colorado: PROVINCE
CNTY.               Las Animas: COUNTRY
SRVC.                Patterson: SERVICE COMPANY
DATE.          Mon Nov 14 07:13:22 2005: LOG DATE
UWI.           05 071 08608 00: UNIQUE WELL ID
~Curve Information Block
DEPT.FT            0 000 00 00: Depth
DCAL.in                       : CDL Caliper
RHOB.g/cc                     : CDL Bulk Density
RHOC.g/cc                     : CDL Density Correction
DPOR.pu                       : CDL Density Porosity
GR.GAPI                       : Gamma Ray
NPOR.pu                       : Neutron Porosity
~Parameter Information Block
~A  Depth       DCAL        RHOB        RHOC        DPOR         GR         NPOR    
   615.0000      0.0000      2.2940     -0.3680     21.5728    115.4743     16.3694
   615.1000      0.0000      2.2928     -0.3418     21.6475    112.5547     16.3739
   615.2000      0.0000      2.2817     -0.3784     22.3221    106.4326     15.6625
   615.3000      0.0000      2.2872     -0.3574     21.9893    104.5240     14.8422
   615.4000      0.0000      2.3113     -0.2856     20.5274    101.9878     14.4389
   615.5000      0.0000      2.3316     -0.2949     19.2991     96.5287     14.1230
   615.6000      0.0000      2.3454     -0.3364     18.4592     91.6512     13.5845
   615.7000      0.0000      2.3647     -0.3083     17.2888     91.5551     13.4069
   615.8000      0.0000      2.3880     -0.2945     15.8758     94.1866     13.9807
   615.9000      0.0000      2.4018     -0.2532     15.0453     94.9817     14.7931
   616.0000      0.0000      2.3989     -0.2716     15.2160     91.0339     14.9740
   616.1000      0.0000      2.3906     -0.2780     15.7227     82.4066     14.4311
   616.2000      0.0000      2.3817     -0.2475     16.2590     66.0985     13.9451
   616.3000      0.0000      2.3610     -0.3040     17.5159     65.2441     13.8342
   616.4000      0.0000      2.3309     -0.3386     19.3404     71.1086     13.9653
   616.5000      0.0000      2.3193     -0.3850     20.0405     75.2855     14.1882
   616.6000      0.0000      2.3441     -0.3757     18.5403     73.0624     14.4514
   616.7000      0.0000      2.3790     -0.2953     16.4271     67.9623     14.8140
   616.8000      0.0000      2.3870     -0.3626     15.9411     66.2567     14.9720
   616.9000      0.0000      2.3766     -0.3798     16.5684     68.4562     14.5844
   617.0000      0.0000      2.3732     -0.3326     16.7754     70.9391     13.9861
   617.1000      0.0000      2.3752     -0.2939     16.6533     72.4217     13.7104
   617.2000      0.0000      2.3655     -0.2708     17.2421     64.4032     13.7359
   617.3000      0.0000      2.3420     -0.3279     18.6685     62.8355     13.7098
   617.4000      0.0000      2.3259     -0.3659     19.6403     58.5538     13.6408
   617.5000      0.0000      2.3270     -0.3456     19.5745     55.2186     13.5628
   617.6000      0.0000      2.3266     -0.2990     19.5997     57.4544     13.2521
   617.7000      0.0000      2.3177     -0.3803     20.1377     60.1494     13.1120
   617.8000      0.0000      2.3137     -0.3201     20.3801     55.8266     13.2168
   617.9000      0.0000      2.3181     -0.3796     20.1129     47.6782     12.7708
   618.0000      0.0000      2.3273     -0.3249     19.5583     44.8778     11.6999
   618.1000      0.0000      2.3360     -0.3181     19.0314     50.0489     10.8542
   618.2000      0.0000      2.3393     -0.2961     18.8291     48.9626     10.8373
   618.3000      0.0000      2.3349     -0.3047     19.0956     49.8713     11.6680
   618.4000      0.0000      2.3192     -0.2933     20.0470     47.0262     13.1039
   618.5000      0.0000      2.2989     -0.3691     21.2806     44.7502     14.1200
   618.6000      0.0000      2.2891     -0.3298     21.8733     46.1302     13.8910
   618.7000      0.0000      2.2923     -0.3118     21.6789     50.2079     13.2846
   618.8000      0.0000      2.3094     -0.4123     20.6429     54.8942     13.0100
   618.9000      0.0000      2.3354     -0.2996     19.0683     57.0190     12.8005
   619.0000      0.0000      2.3564     -0.3241     17.7933     54.9613     12.7851
   619.1000      0.0000      2.3740     -0.2762     16.7295     53.1389     13.0532
   619.2000      0.0000      2.3847     -0.2418     16.0798     55.1160     13.1170
   619.3000      0.0000      2.3801     -0.2957     16.3597     58.6381     13.0134
   619.4000      0.0000      2.3724     -0.3000     16.8249     61.4313     13.2973
   619.5000      0.0000      2.3723     -0.2777     16.8316     62.5482     13.8771
   619.6000      0.0000      2.3722     -0.3045     16.8349     61.1333     14.2164
   619.7000      0.0000      2.3663     -0.2908     17.1955     60.4563     14.4414
   619.8000      0.0000      2.3609     -0.3160     17.5208     63.2036     15.1166
   619.9000      0.0000      2.3651     -0.3404     17.2690     65.0474     15.7438
   620.0000      0.0000      2.3730     -0.2807     16.7890     62.7346     15.7248
   620.1000      0.0000      2.3692     -0.2472     17.0205     60.8248     15.7672
   620.2000      0.0000      2.3548     -0.3242     17.8937     63.1640     16.0408
   620.3000      0.0000      2.3353     -0.2554     19.0727     67.0060     15.7735
   620.4000      0.0000      2.3024     -0.2725     21.0661     68.1454     14.8621
   620.5000      0.0000      2.2621     -0.3576     23.5107     64.5498     14.0033
   620.6000      0.0000      2.2318     -0.3658     25.3439     57.1617     13.6294
   620.7000      0.0000      2.2283     -0.3924     25.5550     50.1490     13.5859
   620.8000      0.0000      2.2734     -0.3732     22.8250     47.0617     13.6892
   620.9000      0.0000      2.3598     -0.2757     17.5895     46.5262     13.6876
   621.0000      0.0000      2.4377     -0.1618     12.8689     45.6483     13.2635
   621.1000      0.0000      2.4722     -0.1130     10.7741     44.3416     12.5495
   621.2000      0.0000      2.4778     -0.1484     10.4390     44.5247     12.1805
   621.3000      0.0000      2.4777     -0.1453     10.4431     45.5991     12.2876
   621.4000      0.0000      2.4682     -0.1808     11.0180     44.0415     12.5202
   621.5000      0.0000      2.4403     -0.1943     12.7105     41.7386     12.7000
   621.6000      0.0000      2.4056     -0.3189     14.8143     43.6939     12.7747
   621.7000      0.0000      2.3819     -0.3482     16.2512     49.2723     12.7464
   621.8000      0.0000      2.3827     -0.4018     16.2000     53.1685     12.6976
   621.9000      0.0000      2.4146     -0.3488     14.2651     51.2760     12.7708
   622.0000      0.0000      2.4554     -0.3011     11.7927     47.4569     13.0017
   622.1000      0.0000      2.4808     -0.3356     10.2542     48.3510     13.0032
   622.2000      0.0000      2.4982     -0.3487      9.2017     52.6279     12.6066
   622.3000      0.0000      2.5195     -0.3318      7.9108     55.9902     12.5500
   622.4000      0.0000      2.5426     -0.2681      6.5088     58.3036     13.2254
   622.5000      0.0000      2.5657     -0.3637      5.1119     59.9717     13.7770
   622.6000      0.0000      2.5873     -0.2991      3.8013     61.4510     13.6980
   622.7000      0.0000      2.6020     -0.3034      2.9113     64.4994     13.7582
   622.8000      0.0000      2.6168     -0.3466      2.0111     68.6670     14.4580
   622.9000      0.0000      2.6386     -0.3190      0.6937     72.9208     15.5322
   623.0000      0.0000      2.6496     -0.3220      0.0259     76.6800     16.6380
   623.1000      0.0000      2.6356     -0.3543      0.8711     78.9672     17.1278
   623.2000      0.0000      2.6083     -0.3250      2.5300     81.0116     16.9882
   623.3000      0.0000      2.5741     -0.3618      4.6022     83.2480     16.8670
   623.4000      0.0000      2.5267     -0.2748      7.4713     83.1372     16.7163
   623.5000      0.0000      2.4816     -0.3995     10.2074     80.8332     16.3592
   623.6000      0.0000      2.4667     -0.3581     11.1101     80.1026     16.2846
   623.7000      0.0000      2.4801     -0.3437     10.2980     82.7774     16.8086
   623.8000      0.0000      2.4989     -0.3272      9.1601     88.2579     17.1129
   623.9000      0.0000      2.5070     -0.3769      8.6691     93.7654     16.6597
   624.0000      0.0000      2.5049     -0.3423      8.7943     95.3779     16.4590
   624.1000      0.0000      2.5093     -0.3927      8.5278     93.0911     16.9173
   624.2000      0.0000      2.5288     -0.3150      7.3482     90.5676     17.0887
   624.3000      0.0000      2.5451     -0.2881      6.3585     90.0736     17.0194
   624.4000      0.0000      2.5438     -0.3148      6.4379     91.2498     17.5774
   624.5000      0.0000      2.5303     -0.3741      7.2553     92.0396     18.4491
