~Version Information
 VERS.                                  2.0 : CWLS LAS VERSION
 WRAP.                                   NO : WRAPING MODE
 SWARE .                 MController 2.5.0J : SOFTWARE VERSION
~Well Information
 WELL.                     Manville 42-14Tr : WELL
 COMP.    Pioneer Natural Resources USA Inc : COMPANY
 FLD.                      Purgatoire River : FIELD
 LOC.                 SE/NE SEC14 T32S R66W : LOCATION
 DATE.                             09/18/05 : DATE(S) LOGGED
 SRVC.       Blanco Geological Services LLC : SERVICE COMPANY
 STAT.                             Colorado : STATE
 CNTY.                           Las Animas : COUNTY
 CTRY.                                  USA : COUNTRY
 API.                       05-071-08522-00 : API NUMBER
 STRT.FT                             889.00 : START DEPTH
 STOP.FT                            1780.00 : STOP DEPTH
 STEP.FT                               1.00 : DEPTH INCREMENT
 NULL.                                -9999 : NULL VALUE
~Curve information
 DEPTH.FT                                   :
 ROP.MIN/FT                                 :
 GAS.UNITS                                  :
~ASCII Log data
# ...
      1089.0         0.20         49.4 
      1090.0         0.17         49.2 
      1091.0         0.17         47.8 
      1092.0         0.20         48.2 
      1093.0         0.17         47.1 
      1094.0         0.17         46.0 
      1095.0         0.18         44.7 
      1096.0         0.17         44.7 
      1097.0         0.17         44.0 
      1098.0         0.20         43.6 
      1099.0         0.17         43.3 
      1100.0         0.17         43.1 
      1101.0         0.07         39.8 
      1102.0         0.27         39.2 
      1103.0         0.27         37.5 
      1104.0         0.33         50.9 
      1105.0         0.27         71.5 
      1106.0         0.33        122.7 
      1107.0         0.30        135.2 
      1108.0         0.07        135.2 
      1109.0         0.23        136.6 
      1110.0         0.25        122.4 
      1111.0         0.23        114.9 
      1112.0         0.20         89.9 
      1113.0         0.20         83.6 
      1114.0         0.20         70.2 
      1115.0         0.20         61.0 
      1116.0         0.17         56.5 
      1117.0         0.20         54.3 
      1118.0         0.20         49.5 
      1119.0         0.17         48.6 
      1120.0         0.17         45.9 
      1121.0         0.13         45.9 
      1122.0         0.17         44.6 
      1123.0         0.17         45.0 
      1124.0         0.17         43.3 
      1125.0         0.17         46.3 
      1126.0         0.30         63.1 
      1127.0         0.17         63.1 
      1128.0         0.18         75.8 
      1129.0         0.20         82.1 
      1130.0         0.17         82.1 
      1131.0         0.13         83.4 
      1132.0         0.17         85.2 
      1133.0         0.13         85.2 
      1134.0         0.20         85.3 
      1135.0         0.10         80.6 
      1136.0         3.78        210.6 
      1137.0         0.60        125.9 
      1138.0         0.27        122.5 
      1139.0         0.27        126.2 
      1140.0         0.27        143.2 
      1141.0         0.20        148.1 
      1142.0         0.22        152.7 
      1143.0         0.20        150.4 
      1144.0         0.20        144.1 
      1145.0         0.17        137.2 
      1146.0         0.17        127.5 
      1147.0         0.17        111.0 
      1148.0         0.17        104.7 
      1149.0         0.17        103.5 
      1150.0         0.17         94.8 
      1151.0         0.13         93.7 
      1152.0         0.20         87.4 
      1153.0         0.17         84.4 
      1154.0         0.13         83.7 
      1155.0         0.17         80.4 
      1156.0         0.17         80.4 
      1157.0         0.13         77.9 
      1158.0         0.17         77.9 
      1159.0         0.23         78.0 
      1160.0         0.17         76.3 
      1161.0         0.13         76.3 
      1162.0         0.22         80.6 
      1163.0         0.27         92.3 
      1164.0         0.27        112.3 
      1165.0         0.30        117.5 
      1166.0         0.77        191.3 
      1167.0         0.20        255.6 
      1168.0         0.40        352.1 
      1169.0         0.33        353.5 
      1170.0         0.30        325.0 
      1171.0         0.27        254.9 
      1172.0         0.22        202.6 
      1173.0         0.20        166.9 
      1174.0         0.17        145.8 
      1175.0         0.17        140.2 
      1176.0         0.20        126.9 
      1177.0         0.13        120.0 
      1178.0         0.13        112.0 
      1179.0         0.17        110.8 
      1180.0         0.20        102.9 
      1181.0         0.13         98.1 
      1182.0         0.17         94.2 
      1183.0         0.27         91.3 
      1184.0         0.13         89.6 
      1185.0         0.13         89.2 
      1186.0         0.13         84.5 
      1187.0         0.10         84.5 
      1188.0         0.10         84.5 
      1189.0         0.17         84.4 
      1190.0         0.17         84.5 
      1191.0         0.20         84.3 
      1192.0         0.22         84.1 
      1193.0         0.20         83.6 
      1194.0         0.13         82.8 
      1195.0         0.17         79.9 
      1196.0         0.67         80.8 
      1197.0         0.33        102.7 
      1198.0         0.20        160.9 
      1199.0         0.20        192.4 
      1200.0         0.27        264.3 
      1201.0         0.17        300.6 
      1202.0         0.13        303.0 
      1203.0         0.17        289.6 
      1204.0         0.27        270.5 
      1205.0         0.17        253.5 
      1206.0         0.25        217.2 
      1207.0         0.17        179.2 
      1208.0         0.13        146.8 
      1209.0         0.13        143.6 
      1210.0         0.20        131.2 
      1211.0         0.17        115.4 
      1212.0         0.17        108.8 
      1213.0         0.23         97.5 
      1214.0         0.20         95.8 
      1215.0         0.17         92.6 
      1216.0         0.17         91.1 
      1217.0         0.20         90.3 
      1218.0         0.13         90.3 
      1219.0         0.10         90.0 
      1220.0         0.13         90.0 
      1221.0         0.37        107.6 
      1222.0         0.27        115.8 
      1223.0         0.20        120.5 
      1224.0         0.22        126.4 
      1225.0         0.50        126.6 
      1226.0         1.53        349.5 
      1227.0         0.27        301.9 
      1228.0         0.23        289.1 
      1229.0         0.20        269.8 
      1230.0         0.20        206.9 
      1231.0         0.20        197.6 
      1232.0         0.25        168.3 
      1233.0         0.13        149.3 
      1234.0         0.23        146.8 
      1235.0         0.27        133.7 
      1236.0         0.17        131.7 
      1237.0         0.17        124.7 
      1238.0         0.20        120.9 
      1239.0         0.33        119.9 
      1240.0         0.33        113.9 
      1241.0         0.23        109.0 
      1242.0         0.17        107.9 
      1243.0         0.13        107.7 
      1244.0         0.13        106.1 
      1245.0         0.20        104.9 
      1246.0         0.17        103.0 
      1247.0         0.17        103.0 
      1248.0         0.13        100.3 
      1249.0         0.15        100.3 
      1250.0         0.20         98.4 
      1251.0         0.17         97.3 
      1252.0         0.17         97.3 
      1253.0         0.23         96.6 
      1254.0         1.63        205.2 
      1255.0         0.50        415.8 
      1256.0         0.58        462.7 
      1257.0         0.27        366.8 
      1258.0         0.27        360.1 
      1259.0         0.23        291.5 
      1260.0         0.23        253.8 
      1261.0         0.20        209.7 
      1262.0         0.17        178.2 
      1263.0         0.20        174.3 
      1264.0         0.23        146.3 
      1265.0         0.20        130.2 
      1266.0         0.17        116.9 
      1267.0         0.17        111.1 
      1268.0         0.17        106.2 
      1269.0         0.20        104.8 
      1270.0         0.17         99.9 
      1271.0         0.17         97.4 
      1272.0         0.18         95.5 
      1273.0         0.17         94.5 
      1274.0         0.17         93.4 
      1275.0         0.17         92.0 
      1276.0         0.17         90.6 
      1277.0         0.20         89.6 
      1278.0         0.17         89.6 
      1279.0         0.17         88.5 
      1280.0         0.17         86.5 
      1281.0         0.17         86.5 
      1282.0         0.13         86.1 
      1283.0         0.13         85.2 
      1284.0         0.20         84.6 
      1285.0         0.27         81.7 
      1286.0         1.82        187.5 
      1287.0         0.23        188.4 
      1288.0         0.33        183.3 
