~Version Information
VERS.                      2.0: CWLS Log ASCII Standard - VERSION 2.0
WRAP.                       NO: One line per depth step
~Well Information Block
STRT.FT                -5.0000: 
STOP.FT               912.2500: 
STEP.FT                 0.2500: 
NULL.                -999.2500: 
COMP.          Pioneer Natural Resources: COMPANY
WELL.               Ernie 31-6: WELL
FLD.           Purgatoire River: FIELD
LOC.           681' FNL & 2138' FEL: LOCATION
CNTY.               Las Animas: COUNTY
SRVC.                         : SERVICE COMPANY
DATE.          Tue Jun 27 10:36:58 2006: LOG DATE
UWI.           05 071 08716 00: UNIQUE WELL ID
STAT.                       CO: STATE
~Curve Information Block
DEPT.FT            0 000 00 00: Depth
GR.GAPI                       : Gamma Ray
CCL.                          : Casing Collar Locator
TT3.usec                      : CBL 3' Travel Time
AMP3.mV                       : CBL 3' Amplitude
~Parameter Information Block
~A  Depth        GR         CCL         TT3         AMP3    
    -5.0000   -999.2500   -999.2500   -999.2500   -999.2500
    -4.7500   -999.2500   -999.2500   -999.2500   -999.2500
    -4.5000   -999.2500   -999.2500   -999.2500   -999.2500
    -4.2500   -999.2500   -999.2500   -999.2500   -999.2500
    -4.0000   -999.2500   -999.2500   -999.2500   -999.2500
    -3.7500   -999.2500   -999.2500   -999.2500   -999.2500
    -3.5000   -999.2500   -999.2500   -999.2500   -999.2500
    -3.2500   -999.2500   -999.2500   -999.2500   -999.2500
    -3.0000   -999.2500   -999.2500   -999.2500   -999.2500
    -2.7500   -999.2500   -999.2500   -999.2500   -999.2500
    -2.5000   -999.2500   -999.2500   -999.2500   -999.2500
    -2.2500   -999.2500   -999.2500   1203.0000      1.1519
    -2.0000   -999.2500   -999.2500   1203.0000      1.1557
    -1.7500   -999.2500   -999.2500   1203.0000      1.1583
    -1.5000   -999.2500   -999.2500   1203.0000      1.1550
    -1.2500   -999.2500   -999.2500   1203.0000      1.1435
    -1.0000   -999.2500   -999.2500   1203.0000      1.1280
    -0.7500   -999.2500   -999.2500   1203.0000      1.1178
    -0.5000   -999.2500   -999.2500   1203.0000      1.1209
    -0.2500   -999.2500   -999.2500   1203.0000      1.1383
     0.0000   -999.2500   -999.2500   1203.0000      1.1645
     0.2500   -999.2500   -999.2500   1203.0000      1.1903
     0.5000   -999.2500   -999.2500   1203.0000      1.2034
     0.7500   -999.2500   -999.2500   1203.0000      1.1880
     1.0000   -999.2500   -999.2500   1203.0000      1.1725
     1.2500   -999.2500   -999.2500   1203.0000      1.1675
     1.5000   -999.2500   -999.2500   1203.0000      1.1707
     1.7500   -999.2500   -999.2500   1203.0000      1.1700
     2.0000   -999.2500   -999.2500   1203.0000      1.1569
     2.2500   -999.2500   -999.2500   1203.0000      1.1362
     2.5000   -999.2500   -999.2500   1203.0000      1.1239
     2.7500   -999.2500   -999.2500   1203.0000      1.1346
     3.0000   -999.2500      0.0000   1203.0000      1.1689
     3.2500   -999.2500      0.0000   1202.9698      1.2100
     3.5000   -999.2500      0.0000   1202.7773      1.2372
     3.7500   -999.2500      0.0000   1201.7681      1.2459
     4.0000   -999.2500      0.0000   1197.7113      1.2668
     4.2500   -999.2500      0.0000   1184.8491      1.4253
     4.5000   -999.2500      0.0000   1152.4412      2.0976
     4.7500   -999.2500      0.0000   1086.8600      4.1539
     5.0000   -999.2500      0.0000    978.8925      9.0201
     5.2500   -999.2500      0.0000    832.4278     18.0758
     5.5000   -999.2500      0.0000    667.3093     31.3754
     5.7500   -999.2500      0.0000    512.5128     46.8100
     6.0000   -999.2500      0.0000    392.7387     60.9795
     6.2500   -999.2500      0.0000    317.1925     71.2598
     6.5000   -999.2500      0.0000    278.8597     77.0604
     6.7500   -999.2500      0.0000    263.4395     79.3083
     7.0000   -999.2500      0.0000    258.8130     79.1702
     7.2500   -999.2500      0.0000    258.5979     77.3305
     7.5000   -999.2500      0.0000    260.8686     74.0467
     7.7500   -999.2500      0.0000    265.6521     69.4634
     8.0000     67.1623      0.0000    273.1956     63.7698
     8.2500     68.0462      0.0000    283.6862     57.1965
     8.5000     68.1903      0.0000    298.6991     49.9935
     8.7500     67.8218      0.0000    322.9212     42.4726
     9.0000     67.5768      0.0000    363.1552     35.0494
     9.2500     67.8338      0.0000    422.7025     28.1938
     9.5000     68.6434      0.0000    494.1479     22.2870
     9.7500     70.3152      0.0000    558.2505     17.4947
    10.0000     73.4415      0.0000    593.6597     13.7665
    10.2500     77.8869      0.0000    591.0695     10.9526
    10.5000     82.2200      0.0000    558.8917      8.9172
    10.7500     84.8499      0.0000    515.5255      7.5590
    11.0000     85.6489      0.0000    476.7632      6.7665
    11.2500     85.9498      0.0000    449.4229      6.3858
    11.5000     86.8735      0.0000    433.1338      6.2436
    11.7500     88.0839      0.0000    424.7603      6.2002
    12.0000     88.4306      0.0000    421.1877      6.1810
    12.2500     87.4212      0.0000    420.2935      6.1659
    12.5000     85.7516      0.0000    421.1590      6.1547
    12.7500     84.7746      0.0000    423.9189      6.1432
    13.0000     85.6562      0.0000    429.0828      6.1229
    13.2500     88.3978      0.0000    436.4863      6.0950
    13.5000     91.4221      0.0000    444.6138      6.0751
    13.7500     92.7442      0.0000    451.0820      6.0781
    14.0000     91.8035      0.0000    454.0875      6.1020
    14.2500     89.8086      0.0000    453.8965      6.1333
    14.5000     88.3081      0.0000    453.7391      6.1627
    14.7500     87.6186      0.0000    459.3102      6.1874
    15.0000     86.6040      0.0000    476.0829      6.2025
    15.2500     83.8667      0.0000    505.7253      6.2002
    15.5000     79.0871      0.0000    545.2370      6.1787
    15.7500     73.3390      0.0000    590.0497      6.1511
    16.0000     68.3662      0.0000    637.1546      6.1397
    16.2500     65.5894      0.0000    684.1774      6.1606
    16.5000     65.5504      0.0000    726.5250      6.2114
    16.7500     67.9352      0.0000    757.6962      6.2765
    17.0000     71.8877      0.0000    773.2153      6.3420
    17.2500     76.2952      0.0000    774.0029      6.4040
    17.5000     80.0617      0.0000    765.9017      6.4617
    17.7500     82.4993      0.0000    755.5728      6.5095
    18.0000     83.7035      0.0000    745.8836      6.5398
    18.2500     84.4637      0.0000    735.0631      6.5512
    18.5000     85.5488      0.0000    720.1794      6.5512
    18.7500     86.8668      0.0000    700.6967      6.5493
    19.0000     87.2242      0.0000    679.1903      6.5464
    19.2500     85.1519      0.0000    659.8199      6.5327
    19.5000     80.3338      0.0000    645.8940      6.4973
    19.7500     74.2119      0.0000    638.0817      6.4409
    20.0000     69.0801      0.0000    634.7047      6.3778
    20.2500     66.7488      0.0000    633.4214      6.3266
    20.5000     67.8445      0.0000    632.4814      6.3001
    20.7500     71.7441      0.0000    630.9785      6.2998
    21.0000     77.0118      0.0000    628.8300      6.3149
    21.2500     82.1919      0.0000    626.8146      6.3261
    21.5000     86.3928      0.0000    626.1371      6.3151
    21.7500     89.5163      0.0000    627.5872      6.2725
    22.0000     92.2219      0.0000    631.3604      6.1998
    22.2500     95.2085      0.0000    638.2718      6.1052
    22.5000     98.0734      0.0000    650.8766      5.9957
    22.7500     99.3620      0.0000    672.0565      5.8669
    23.0000     98.2602      0.0000    701.0573      5.7034
    23.2500     95.7669      0.0000    730.6275      5.4971
    23.5000     93.4936      0.0000    749.2601      5.2631
    23.7500     91.6111      0.0000    747.8219      5.0331
    24.0000     88.7765      0.0000    725.3378      4.8310
    24.2500     84.1017      0.0000    689.3129      4.6570
    24.5000     78.5729      0.0000    650.3373      4.4937
    24.7500     74.3946      0.0000    615.0024      4.3195
    25.0000     73.3677      0.0000    582.4760      4.1140
    25.2500     75.9594      0.0000    547.2572      3.8623
    25.5000     81.2157      0.0000    505.7610      3.5650
    25.7500     87.0331      0.0000    461.0074      3.2492
    26.0000     90.8584      0.0000    420.9329      2.9602
    26.2500     90.7740      0.0000    392.1782      2.7330
    26.5000     86.1224      0.0000    375.8372      2.5681
    26.7500     77.4014      0.0000    368.5083      2.4365
    27.0000     66.0970      0.0000    365.9017      2.3045
    27.2500     54.4565      0.0000    365.1202      2.1552
    27.5000     44.6711      0.0000    364.8499      1.9938
    27.7500     37.9869      0.0000    364.6803      1.8356
    28.0000     34.6736      0.0000    364.5454      1.6902
    28.2500     34.6484      0.0000    364.5035      1.5530
