~Version Information
VERS.                      2.0: CWLS Log ASCII Standard - VERSION 2.0
WRAP.                       NO: One line per depth step
~Well Information Block
STRT.FT               660.0000: 
STOP.FT              2488.5000: 
STEP.FT                 0.1000: 
NULL.                -999.2500: 
COMP.          Petrogulf Corporation: COMPANY
WELL.          Montoya 18-11V-B: WELL
FLD.           Purgatorie River: FIELD
LOC.           848' FNL & 619' FWL: LOCATION
PROV.                 Colorado: PROVINCE
CNTY.               Las Animas: COUNTRY
SRVC.                Patterson: SERVICE COMPANY
DATE.          Wed Oct 05 07:28:13 2005: LOG DATE
UWI.                          : UNIQUE WELL ID
~Curve Information Block
DEPT.FT            0 000 00 00: Depth
DCAL.in                       : CDL Caliper
RHOB.g/cc                     : CDL Bulk Density
RHOC.g/cc                     : CDL Density Correction
DPOR.pu                       : CDL Density Porosity
GR.GAPI                       : Gamma Ray
NPOR.pu                       : Neutron Porosity
~Parameter Information Block
~A  Depth       DCAL        RHOB        RHOC        DPOR         GR         NPOR    
# ...
  1140.0000      7.9990      2.6090     -0.0302      2.4869    162.4804     27.7589
  1140.1000      7.9990      2.6053      0.0223      2.7061    162.7202     27.4484
  1140.2000      7.9990      2.6027      0.0394      2.8666    162.9255     27.2067
  1140.3000      8.0570      2.5907     -0.0219      3.5915    162.5004     27.0770
  1140.4000      8.0570      2.5813     -0.0028      4.1618    159.4649     27.0021
  1140.5000      8.0756      2.5822      0.0040      4.1116    154.2519     27.0032
  1140.6000      8.0756      2.5935      0.0245      3.4240    152.0553     27.1607
  1140.7000      8.0756      2.6120      0.0543      2.3029    153.8324     27.4047
  1140.8000      8.0666      2.6356      0.0097      0.8742    156.8999     27.5185
  1140.9000      8.0666      2.6643      0.0817     -0.8687    160.3804     27.5110
  1141.0000      8.0479      2.6805      0.1046     -1.8466    163.0274     27.5662
  1141.1000      8.0479      2.6689      0.0710     -1.1442    164.3131     27.6360
  1141.2000      8.0479      2.6471      0.0259      0.1732    164.8792     27.6020
  1141.3000      7.9931      2.6333      0.0470      1.0145    161.6595     27.6481
  1141.4000      7.9931      2.6172      0.0434      1.9876    154.5616     27.7626
  1141.5000      7.9729      2.5952     -0.0090      3.3210    150.1895     27.6859
  1141.6000      7.9729      2.5812      0.0163      4.1671    149.5334     27.5064
  1141.7000      7.9729      2.5741      0.0398      4.6000    147.1966     27.4772
  1141.8000      7.9636      2.5657      0.0026      5.1100    142.6031     27.6752
  1141.9000      7.9636      2.5639     -0.0053      5.2154    139.3738     27.8069
  1142.0000      7.9537      2.5780      0.0121      4.3632    137.7207     27.5620
  1142.1000      7.9537      2.6000      0.0369      3.0296    135.1427     27.0455
  1142.2000      7.9537      2.6066      0.0785      2.6279    131.2063     26.6513
  1142.3000      7.9621      2.5856      0.0443      3.9049    127.2789     26.4915
  1142.4000      7.9621      2.5541      0.0303      5.8115    123.8280     26.0223
  1142.5000      7.9647      2.5438     -0.0250      6.4358    119.8568     24.9897
  1142.6000      7.9647      2.5636      0.0002      5.2349    114.6089     23.7882
  1142.7000      7.9647      2.5847      0.0685      3.9599    108.9648     22.6520
  1142.8000      7.9432      2.5905     -0.0024      3.6038    104.1024     21.6437
  1142.9000      7.9432      2.6007      0.0586      2.9857    100.3513     20.9985
  1143.0000      7.9298      2.6213      0.0757      1.7424     98.2306     20.8395
  1143.1000      7.9298      2.6365      0.0916      0.8206     98.2013     20.6313
  1143.2000      7.9298      2.6400      0.0504      0.6033     97.8799     19.7910
  1143.3000      7.9270      2.6309      0.1202      1.1556     96.0440     18.5136
  1143.4000      7.9270      2.5963      0.1002      3.2556     94.6306     17.2301
  1143.5000      7.9343      2.5253      0.0585      7.5590     94.0547     15.9269
  1143.6000      7.9343      2.4186      0.0157     14.0266     92.7470     14.4546
  1143.7000      7.9343      2.2807     -0.0028     22.3801     91.0361     13.0813
  1143.8000      7.9527      2.1185     -0.0638     32.2151     91.3777     12.2402
  1143.9000      7.9527      1.9459     -0.1022     42.6712     92.7084     11.9704
  1144.0000      7.9782      1.7856     -0.1642     52.3851     92.3397     11.8748
  1144.1000      7.9782      1.6608     -0.1742     59.9489     92.4760     11.7060
  1144.2000      7.9782      1.5849     -0.1739     64.5498     95.0013     11.5895
  1144.3000      8.1664      1.5598     -0.1199     66.0717     97.5131     11.5198
  1144.4000      8.1664      1.5737      0.0432     65.2299     98.4037     11.4662
  1144.5000      8.3831      1.6035      0.1263     63.4249     97.9083     11.5640
  1144.6000      8.3831      1.6242      0.2634     62.1722     96.6800     11.7536
  1144.7000      8.3831      1.6158      0.2857     62.6811     94.4814     11.9243
  1144.8000      8.4323      1.5793      0.2010     64.8929     91.5829     12.2362
  1144.9000      8.4323      1.5323      0.1589     67.7419     88.6553     12.7456
  1145.0000      8.3565      1.4845      0.0777     70.6345     85.6195     13.2832
  1145.1000      8.3565      1.4353      0.0569     73.6158     82.0497     13.6895
  1145.2000      8.3565      1.3846      0.0019     76.6882     77.1045     13.8863
  1145.3000      8.6226      1.3455     -0.0525     79.0588     71.2528     14.0224
  1145.4000      8.6226      1.3347      0.0157     79.7165     67.1288     14.2642
  1145.5000      8.3805      1.3506      0.0658     78.7501     66.2487     14.6093
  1145.6000      8.3805      1.3794      0.1162     77.0056     66.1262     15.1325
  1145.7000      8.3805      1.4065      0.1569     75.3633     63.4709     15.8997
  1145.8000      8.4796      1.4168      0.1994     74.7368     59.4654     16.5949
  1145.9000      8.4796      1.4012      0.1797     75.6839     57.0552     16.8011
  1146.0000      8.2680      1.3643      0.1382     77.9192     56.5666     16.6679
  1146.1000      8.2680      1.3165      0.1102     80.8192     56.4376     16.7396
  1146.2000      8.2680      1.2685      0.0033     83.7291     55.1923     17.1255
  1146.3000      8.2704      1.2317      0.0060     85.9600     53.1731     17.3818
  1146.4000      8.2704      1.2090     -0.0037     87.3316     51.8656     17.3222
  1146.5000      8.5092      1.1965      0.0146     88.0887     51.9983     17.1557
  1146.6000      8.5092      1.1821      0.0780     88.9612     53.0504     16.9431
  1146.7000      8.5092      1.1508      0.0799     90.8584     53.0298     16.5798
  1146.8000      8.8474      1.1010      0.0791     93.8811     50.7244     15.9663
  1146.9000      8.8474      1.0440      0.0639     97.3305     47.2777     14.8788
  1147.0000      9.0483      1.0061      0.0243     99.6304     44.7414     13.3621
  1147.1000      9.0483      1.0210      0.0358     98.7279     44.2867     11.7513
  1147.2000      9.0483      1.0908      0.1561     94.4992     45.1029     10.3800
  1147.3000      9.0921      1.1733      0.2271     89.4950     45.8184      9.6013
  1147.4000      9.0921      1.2306      0.2255     86.0231     46.1828      9.3616
  1147.5000      9.1609      1.2554      0.2685     84.5213     46.4386      9.3047
  1147.6000      9.1609      1.2491      0.2653     84.9033     46.5764      9.4748
  1147.7000      9.1609      1.2139      0.2512     87.0355     47.5995     10.1202
  1147.8000      8.9643      1.1612      0.1893     90.2314     50.4458     11.1409
  1147.9000      8.9643      1.1117      0.0784     93.2298     53.1257     12.2219
  1148.0000      8.8378      1.0887     -0.0078     94.6246     53.6412     13.1138
  1148.1000      8.8378      1.1088     -0.0328     93.4062     53.1620     13.7265
  1148.2000      8.8378      1.1819      0.0272     88.9738     53.1483     14.2443
  1148.3000      8.7663      1.3111      0.1319     81.1479     53.6402     14.7962
  1148.4000      8.7663      1.4799      0.2428     70.9129     56.0340     15.2826
  1148.5000      8.6487      1.6498      0.3450     60.6173     62.0635     15.7810
  1148.6000      8.6487      1.7785      0.4276     52.8166     69.5469     16.3551
  1148.7000      8.6487      1.8428      0.3944     48.9224     76.1478     16.8938
  1148.8000      8.6792      1.8457      0.3470     48.7448     83.2864     17.3993
  1148.9000      8.6792      1.8089      0.2946     50.9778     90.1086     17.7539
  1149.0000      8.5290      1.7595      0.1615     53.9672     93.1933     17.7310
  1149.1000      8.5290      1.7157      0.0559     56.6249     91.9040     17.4906
  1149.2000      8.5290      1.6701      0.0539     59.3880     88.6894     17.2986
  1149.3000      8.4964      1.6037     -0.0056     63.4151     86.1190     17.1571
  1149.4000      8.4964      1.5193     -0.0552     68.5278     84.9573     16.8798
  1149.5000      8.5392      1.4458     -0.0673     72.9848     84.7769     16.3578
