~Version Information
VERS.                      2.0: CWLS Log ASCII Standard - VERSION 2.0
WRAP.                       NO: One line per depth step
~Well Information Block
STRT.FT               459.3000: 
STOP.FT              1604.7000: 
STEP.FT                 0.1000: 
NULL.                -999.2500: 
COMP.          Pioneer Natural Resources: COMPANY
WELL.          Grand Prix 13-12 Tr: WELL
FLD.           Purgatoire River: FIELD
LOC.           2595' FSL & 1277' FWL--: LOCATION
CNTY.               Las Animas: COUNTY
SRVC.                Patterson: SERVICE COMPANY
DATE.          Tue Apr 04 07:18:28 2006: LOG DATE
UWI.           05 071 08711 00: UNIQUE WELL ID
STAT.                 Colorado: STATE
~Curve Information Block
DEPT.FT            0 000 00 00: Depth
DCAL.in                       : CDL Caliper
RHOB.g/cc                     : CDL Bulk Density
RHOC.g/cc                     : CDL Density Correction
DPOR.pu                       : CDL Density Porosity
GR.GAPI                       : Gamma Ray
~Parameter Information Block
~A  Depth       DCAL        RHOB        RHOC        DPOR         GR     
# ...
   985.7000      7.8692      2.4865      0.1119      9.9119    113.6329
   985.8000      7.8895      2.5129      0.1406      8.3096    116.7153
   985.9000      7.8895      2.5169      0.1034      8.0642    116.0462
   986.0000      7.9013      2.5085      0.0676      8.5754    114.4199
   986.1000      7.9013      2.5036      0.0684      8.8709    114.3084
   986.2000      7.9013      2.5052      0.0529      8.7756    118.0403
   986.3000      7.9049      2.5066      0.0757      8.6884    124.9387
   986.4000      7.9049      2.5019      0.0459      8.9738    130.9866
   986.5000      7.8993      2.4928      0.0603      9.5292    133.3379
   986.6000      7.8993      2.4852      0.0721      9.9902    132.9415
   986.7000      7.8993      2.4808      0.0364     10.2515    132.4613
   986.8000      7.8918      2.4838      0.0535     10.0740    131.3475
   986.9000      7.8918      2.5033      0.0314      8.8928    128.1506
   987.0000      7.8855      2.5354      0.1057      6.9434    125.6993
   987.1000      7.8855      2.5598      0.0981      5.4678    124.9143
   987.2000      7.8855      2.5734      0.0647      4.6398    123.9085
   987.3000      7.8778      2.5876      0.0933      3.7813    123.1275
   987.4000      7.8778      2.5933      0.1324      3.4353    122.7665
   987.5000      7.8674      2.5810      0.0711      4.1797    123.0981
   987.6000      7.8674      2.5639      0.0790      5.2171    125.4374
   987.7000      7.8674      2.5532      0.0555      5.8642    126.6120
   987.8000      7.8536      2.5510      0.0102      5.9979    122.9515
   987.9000      7.8536      2.5558      0.0337      5.7102    115.9187
   988.0000      7.8355      2.5580      0.0437      5.5751    109.8915
   988.1000      7.8355      2.5482      0.0966      6.1698    106.8557
   988.2000      7.8355      2.5265      0.0251      7.4872    103.3514
   988.3000      7.8187      2.4997      0.0287      9.1082     96.9119
   988.4000      7.8187      2.4784     -0.0223     10.4015     91.1657
   988.5000      7.8116      2.4779      0.0008     10.4332     89.2281
   988.6000      7.8116      2.4912      0.0987      9.6219     89.7853
   988.7000      7.8116      2.4939      0.0386      9.4577     90.1143
   988.8000      7.8166      2.4848      0.0674     10.0146     89.4234
   988.9000      7.8166      2.4817      0.0231     10.2026     89.3155
   989.0000      7.8187      2.4988      0.0772      9.1653     88.9564
   989.1000      7.8187      2.5319      0.1053      7.1602     87.3303
   989.2000      7.8187      2.5644      0.1187      5.1851     86.5773
   989.3000      7.8050      2.5803      0.1813      4.2214     85.6580
   989.4000      7.8050      2.5801      0.1130      4.2335     82.7510
   989.5000      7.7895      2.5829      0.1288      4.0691     81.1048
   989.6000      7.7895      2.5908      0.1697      3.5869     84.5782
   989.7000      7.7895      2.5892      0.1231      3.6843     91.1795
   989.8000      7.7905      2.5759      0.0781      4.4884     95.1943
   989.9000      7.7905      2.5622      0.0556      5.3223     95.3940
   990.0000      7.8040      2.5654      0.0092      5.1266     96.2999
   990.1000      7.8040      2.5874      0.0841      3.7930    100.0311
   990.2000      7.8040      2.5962      0.0993      3.2583    102.5027
   990.3000      7.8128      2.5793      0.0222      4.2862     99.8909
   990.4000      7.8128      2.5641      0.0198      5.2047     94.5630
   990.5000      7.8162      2.5691      0.0256      4.9002     91.8591
   990.6000      7.8162      2.5896      0.0445      3.6632     91.4956
   990.7000      7.8162      2.6129      0.0162      2.2471     88.7754
   990.8000      7.8207      2.6323      0.0517      1.0709     83.6520
   990.9000      7.8207      2.6497      0.0427      0.0183     80.5045
   991.0000      7.8299      2.6634      0.0616     -0.8109     80.0497
   991.1000      7.8299      2.6633      0.0620     -0.8053     80.9277
   991.2000      7.8299      2.6498      0.0136      0.0096     83.8109
   991.3000      7.8430      2.6423     -0.0405      0.4647     87.1863
   991.4000      7.8430      2.6467      0.0665      0.2024     86.3031
   991.5000      7.8525      2.6423      0.0381      0.4643     80.8914
   991.6000      7.8525      2.6248      0.0099      1.5246     75.9934
   991.7000      7.8525      2.6036      0.0029      2.8132     74.6976
   991.8000      7.8554      2.5777     -0.0006      4.3822     76.8516
   991.9000      7.8554      2.5498     -0.0346      6.0707     81.0153
   992.0000      7.8563      2.5281     -0.0247      7.3908     85.9328
   992.1000      7.8563      2.5112      0.0133      8.4135     91.8382
   992.2000      7.8563      2.4922     -0.0176      9.5634    100.2260
   992.3000      7.8610      2.4761     -0.0532     10.5404    110.7729
   992.4000      7.8610      2.4753     -0.0334     10.5861    119.0596
   992.5000      7.8713      2.4869      0.0481      9.8819    120.2276
   992.6000      7.8713      2.5021      0.0517      8.9658    117.8116
   992.7000      7.8713      2.5231      0.0711      7.6926    120.6737
   992.8000      7.8832      2.5434      0.0870      6.4604    130.6032
   992.9000      7.8832      2.5477      0.0775      6.2016    141.1464
   993.0000      7.8924      2.5332      0.0873      7.0791    145.7616
   993.1000      7.8924      2.5095      0.0918      8.5144    145.5302
   993.2000      7.8924      2.4894      0.0626      9.7305    144.7527
   993.3000      7.8921      2.4832      0.0492     10.1098    145.0592
   993.4000      7.8921      2.4913      0.0495      9.6153    144.3993
   993.5000      7.8842      2.5012      0.0710      9.0159    138.3324
   993.6000      7.8842      2.5002      0.0570      9.0781    128.4667
   993.7000      7.8842      2.4951      0.0163      9.3866    122.4996
   993.8000      7.8749      2.5027      0.0384      8.9255    121.7527
   993.9000      7.8749      2.5226      0.0631      7.7224    124.1116
   994.0000      7.8642      2.5424      0.0689      6.5214    131.8126
   994.1000      7.8642      2.5531      0.0563      5.8716    142.3175
   994.2000      7.8642      2.5497      0.0655      6.0793    145.1096
   994.3000      7.8541      2.5350      0.0331      6.9675    136.9624
   994.4000      7.8541      2.5207      0.0133      7.8374    126.5929
   994.5000      7.8466      2.5133      0.0394      8.2843    121.3888
   994.6000      7.8466      2.5078      0.0270      8.6196    121.1118
   994.7000      7.8466      2.5000      0.0072      9.0934    124.8792
   994.8000      7.8421      2.4904      0.0004      9.6735    133.9516
   994.9000      7.8421      2.4782      0.0354     10.4105    143.0441
   995.0000      7.8440      2.4711     -0.0044     10.8444    143.3395
   995.1000      7.8440      2.4777      0.0151     10.4401    136.7820
   995.2000      7.8440      2.4938      0.0363      9.4652    131.1143
   995.3000      7.8528      2.5188      0.0275      7.9487    127.5186
   995.4000      7.8528      2.5502      0.0582      6.0469    125.7305
   995.5000      7.8629      2.5756      0.0578      4.5073    125.6542
   995.6000      7.8629      2.5878      0.0859      3.7725    125.1743
   995.7000      7.8629      2.5845      0.0729      3.9700    125.0898
   995.8000      7.8685      2.5643      0.0938      5.1944    126.2915
   995.9000      7.8685      2.5342      0.0437      7.0159    125.7632
   996.0000      7.8637      2.5140      0.0284      8.2427    122.6296
   996.1000      7.8637      2.5090      0.0661      8.5473    120.4047
   996.2000      7.8637      2.5059      0.0666      8.7329    119.9402
   996.3000      7.8501      2.5116      0.0277      8.3867    121.4882
   996.4000      7.8501      2.5451      0.0321      6.3590    125.9807
   996.5000      7.8358      2.6019      0.0421      2.9179    127.7119
   996.6000      7.8358      2.6581      0.1135     -0.4910    122.4420
   996.7000      7.8358      2.7002      0.0767     -3.0402    116.3315
   996.8000      7.8275      2.7259      0.1409     -4.5976    113.6512
