~Version Information
VERS.                      2.0: CWLS Log ASCII Standard - VERSION 2.0
WRAP.                       NO: One line per depth step
~Well Information Block
STRT.FT               325.0000: 
STOP.FT              1013.5000: 
STEP.FT                 0.1000: 
NULL.                -999.2500: 
COMP.          Pioneer Natural Resources: COMPANY
WELL.                Doc 34-30: WELL
FLD.           Purgatoire River: FIELD
LOC.           454' FSL & 1386' FEL: LOCATION
CNTY.               Las Animas: COUNTY
SRVC.                Patterson: SERVICE COMPANY
DATE.          Thu Feb 16 07:19:58 2006: LOG DATE
UWI.           05 071 08694 00: UNIQUE WELL ID
STAT.                 Colorado: STATE
~Curve Information Block
DEPT.FT            0 000 00 00: Depth
DCAL.in                       : CDL Caliper
RHOB.g/cc                     : CDL Bulk Density
RHOC.g/cc                     : CDL Density Correction
DPOR.pu                       : CDL Density Porosity
GR.GAPI                       : Gamma Ray
NPOR.pu                       : Neutron Porosity
~Parameter Information Block
~A  Depth       DCAL        RHOB        RHOC        DPOR         GR         NPOR    
# ...
   910.6000      7.9268      2.5717      0.0649      4.7458     72.7121     24.4276
   910.7000      7.9268      2.5644      0.0872      5.1882     77.2795     24.3410
   910.8000      7.9276      2.5513      0.0507      5.9813     78.6532     24.2324
   910.9000      7.9276      2.5311      0.0511      7.2045     76.7420     24.0311
   911.0000      7.9300      2.5084      0.0249      8.5794     75.7686     23.9299
   911.1000      7.9300      2.4995     -0.0225      9.1239     73.4917     23.7512
   911.2000      7.9300      2.5172      0.0310      8.0514     66.4039     23.4466
   911.3000      7.9350      2.5492      0.0647      6.1098     59.4815     23.3296
   911.4000      7.9350      2.5728      0.0701      4.6795     55.7182     23.4275
   911.5000      7.9376      2.5824      0.0551      4.0985     52.2346     23.7166
   911.6000      7.9376      2.5865      0.0426      3.8496     50.1524     24.0165
   911.7000      7.9376      2.5833      0.0828      4.0442     50.0084     24.0436
   911.8000      7.9312      2.5719      0.0266      4.7335     49.3113     23.4383
   911.9000      7.9312      2.5636      0.0577      5.2358     50.8670     22.2097
   912.0000      7.9250      2.5575      0.0425      5.6075     56.1916     21.3413
   912.1000      7.9250      2.5426      0.0280      6.5091     58.4882     21.5541
   912.2000      7.9250      2.5160      0.0374      8.1239     55.5938     22.3259
   912.3000      7.9241      2.4942      0.0069      9.4437     52.9064     22.7501
   912.4000      7.9241      2.5050     -0.0293      8.7861     52.3546     22.5791
   912.5000      7.9245      2.5437      0.0488      6.4397     53.8912     22.3445
   912.6000      7.9245      2.5766      0.0434      4.4511     56.9238     22.4556
   912.7000      7.9245      2.5917      0.0633      3.5342     57.4353     22.4637
   912.8000      7.9248      2.5970      0.0577      3.2098     54.3115     22.4071
   912.9000      7.9248      2.5981      0.0629      3.1437     51.4928     22.7801
   913.0000      7.9256      2.5964      0.0501      3.2507     51.8555     23.5040
   913.1000      7.9256      2.5885      0.0495      3.7301     53.9292     24.2909
   913.2000      7.9256      2.5790      0.0147      4.3000     55.8442     24.8240
   913.3000      7.9264      2.5785      0.0355      4.3328     58.2087     24.6489
   913.4000      7.9264      2.5786      0.0507      4.3295     59.3344     23.3875
   913.5000      7.9266      2.5670      0.0529      5.0325     56.6363     21.8210
   913.6000      7.9266      2.5552     -0.0093      5.7440     52.6850     21.3379
   913.7000      7.9266      2.5611      0.0374      5.3871     50.7418     21.7806
   913.8000      7.9270      2.5786      0.0344      4.3284     50.8886     22.1580
   913.9000      7.9270      2.5932      0.0234      3.4427     52.7746     22.8108
   914.0000      7.9282      2.6028      0.0430      2.8615     54.8908     24.2095
   914.1000      7.9282      2.6097      0.0700      2.4445     56.2440     25.5726
   914.2000      7.9282      2.6146      0.0808      2.1451     59.1538     25.9716
   914.3000      7.9301      2.6144      0.0865      2.1570     65.6462     25.4500
   914.4000      7.9301      2.6034      0.0950      2.8251     72.9252     25.0479
   914.5000      7.9320      2.5819      0.0652      4.1267     77.8514     25.1100
   914.6000      7.9320      2.5537      0.0635      5.8354     81.3684     24.6735
   914.7000      7.9320      2.5232      0.0039      7.6843     86.2397     23.7222
   914.8000      7.9379      2.5009      0.0210      9.0369     93.1612     23.6364
   914.9000      7.9379      2.4897      0.0308      9.7129     98.3325     25.1177
   915.0000      7.9480      2.4785      0.0366     10.3921    101.0396     27.1649
   915.1000      7.9480      2.4638     -0.0198     11.2862    104.8789     28.0521
   915.2000      7.9480      2.4527     -0.0107     11.9547    110.2911     27.9265
   915.3000      7.9573      2.4434      0.0157     12.5183    114.0757     28.0165
   915.4000      7.9573      2.4337     -0.0060     13.1095    112.5564     28.5254
   915.5000      7.9639      2.4292      0.0188     13.3818    107.9076     29.1954
   915.6000      7.9639      2.4221      0.0148     13.8143    107.4343     29.7102
   915.7000      7.9639      2.3973      0.0324     15.3126    111.5636     29.6104
   915.8000      7.9598      2.3572     -0.0101     17.7464    111.9220     28.9813
   915.9000      7.9598      2.3094      0.0020     20.6454    102.1501     28.2143
   916.0000      7.9505      2.2516     -0.0198     24.1476     87.9926     28.1289
   916.1000      7.9505      2.1850     -0.0420     28.1836     80.5035     29.1622
   916.2000      7.9505      2.1196     -0.0818     32.1473     82.3717     30.0962
   916.3000      7.9456      2.0602     -0.0334     35.7484     86.8702     30.3009
   916.4000      7.9456      1.9926     -0.0141     39.8421     86.1096     30.5301
   916.5000      7.9469      1.9007     -0.0184     45.4095     79.5613     31.1234
   916.6000      7.9469      1.7993     -0.0526     51.5585     73.2870     31.5324
   916.7000      7.9469      1.7259     -0.0359     56.0082     70.4843     31.6578
   916.8000      7.9543      1.6974     -0.0336     57.7342     67.2536     32.0934
   916.9000      7.9543      1.6965     -0.0231     57.7877     62.0228     32.6591
   917.0000      7.9661      1.7011     -0.0115     57.5072     61.2456     32.8488
   917.1000      7.9661      1.7103     -0.0381     56.9531     69.5879     32.7318
   917.2000      7.9661      1.7314      0.0153     55.6754     80.4935     32.4390
   917.3000      7.9724      1.7573      0.0685     54.1044     82.7271     32.1764
   917.4000      7.9724      1.7807      0.0607     52.6846     76.7655     32.0477
   917.5000      7.9686      1.8074      0.0934     51.0659     73.6816     31.9335
   917.6000      7.9686      1.8340      0.0870     49.4533     77.0382     32.0677
   917.7000      7.9686      1.8476      0.0676     48.6290     79.1086     32.2423
   917.8000      7.9681      1.8521      0.0074     48.3580     76.3426     31.7189
   917.9000      7.9681      1.8665     -0.0267     47.4859     74.7417     30.6090
   918.0000      7.9773      1.9007      0.0158     45.4137     77.5199     29.8190
   918.1000      7.9773      1.9518      0.0552     42.3140     82.8331     29.6697
   918.2000      7.9773      2.0199      0.0668     38.1871     88.3343     29.6756
   918.3000      7.9850      2.1037      0.1513     33.1120     91.7501     29.6487
   918.4000      7.9850      2.1945      0.1690     27.6053     93.6331     29.5792
   918.5000      7.9727      2.2877      0.1861     21.9571     95.8449     29.3037
   918.6000      7.9727      2.3767      0.1655     16.5631     99.5170     28.8909
   918.7000      7.9727      2.4527      0.1423     11.9584    104.0944     28.4033
   918.8000      7.9409      2.5132      0.1017      8.2882    107.5863     27.6862
   918.9000      7.9409      2.5543      0.1176      5.7975    109.7737     26.7293
   919.0000      7.9199      2.5709      0.1166      4.7936    111.5472     25.7069
   919.1000      7.9199      2.5695      0.0402      4.8788    114.5959     24.6220
   919.2000      7.9199      2.5620      0.0578      5.3333    115.2656     23.8526
   919.3000      7.9146      2.5565      0.0456      5.6687    109.4062     24.4626
   919.4000      7.9146      2.5529      0.0535      5.8831    102.6252     26.1238
   919.5000      7.9142      2.5384      0.0536      6.7661    102.5291     26.8805
   919.6000      7.9142      2.5079     -0.0159      8.6115    109.7034     26.3277
   919.7000      7.9142      2.4826      0.0074     10.1470    116.8100     25.9215
   919.8000      7.9152      2.4781      0.0113     10.4208    118.4053     25.9510
   919.9000      7.9152      2.4881      0.0006      9.8117    114.9955     25.6654
   920.0000      7.9149      2.5004      0.0577      9.0694    109.7235     24.5705
   920.1000      7.9149      2.5049      0.0281      8.7919    108.8678     23.0734
