~Version Information
VERS.                      2.0: CWLS Log ASCII Standard - VERSION 2.0
WRAP.                       NO: One line per depth step
~Well Information Block
STRT.FT                -8.5000: 
STOP.FT              2030.0000: 
STEP.FT                 0.2500: 
NULL.                -999.2500: 
COMP.          Pioneer Natural Resources: COMPANY
WELL.           Alabaster 11-8: WELL
FLD.           Purgatorie River: FIELD
LOC.           1249' FNL & 215' FWL--: LOCATION
PROV.                       CO: PROVINCE
CNTY.               Las Animas: COUNTRY
SRVC.          Patterson Wireline: SERVICE COMPANY
DATE.          Mon Jan 30 11:59:01 2006: LOG DATE
UWI.           05 071 08642 00: UNIQUE WELL ID
~Curve Information Block
DEPT.FT            0 000 00 00: Depth
CCL.                          : Casing Collar Locator
TT3.usec                      : CBL 3' Travel Time
AMP3.mV                       : CBL 3' Amplitude
GR.GAPI                       : Gamma Ray
~Parameter Information Block
~A  Depth       CCL         TT3         AMP3         GR     
# ...
   259.5000      0.0000    264.5347     74.1902     99.4056
   259.7500      0.0000    264.5394     74.1143     90.2630
   260.0000      0.0000    264.5421     74.0786     80.4364
   260.2500      0.0000    264.5440     74.0661     73.0411
   260.5000      0.0000    264.5442     74.0621     70.5546
   260.7500      0.0000    264.5410     74.0605     73.4517
   261.0000      0.0000    264.5341     74.0596     80.6106
   261.2500      0.0000    264.5258     74.0618     90.4552
   261.5000      0.0000    264.5201     74.0724    101.1726
   261.7500      0.0000    264.5197     74.0958    110.4491
   262.0000      0.0000    264.5256     74.1379    116.2839
   262.2500      0.0000    264.5364     74.2085    118.4567
   262.5000      0.0000    264.5498     74.3076    118.6075
   262.7500      0.0000    264.5636     74.4109    118.5508
   263.0000      0.0000    264.5765     74.4783    118.8584
   263.2500      0.0000    264.5877     74.4798    119.1032
   263.5000      0.0000    264.5948     74.4150    118.8562
   263.7500      0.0000    264.5948     74.3135    118.2089
   264.0000      0.0000    264.5856     74.2217    117.7946
   264.2500      0.0000    264.5686     74.1853    118.5118
   264.5000      0.0000    264.5486     74.2309    120.7747
   264.7500      0.0000    264.5314     74.3489    123.6153
   265.0000      0.0000    264.5207     74.4954    124.7293
   265.2500      0.0000    264.5156     74.6242    121.9899
   265.5000      0.0000    264.5110     74.7211    115.3166
   265.7500      0.0000    264.5019     74.7976    107.0670
   266.0000      0.0000    264.4884     74.8532    100.3311
   266.2500      0.0000    264.4756     74.8654     96.5248
   266.5000      0.0000    264.4687     74.8230     94.5445
   266.7500      0.0000    264.4684     74.7553     92.2961
   267.0000      0.0000    264.4728     74.7094     88.9895
   267.2500      0.0000    264.4797     74.6977     85.6485
   267.5000      0.0000    264.4889     74.6847     83.4426
   267.7500      0.0000    264.5000     74.6338     82.1741
   268.0000      0.0000    264.5103     74.5523     80.7698
   268.2500      0.0000    264.5169     74.4760     78.7981
   268.5000      0.0000    264.5200     74.4197     76.9901
   268.7500      0.0000    264.5226     74.3678     76.3768
   269.0000      0.0000    264.5262     74.3104     77.2219
   269.2500      0.0000    264.5279     74.2666     78.7530
   269.5000      0.0000    264.5227     74.2656     79.5670
   269.7500      0.0000    264.5092     74.3205     78.2081
   270.0000      0.0000    264.4923     74.4200     73.8729
   270.2500      0.0000    264.4801     74.5333     67.1081
   270.5000      0.0000    264.4779     74.6191     59.6437
   270.7500      0.0000    264.4857     74.6471     53.0419
   271.0000      0.0000    264.4991     74.6198     47.6085
   271.2500      0.0000    264.5139     74.5637     42.9194
   271.5000      0.0000    264.5283     74.4971     39.0414
   271.7500      0.0000    264.5427     74.4179     36.5797
   272.0000      0.0000    264.5568     74.3207     35.6780
   272.2500      0.0000    264.5685     74.2118     35.7155
   272.5000      0.0000    264.5760     74.1034     36.2892
   272.7500      0.0000    264.5786     74.0071     38.0684
   273.0000      0.0000    264.5768     73.9350     42.3198
   273.2500      0.0000    264.5716     73.8949     49.7684
   273.5000      0.0000    264.5641     73.8819     60.0161
   273.7500      0.0000    264.5551     73.8801     71.6349
   274.0000      0.0000    264.5454     73.8781     82.6235
   274.2500      0.0000    264.5358     73.8816     91.3768
   274.5000      0.0000    264.5287     73.9064     97.6639
   274.7500      0.0000    264.5272     73.9536    102.3543
   275.0000      0.0000    264.5334     74.0010    106.1165
   275.2500      0.0000    264.5461     74.0255    108.8567
   275.5000      0.0000    264.5602     74.0271    110.3110
   275.7500      0.0000    264.5700     74.0239    110.3933
   276.0000      0.0000    264.5723     74.0329    108.8823
   276.2500      0.0000    264.5665     74.0657    105.4964
   276.5000      0.0000    264.5536     74.1315    100.5724
   276.7500      0.0000    264.5367     74.2296     95.4340
   277.0000      0.0000    264.5244     74.3405     91.9119
   277.2500      0.0000    264.5335     74.4193     91.4828
   277.5000      0.0000    264.5996     74.3577     94.7400
   277.7500      0.0000    264.7925     73.9009    101.1588
   278.0000      0.0000    265.2171     72.6360    108.8303
   278.2500      0.0000    265.9684     70.2039    114.8962
   278.5000      0.0000    267.0532     66.6548    117.2882
   278.7500      0.0000    268.3451     62.5708    116.2472
   279.0000      0.0000    269.6271     58.7379    113.6951
   279.2500      0.0000    270.6957     55.6891    111.1466
   279.5000      0.0000    271.4454     53.5624    108.6031
   279.7500      0.0000    271.8833     52.2630    105.3062
   280.0000      2.0000    272.0856     51.6289    101.0161
   280.2500      0.0000    272.1335     51.5168     96.2280
   280.5000      0.0000    272.0633     51.8822     91.3398
   280.7500      0.0000    271.8468     52.8604     86.1393
   281.0000      0.0000    271.4052     54.7166     80.2459
   281.2500      0.0000    270.6566     57.5951     73.6173
   281.5000      0.0000    269.5827     61.2345     66.4193
   281.7500      0.0000    268.2860     64.9892     58.8815
   282.0000      0.0000    266.9803     68.2242     51.6813
   282.2500      0.0000    265.8946     70.6613     46.1694
   282.5000      0.0000    265.1548     72.3386     43.6933
   282.7500      0.0000    264.7456     73.3962     44.6320
   283.0000      0.0000    264.5652     73.9800     48.0528
   283.2500      0.0000    264.5056     74.2371     52.1014
   283.5000      0.0000    264.4964     74.2961     55.0107
   283.7500      0.0000    264.5051     74.2462     56.3483
   284.0000      0.0000    264.5197     74.1428     57.3019
   284.2500      0.0000    264.5340     74.0268     59.3772
   284.5000      0.0000    264.5430     73.9316     62.9148
   284.7500      0.0000    264.5437     73.8873     67.0756
   285.0000      0.0000    264.5348     73.9155     71.0062
   285.2500      0.0000    264.5158     74.0180     74.7695
   285.5000      0.0000    264.4896     74.1568     79.2185
   285.7500      0.0000    264.4645     74.2578     85.0194
   286.0000      0.0000    264.4498     74.2665     91.7936
   286.2500      0.0000    264.4493     74.2017     98.3326
   286.5000      0.0000    264.4594     74.1345    103.6824
   286.7500      0.0000    264.4737     74.1141    107.9453
   287.0000      0.0000    264.4873     74.1364    111.9738
   287.2500      0.0000    264.4975     74.1748    116.2187
   287.5000      0.0000    264.5034     74.2158    119.8011
   287.7500      0.0000    264.5060     74.2643    120.8500
   288.0000      0.0000    264.5056     74.3352    117.9561
   288.2500      0.0000    264.5018     74.4406    111.5052
   288.5000      0.0000    264.4930     74.5701    103.7836
   288.7500      0.0000    264.4799     74.6839     97.5935
   289.0000      0.0000    264.4656     74.7383     94.3352
   289.2500      0.0000    264.4541     74.7247     93.2651
   289.5000      0.0000    264.4485     74.6740     92.5271
   289.7500      0.0000    264.4510     74.6195     90.7267
   290.0000      0.0000    264.4631     74.5607     87.6500
   290.2500      0.0000    264.4835     74.4678     84.0388
   290.5000      0.0000    264.5078     74.3219     80.9015
   290.7500      0.0000    264.5289     74.1518     78.8462
   291.0000      0.0000    264.5402     74.0286     77.8338
   291.2500      0.0000    264.5394     74.0131     77.3349
   291.5000      0.0000    264.5306     74.1041     76.5871
   291.7500      0.0000    264.5201     74.2498     74.9862
   292.0000      0.0000    264.5111     74.4051     72.5283
   292.2500      0.0000    264.5033     74.5542     69.7420
   292.5000      0.0000    264.4973     74.6777     67.1440
   292.7500      0.0000    264.4961     74.7374     65.0468
