~Version Information
VERS.                      2.0: CWLS Log ASCII Standard - VERSION 2.0
WRAP.                       NO: One line per depth step
~Well Information Block
STRT.FT                -6.0000: 
STOP.FT               783.7500: 
STEP.FT                 0.2500: 
NULL.                -999.2500: 
COMP.          Pioneer Natural Resources: COMPANY
WELL.           Weissach 32-32: WELL
FLD.           Purgatorie River: FIELD
LOC.           --2193' FNL & 2256' FEL--: LOCATION
STAT.                       CO: State
CNTY.               Las Animas: COUNTY
CTRY. USA : Country
SECT. 32 : Section
TOWN. 33S : Township
RANG. 65W : Range
SRVC.          Patterson Wireline: SERVICE COMPANY
DATE.          Thu Sep 29 12:52:09 2005: LOG DATE
API.           05 071 08523 00: UNIQUE WELL ID
~Curve Information Block
DEPT.FT            0 000 00 00: Depth
CCL.                          : Casing Collar Locator
TT3.usec                      : CBL 3' Travel Time
AMP3.mV                       : CBL 3' Amplitude
GR.GAPI                       : Gamma Ray
~Parameter Information Block
~A  Depth       CCL         TT3         AMP3         GR     
# ...
   295.5000      0.0000    352.8509     11.6845    104.0422
   295.7500      0.0000    351.1689     11.5661    101.3873
   296.0000      0.0000    349.7480     11.4478     99.8508
   296.2500      0.0000    347.5194     11.3352     99.1289
   296.5000      0.0000    343.5561     11.2294     99.4035
   296.7500      0.0000    338.2332     11.1318    100.9624
   297.0000      0.0000    332.9846     11.0493    102.8944
   297.2500      0.0000    329.0419     10.9936    102.9653
   297.5000      0.0000    326.6740     10.9728     99.4212
   297.7500      0.0000    325.4581     10.9843     92.5882
   298.0000      0.0000    324.8769     11.0150     84.2805
   298.2500      0.0000    324.6010     11.0449     76.0806
   298.5000      0.0000    324.4767     11.0529     68.7591
   298.7500      0.0000    324.4509     11.0244     62.8293
   299.0000      0.0000    324.5370     10.9525     58.7482
   299.2500      0.0000    324.7731     10.8341     56.6330
   299.5000      0.0000    325.1540     10.6745     56.4025
   299.7500      0.0000    325.5934     10.4982     58.2858
   300.0000      0.0000    326.0031     10.3403     62.7357
   300.2500      0.0000    326.4693     10.2191     69.5821
   300.5000      0.0000    327.4052     10.1234     77.5436
   300.7500      0.0000    329.5210     10.0321     84.9875
   301.0000      0.0000    333.4657      9.9385     91.0356
   301.2500      0.0000    339.2127      9.8499     95.3984
   301.5000      0.0000    345.7338      9.7697     97.4106
   301.7500      0.0000    351.5055      9.6896     96.3025
   302.0000      0.0000    355.4998      9.5983     92.7258
   302.2500      0.0000    357.6773      9.4946     89.1866
   302.5000      0.0000    358.6360      9.3955     88.3642
   302.7500      0.0000    359.0042      9.3341     91.0312
   303.0000      0.0000    359.1666      9.3452     95.6339
   303.2500      0.0000    359.3558      9.4440     99.6869
   303.5000      0.0000    359.8628      9.6121    101.4655
   303.7500      0.0000    361.2121      9.8086    100.6774
   304.0000      0.0000    364.1701      9.9950     98.1728
   304.2500      0.0000    369.3674     10.1513     95.4769
   304.5000      0.0000    376.6054     10.2744     94.2366
   304.7500      0.0000    384.5289     10.3681     95.1469
   305.0000      0.0000    391.2640     10.4344     96.9851
   305.2500      0.0000    395.4831     10.4723     97.3181
   305.5000      0.0000    396.7549     10.4799     94.8052
   305.7500      0.0000    395.0558     10.4624     90.6974
   306.0000      0.0000    390.4650     10.4381     87.7590
   306.2500      0.0000    383.6479     10.4334     87.7892
   306.5000      0.0000    376.4340     10.4597     90.3908
   306.7500      0.0000    371.3983     10.4905     93.9741
   307.0000      0.0000    370.4346     10.4701     97.3260
   307.2500      0.0000    373.5190     10.3616     99.8611
   307.5000      0.0000    378.7787     10.1915    101.0459
   307.7500      0.0000    383.8228     10.0393    100.6992
   308.0000      0.0000    387.1714      9.9733     99.8688
   308.2500      0.0000    388.6772      9.9987    100.3338
   308.5000      0.0000    388.9571     10.0697    102.7184
   308.7500      0.0000    388.6749     10.1399    105.5843
   309.0000      0.0000    388.2275     10.1946    106.7871
   309.2500      0.0000    387.7739     10.2419    105.4979
   309.5000      0.0000    387.3378     10.2897    102.5711
   309.7500      0.0000    386.8206     10.3333     99.1005
   310.0000      0.0000    385.8962     10.3601     95.2666
   310.2500      0.0000    383.9472     10.3614     90.9864
   310.5000      0.0000    380.3314     10.3383     87.1074
   310.7500      0.0000    374.9913     10.3007     85.0365
   311.0000      0.0000    368.8396     10.2603     85.1437
   311.2500      0.0000    363.3163     10.2244     86.3316
   311.5000      0.0000    359.4263     10.1920     87.5286
   311.7500      0.0000    357.2247     10.1535     89.2021
   312.0000      0.0000    356.1148     10.0964     92.9585
   312.2500      0.0000    355.4307     10.0135     99.4473
   312.5000      0.0000    354.7732      9.9075    106.6835
   312.7500      0.0000    354.0420      9.7900    110.9022
   313.0000      0.0000    353.3201      9.6762    109.5960
   313.2500      0.0000    352.7364      9.5803    103.6158
   313.5000      0.0000    352.3815      9.5133     96.0372
   313.7500      0.0000    352.3021      9.4817     89.2694
   314.0000      0.0000    352.5506      9.4883     83.5827
   314.2500      0.0000    353.2744      9.5337     78.0271
   314.5000      0.0000    354.8265      9.6170     72.0810
   314.7500      0.0000    357.7776      9.7333     66.2290
   315.0000      0.0000    362.6214      9.8726     61.2861
   315.2500      0.0000    369.1727     10.0224     57.5295
   315.5000      0.0000    376.1771     10.1744     54.6051
   315.7500      0.0000    381.6830     10.3301     52.1888
   316.0000      0.0000    383.9680     10.4967     50.5366
   316.2500      0.0000    382.3158     10.6773     50.2625
   316.5000      0.0000    377.3234     10.8661     51.6026
   316.7500      0.0000    370.7083     11.0524     53.9450
   317.0000      0.0000    364.5201     11.2271     56.1008
   317.2500      0.0000    360.1014     11.3887     57.0086
   317.5000      0.0000    357.6313     11.5439     56.1549
   317.7500      0.0000    356.5350     11.7002     53.4700
   318.0000      0.0000    356.1606     11.8518     49.1887
   318.2500      0.0000    356.1186     11.9730     44.0141
   318.5000      0.0000    356.2589     12.0305     39.1876
   318.7500      0.0000    356.5294     12.0092     36.0018
   319.0000      0.0000    356.8791     11.9313     35.1207
   319.2500      0.0000    357.2319     11.8495     36.3472
   319.5000      0.0000    357.5094     11.8160     38.8905
   319.7500      0.0000    357.6664     11.8481     41.8608
   320.0000      0.0000    357.6773     11.9234     44.7547
   320.2500      0.0000    357.4300     12.0093     47.5054
   320.5000      0.0000    356.5548     12.0979     49.9310
   320.7500      0.0000    354.3704     12.2137     51.4367
   321.0000      0.0000    350.2031     12.3936     51.6945
   321.2500      0.0000    344.0600     12.6548     51.3719
   321.5000      0.0000    337.0358     12.9780     51.5855
   321.7500      0.0000    330.8409     13.3145     52.5444
   322.0000      0.0000    326.8238     13.6107     53.0838
   322.2500      0.0000    325.5717     13.8297     51.7876
   322.5000      0.0000    327.3642     13.9576     48.5548
   322.7500      0.0000    332.6155     13.9987     44.8948
   323.0000      0.0000    341.5431     13.9652     42.6560
   323.2500      0.0000    353.4291     13.8677     42.6045
   323.5000      0.0000    366.4580     13.7092     44.1753
   323.7500      0.0000    378.8143     13.4762     46.1169
   324.0000      0.0000    390.8098     13.1234     47.1869
   324.2500      0.0000    406.6434     12.5688     46.7419
   324.5000      0.0000    433.9190     11.7345     45.1777
   324.7500      0.0000    480.0874     10.6325     43.6979
   325.0000      0.0000    547.3696      9.4257     43.3601
   325.2500      0.0000    629.1415      8.3704     44.3607
   325.5000      0.0000    710.5386      7.6625     46.2363
   325.7500      0.0000    774.1077      7.3265     48.3102
   326.0000      0.0000    809.0909      7.2394     49.8224
   326.2500      0.0000    818.8954      7.2428     50.3993
   326.5000      0.0000    818.7537      7.2331     50.9161
   326.7500      0.0000    822.2684      7.1893     53.2527
   327.0000      2.0000    829.2616      7.1617     58.4841
   327.2500      0.0000    828.1910      7.2450     65.4128
   327.5000      0.0000    809.7842      7.5222     71.2492
   327.7500      0.0000    776.9374      7.9796     73.7591
   328.0000      0.0000    742.0569      8.4686     72.7542
   328.2500      0.0000    716.5208      8.7960     69.8114
   328.5000      0.0000    703.4484      8.8759     66.9197
   328.7500      0.0000    699.1291      8.7713     65.2042
