~Version Information
 VERS.                                  2.0 : CWLS LAS VERSION
 WRAP.                                   NO : WRAPING MODE
 SWARE .                 MController 2.5.0N : SOFTWARE VERSION
~Well Information
 WELL.                        Avant 14-3 Tr : WELL
 COMP.  Pioneer Natural Resources USA, Inc. : COMPANY
 FLD.                      Purgatoire River : FIELD
 LOC.               SW/SW Sec 3 T33S  R67W  : LOCATION
 DATE.                             08/18/05 : DATE(S) LOGGED
 SRVC.       BLANCO Geological Services LLC : SERVICE COMPANY
 STAT.                                   CO : STATE
 CNTY.                           Las Animas : COUNTY
 CTRY.                                  USA : COUNTRY
 API.                       05 071 08463 00 : API NUMBER
 STRT.FT                             585.00 : START DEPTH
 STOP.FT                            1345.00 : STOP DEPTH
 STEP.FT                               1.00 : DEPTH INCREMENT
 NULL.                                -9999 : NULL VALUE
~Curve information
 DEPTH.FT                                   :
 ROP.MIN/FT                                 :
 GAS.UNITS                                  :
~ASCII Log data
       585.0     -9999.00          1.6 
       586.0         2.10          4.0 
       587.0         0.17          4.6 
       588.0         0.10          4.6 
       589.0         0.07          4.6 
       590.0         0.10          3.8 
       591.0         0.37          4.6 
       592.0         0.22          4.9 
       593.0         0.23          5.2 
       594.0         0.50          5.2 
       595.0         0.40          4.5 
       596.0         1.63          5.1 
       597.0         0.23          4.7 
       598.0         0.13          5.1 
       599.0         0.25          4.8 
       600.0         0.37          5.3 
       601.0         0.27          5.5 
       602.0         0.57          5.5 
       603.0         0.57          5.2 
       604.0         0.43          5.0 
       605.0         0.40          5.5 
       606.0         0.27          4.7 
       607.0         0.35          4.7 
       608.0         0.20          4.6 
       609.0         0.17          5.0 
       610.0         0.20          4.6 
       611.0         0.20          4.7 
       612.0         0.17          4.5 
       613.0         0.23          5.4 
       614.0         0.23          5.2 
       615.0         0.23          4.8 
       616.0         0.23          4.9 
       617.0         0.20          4.9 
       618.0         0.23          5.0 
       619.0         0.20          5.0 
       620.0         0.20          4.6 
       621.0         0.20          4.8 
       622.0         0.17          5.2 
       623.0         0.17          5.2 
       624.0         0.22          5.3 
       625.0         0.40          5.0 
       626.0         1.10          5.4 
       627.0         0.13          5.4 
       628.0         0.10          5.4 
       629.0         0.10          4.4 
       630.0         0.77          4.9 
       631.0         0.33          4.7 
       632.0         0.35          5.5 
       633.0         0.27          4.8 
       634.0         0.33          4.9 
       635.0         0.27          5.5 
       636.0         0.20          5.4 
       637.0         0.23          4.5 
       638.0         0.20          4.5 
       639.0         0.27          5.0 
       640.0         0.17          5.0 
       641.0         0.17          4.1 
       642.0         0.10          4.1 
       643.0         0.13          4.6 
       644.0         0.17          3.5 
       645.0         0.30          3.6 
       646.0         0.23          3.7 
       647.0         0.20          3.1 
       648.0         0.22          3.1 
       649.0         0.17          3.3 
       650.0         0.13          3.3 
       651.0         0.10          3.7 
       652.0         0.20          3.3 
       653.0         0.50          3.8 
       654.0         0.23          3.8 
       655.0         0.37          3.8 
       656.0         5.50          4.0 
       657.0         0.27          3.4 
       658.0         0.23          3.3 
       659.0         0.20          3.3 
       660.0         0.37          3.5 
       661.0         0.30          3.5 
       662.0         0.13          3.0 
       663.0         0.20          3.8 
       664.0         0.23          3.9 
       665.0         0.20          3.6 
       666.0         0.23          4.1 
       667.0         0.25          4.7 
       668.0         0.27          4.2 
       669.0         0.30          4.5 
       670.0         0.23          4.6 
       671.0         0.20          4.5 
       672.0         0.17          4.8 
       673.0         0.23          4.1 
       674.0         0.20          4.5 
       675.0         0.23          4.7 
       676.0         0.17          4.8 
       677.0         0.17          4.5 
       678.0         0.40          5.2 
       679.0         0.20          4.9 
       680.0         0.20          5.1 
       681.0         0.30          4.6 
       682.0         0.22          4.4 
       683.0         0.17          4.1 
       684.0         0.20          3.8 
       685.0         0.20          4.0 
       686.0         1.73          3.2 
       687.0         0.63          3.9 
       688.0         0.35          4.2 
       689.0         0.23          4.4 
       690.0         0.23          4.0 
       691.0         0.13         43.5 
       692.0         0.17         71.7 
       693.0         0.20         70.2 
       694.0         0.17         49.5 
       695.0         0.17         26.5 
       696.0         0.20         15.2 
       697.0         0.17          8.6 
       698.0         0.17          5.9 
       699.0         0.10          3.7 
       700.0         0.20          4.4 
       701.0         0.20          3.9 
       702.0         0.20          3.9 
       703.0         0.23          4.3 
       704.0         0.17          4.0 
       705.0         0.25          3.9 
       706.0         0.17          3.7 
       707.0         0.20          3.7 
       708.0         0.17          4.5 
       709.0         0.17          4.1 
       710.0         0.17          3.9 
       711.0         0.20          4.3 
       712.0         0.17          4.2 
       713.0         0.17          4.2 
       714.0         0.23          3.7 
       715.0         0.23          4.0 
       716.0         1.82          4.2 
       717.0         0.17          4.0 
       718.0         0.30          4.1 
       719.0         0.33          4.3 
       720.0         0.33          4.7 
       721.0         0.27          5.0 
       722.0         0.27          5.2 
       723.0         0.33          4.9 
       724.0         0.13          4.3 
       725.0         0.13          4.6 
       726.0         0.10          4.3 
       727.0         0.40          4.6 
       728.0         0.10          4.6 
       729.0         0.15          4.2 
       730.0         0.23          4.9 
       731.0         0.17          4.1 
       732.0         0.13          4.1 
       733.0         0.17          5.0 
       734.0         0.20          4.8 
       735.0         0.20          4.8 
       736.0         0.27          4.8 
       737.0         0.27          4.9 
       738.0         0.20          4.9 
       739.0         0.20          4.8 
       740.0         0.20          5.0 
       741.0         0.20          4.2 
       742.0         0.20          4.4 
       743.0         0.20          4.3 
       744.0         0.23          3.7 
       745.0         0.22          3.2 
       746.0         1.83          3.8 
       747.0         0.47          4.0 
       748.0         0.30          4.2 
       749.0         0.23          3.9 
       750.0         0.20          4.4 
       751.0         0.23          4.5 
       752.0         0.18          4.6 
       753.0         0.17          4.0 
       754.0         0.23          4.0 
       755.0         0.23          4.0 
       756.0         0.17          4.5 
       757.0         0.17          3.9 
       758.0         0.20          4.7 
       759.0         0.17          4.5 
       760.0         0.20          4.2 
       761.0         0.20          4.8 
       762.0         0.20          4.4 
       763.0         0.17          4.6 
       764.0         0.17          4.4 
       765.0         0.17          4.7 
       766.0         0.17          4.0 
       767.0         0.20          4.5 
       768.0         0.20          4.6 
       769.0         0.17          3.8 
       770.0         0.22          4.7 
       771.0         0.17          4.4 
       772.0         0.17          4.5 
       773.0         0.23          3.9 
       774.0         0.23          3.8 
       775.0         0.23          3.3 
       776.0         2.28          4.1 
       777.0         0.20          3.3 
       778.0         0.43          3.8 
       779.0         0.20          3.8 
       780.0         0.13          3.3 
       781.0         0.17          4.0 
       782.0         0.17          4.0 
       783.0         0.20          5.4 
       784.0         0.20          8.4 
