~Version Information
VERS.                      2.0: CWLS Log ASCII Standard - VERSION 2.0
WRAP.                       NO: One line per depth step
~Well Information Block
STRT.FT                 0.0000: 
STOP.FT              1193.0000: 
STEP.FT                 0.1000: 
NULL.                -999.2500: 
COMP.          Pioneer Natural Resources: COMPANY
WELL.          Big Pine 32-15 Tr: WELL
FLD.           Purgatorie River: FIELD
LOC.           2546' FNL & 1451' FEL: LOCATION
STAT.                 Colorado: State
CNTY.               Las Animas: COUNTY
CTRY. USA : Country
SECT. 15 : Section
TOWN. 33S : Township
RANG. 67W : Range
SRVC.                Patterson: SERVICE COMPANY
DATE.          Tue Nov 08 07:11:35 2005: LOG DATE
API. 05-071-08604                         : UNIQUE WELL ID
~Curve Information Block
DEPT.FT            0 000 00 00: Depth
DCAL.in                       : CDL Caliper
RHOB.g/cc                     : CDL Bulk Density
RHOC.g/cc                     : CDL Density Correction
DPOR.pu                       : CDL Density Porosity
GR.GAPI                       : Gamma Ray
NPOR.pu                       : Neutron Porosity
~Parameter Information Block
~A  Depth       DCAL        RHOB        RHOC        DPOR         GR         NPOR    
# ...
  1161.6000      7.9304      2.6270      0.0759      1.3969    129.4841   -999.2500
  1161.7000      7.9304      2.6127      0.0370      2.2601    128.5399   -999.2500
  1161.8000      7.9284      2.6018      0.0098      2.9199    129.4580   -999.2500
  1161.9000      7.9284      2.5942      0.0622      3.3846    132.1196   -999.2500
  1162.0000      7.9075      2.5760      0.0222      4.4857    133.5387   -999.2500
  1162.1000      7.9075      2.5493      0.0401      6.1016    131.8548   -999.2500
  1162.2000      7.9075      2.5406     -0.0751      6.6280    128.3006   -999.2500
  1162.3000      7.8641      2.5695      0.0008      4.8759    125.8627   -999.2500
  1162.4000      7.8641      2.6160      0.0783      2.0610    126.0391   -999.2500
  1162.5000      7.8800      2.6489      0.0723      0.0642    126.5686   -999.2500
  1162.6000      7.8800      2.6580      0.1228     -0.4864    125.3459   -999.2500
  1162.7000      7.8800      2.6449      0.1135      0.3106    124.1154   -999.2500
  1162.8000      7.8369      2.6192      0.0908      1.8675    124.4788   -999.2500
  1162.9000      7.8369      2.5990      0.0399      3.0915    125.6310   -999.2500
  1163.0000      7.8079      2.6008      0.0216      2.9815    125.7668   -999.2500
  1163.1000      7.8079      2.6175      0.0943      1.9710    125.3060   -999.2500
  1163.2000      7.8079      2.6276      0.0485      1.3576    127.3688   -999.2500
  1163.3000      7.8146      2.6249      0.0879      1.5203    133.1994   -999.2500
  1163.4000      7.8146      2.6132      0.0635      2.2313    139.9529   -999.2500
  1163.5000      7.9109      2.5997      0.0640      3.0455    143.2069   -999.2500
  1163.6000      7.9109      2.5863      0.0572      3.8613    141.8647   -999.2500
  1163.7000      7.9109      2.5684      0.0487      4.9471    136.6165   -999.2500
  1163.8000      7.8849      2.5525      0.0208      5.9082    122.1084   -999.2500
  1163.9000      7.8849      2.5467      0.0430      6.2618     89.2833   -999.2500
  1164.0000      7.8830      2.5470      0.0395      6.2450     45.7354   -999.2500
  1164.1000      7.8830      2.5520      0.0138      5.9399     14.5346   -999.2500
  1164.2000      7.8830      2.5622      0.0462      5.3231      2.6590   -999.2500
  1164.3000      7.9107      2.5703     -0.0032      4.8324      0.2684   -999.2500
  1164.4000      7.9107      2.5733      0.0216      4.6486      0.0142   -999.2500
  1164.5000      7.9342      2.5753      0.0257      4.5279      0.0000   -999.2500
  1164.6000      7.9342      2.5766      0.0798      4.4462   -999.2500   -999.2500
  1164.7000      7.9342      2.5730      0.0227      4.6693   -999.2500   -999.2500
  1164.8000      7.9470      2.5664      0.0059      5.0637   -999.2500   -999.2500
  1164.9000      7.9470      2.5655     -0.0450      5.1232   -999.2500   -999.2500
  1165.0000      7.9427      2.5753     -0.0498      4.5262   -999.2500   -999.2500
  1165.1000      7.9427      2.5897      0.0346      3.6533   -999.2500   -999.2500
  1165.2000      7.9427      2.5980      0.0370      3.1492   -999.2500   -999.2500
  1165.3000      7.9208      2.6018     -0.0150      2.9199   -999.2500   -999.2500
  1165.4000      7.9208      2.6062      0.0168      2.6574   -999.2500   -999.2500
  1165.5000      7.9268      2.6038      0.0064      2.7982   -999.2500   -999.2500
  1165.6000      7.9268      2.5876     -0.0226      3.7829   -999.2500   -999.2500
  1165.7000      7.9268      2.5723     -0.0649      4.7114   -999.2500   -999.2500
  1165.8000      7.9308      2.5790     -0.0192      4.3054   -999.2500   -999.2500
  1165.9000      7.9308      2.5997      0.0375      3.0508   -999.2500   -999.2500
  1166.0000      7.8953      2.6104      0.0390      2.4003   -999.2500   -999.2500
  1166.1000      7.8953      2.6132      0.0121      2.2289   -999.2500   -999.2500
  1166.2000      7.8953      2.6247      0.0133      1.5333   -999.2500   -999.2500
  1166.3000      7.8964      2.6374      0.0619      0.7650   -999.2500   -999.2500
  1166.4000      7.8964      2.6356      0.0445      0.8699   -999.2500   -999.2500
  1166.5000      7.9098      2.6270      0.0293      1.3913   -999.2500   -999.2500
  1166.6000      7.9098      2.6329      0.0229      1.0366   -999.2500   -999.2500
  1166.7000      7.9098      2.6627      0.0622     -0.7683   -999.2500   -999.2500
  1166.8000      7.8917      2.6970      0.0752     -2.8467   -999.2500   -999.2500
  1166.9000      7.8917      2.7061      0.0833     -3.4019   -999.2500   -999.2500
  1167.0000      7.9059      2.6844      0.0657     -2.0856   -999.2500   -999.2500
  1167.1000      7.9059      2.6492      0.0566      0.0457   -999.2500   -999.2500
  1167.2000      7.9059      2.6179      0.0117      1.9479   -999.2500   -999.2500
  1167.3000      7.9068      2.5961      0.0327      3.2667   -999.2500   -999.2500
  1167.4000      7.9068      2.5870     -0.0183      3.8189   -999.2500   -999.2500
  1167.5000      7.8960      2.5957      0.0204      3.2908   -999.2500   -999.2500
  1167.6000      7.8960      2.6132      0.0300      2.2284   -999.2500   -999.2500
  1167.7000      7.8960      2.6252      0.0557      1.5033   -999.2500   -999.2500
  1167.8000      7.8931      2.6263      0.0749      1.4357   -999.2500   -999.2500
  1167.9000      7.8931      2.6202      0.0392      1.8081   -999.2500   -999.2500
  1168.0000      7.8883      2.6169      0.0478      2.0050   -999.2500   -999.2500
  1168.1000      7.8883      2.6195      0.0760      1.8496   -999.2500   -999.2500
  1168.2000      7.8883      2.6261      0.0500      1.4469   -999.2500   -999.2500
  1168.3000      7.8684      2.6404     -0.0059      0.5823   -999.2500   -999.2500
  1168.4000      7.8684      2.6594      0.0545     -0.5678   -999.2500   -999.2500
  1168.5000      7.8959      2.6718      0.0611     -1.3216   -999.2500   -999.2500
  1168.6000      7.8959      2.6745      0.0802     -1.4824   -999.2500   -999.2500
  1168.7000      7.8959      2.6676      0.0681     -1.0642   -999.2500   -999.2500
  1168.8000      7.9040      2.6567      0.0165     -0.4051   -999.2500   -999.2500
  1168.9000      7.9040      2.6505      0.0694     -0.0332   -999.2500   -999.2500
  1169.0000      7.9155      2.6469      0.0826      0.1857   -999.2500   -999.2500
  1169.1000      7.9155      2.6484      0.0066      0.0968   -999.2500   -999.2500
  1169.2000      7.9155      2.6579      0.0538     -0.4811   -999.2500   -999.2500
  1169.3000      7.8557      2.6585      0.0348     -0.5149   -999.2500   -999.2500
  1169.4000      7.8557      2.6334      0.0479      1.0054   -999.2500   -999.2500
  1169.5000      7.8585      2.5893      0.0107      3.6807   -999.2500   -999.2500
  1169.6000      7.8585      2.5476      0.0076      6.2051   -999.2500   -999.2500
  1169.7000      7.8585      2.5230     -0.0553      7.6966   -999.2500   -999.2500
  1169.8000      7.8734      2.5169     -0.0230      8.0659   -999.2500   -999.2500
  1169.9000      7.8734      2.5236     -0.0491      7.6630   -999.2500   -999.2500
  1170.0000      7.8635      2.5351      0.0379      6.9647   -999.2500   -999.2500
  1170.1000      7.8635      2.5422      0.0328      6.5326   -999.2500   -999.2500
  1170.2000      7.8635      2.5419      0.0426      6.5537   -999.2500   -999.2500
  1170.3000      7.9117      2.5362      0.0786      6.8986   -999.2500   -999.2500
  1170.4000      7.9117      2.5275      0.0783      7.4237   -999.2500   -999.2500
  1170.5000      8.0043      2.5210      0.0759      7.8193   -999.2500   -999.2500
  1170.6000      8.0043      2.5239      0.0555      7.6453   -999.2500   -999.2500
  1170.7000      8.0043      2.5344      0.0918      7.0035   -999.2500   -999.2500
  1170.8000      8.0019      2.5380      0.0999      6.7884   -999.2500   -999.2500
  1170.9000      8.0019      2.5273      0.1067      7.4375   -999.2500   -999.2500
  1171.0000      7.9849      2.5143      0.0595      8.2245   -999.2500   -999.2500
  1171.1000      7.9849      2.5145      0.0381      8.2091   -999.2500   -999.2500
