~Version Information
VERS.                      2.0: CWLS Log ASCII Standard - VERSION 2.0
WRAP.                       NO: One line per depth step
~Well Information Block
STRT.FT                -8.0000: 
STOP.FT              1060.7500: 
STEP.FT                 0.2500: 
NULL.                -999.2500: 
COMP.          Pioneer Natural Resources: COMPANY
WELL.          Pavillion 44-25: WELL
FLD.           Purgatorie River: FIELD
LOC.           719' FSL & 650' FEL--: LOCATION
PROV.                       CO: PROVINCE
CNTY.               Las Animas: COUNTRY
SRVC.          Patterson Wireline: SERVICE COMPANY
DATE.          Mon Dec 19 11:59:26 2005: LOG DATE
UWI.           05 071 08624 00: UNIQUE WELL ID
~Curve Information Block
DEPT.FT            0 000 00 00: Depth
CCL.                          : Casing Collar Locator
TT3.usec                      : CBL 3' Travel Time
AMP3.mV                       : CBL 3' Amplitude
GR.GAPI                       : Gamma Ray
~Parameter Information Block
~A  Depth       CCL         TT3         AMP3         GR     
# ...
   461.0000      0.0000    746.5015      5.6767    103.5644
   461.2500      0.0000    758.6494      5.7066    116.5006
   461.5000      0.0000    775.4794      5.7171    130.6099
   461.7500      0.0000    793.5919      5.7021    142.3315
   462.0000      0.0000    808.5124      5.6720    150.1217
   462.2500      0.0000    817.7111      5.6453    154.4114
   462.5000      0.0000    821.6966      5.6348    155.9116
   462.7500      0.0000    822.3147      5.6422    154.9941
   463.0000      0.0000    820.6503      5.6601    152.4512
   463.2500      0.0000    816.6915      5.6830    149.4578
   463.5000      0.0000    810.3792      5.7143    146.3337
   463.7500      0.0000    802.7216      5.7637    142.2395
   464.0000      0.0000    796.3502      5.8352    136.6848
   464.2500      0.0000    794.8539      5.9193    130.9150
   464.5000      0.0000    800.7248      6.0017    127.2921
   464.7500      0.0000    813.7629      6.0793    127.3615
   465.0000      0.0000    831.4252      6.1638    130.8179
   465.2500      0.0000    850.1580      6.2682    136.1748
   465.5000      0.0000    866.5853      6.3915    141.9189
   465.7500      0.0000    878.4962      6.5169    146.9351
   466.0000      0.0000    884.6917      6.6213    150.4151
   466.2500      0.0000    883.2369      6.6892    151.7212
   466.5000      0.0000    870.9601      6.7217    150.3315
   466.7500      0.0000    846.6047      6.7327    146.1567
   467.0000      0.0000    814.3812      6.7330    140.2004
   467.2500      0.0000    782.6780      6.7180    134.4287
   467.5000      0.0000    758.6530      6.6740    130.3555
   467.7500      0.0000    744.4929      6.5945    128.1168
   468.0000      0.0000    738.3954      6.4864    127.6012
   468.2500      0.0000    737.9042      6.3658    129.7622
   468.5000      0.0000    742.0273      6.2498    135.4810
   468.7500      0.0000    750.8633      6.1522    143.5126
   469.0000      0.0000    763.7322      6.0808    151.1799
   469.2500      0.0000    777.9524      6.0379    157.1308
   469.5000      0.0000    789.7699      6.0238    162.0134
   469.7500      0.0000    796.4386      6.0395    166.4658
   470.0000      0.0000    797.0887      6.0823    169.8434
   470.2500      0.0000    791.9514      6.1393    171.1392
   470.5000      0.0000    781.7281      6.1918    170.2992
   470.7500      0.0000    768.1233      6.2280    168.5051
   471.0000      0.0000    754.5963      6.2483    167.7094
   471.2500      0.0000    745.9117      6.2580    169.6560
   471.5000      0.0000    746.0341      6.2611    174.8108
   471.7500      0.0000    755.4248      6.2600    182.1403
   472.0000      0.0000    770.0745      6.2569    189.8235
   472.2500      0.0000    783.6901      6.2554    196.0840
   472.5000      0.0000    791.3386      6.2608    199.7429
   472.7500      0.0000    791.5669      6.2778    200.2346
   473.0000      0.0000    786.2006      6.3053    197.1434
   473.2500      0.0000    779.0136      6.3355    190.1926
   473.5000      0.0000    774.0580      6.3603    180.2151
   473.7500      0.0000    773.9088      6.3766    169.5736
   474.0000      0.0000    778.5353      6.3821    160.5744
   474.2500      0.0000    785.5486      6.3722    153.3049
   474.5000      0.0000    791.6991      6.3451    145.4635
   474.7500      0.0000    794.5926      6.3078    134.6000
   475.0000      0.0000    793.5522      6.2698    120.4685
   475.2500      0.0000    789.3497      6.2363    105.0829
   475.5000      0.0000    783.3247      6.2102     91.1439
   475.7500      0.0000    776.5730      6.1969     81.1041
   476.0000      0.0000    769.6317      6.2008     76.8351
   476.2500      0.0000    762.4055      6.2216     78.6025
   476.5000      0.0000    754.0043      6.2556     84.2728
   476.7500      0.0000    743.0931      6.2990     90.4185
   477.0000      0.0000    729.2849      6.3477     94.4489
   477.2500      0.0000    714.3160      6.3965     95.5368
   477.5000      0.0000    701.2384      6.4394     94.1802
   477.7500      0.0000    692.2266      6.4730     91.6428
   478.0000      0.0000    687.3691      6.4978     89.4009
   478.2500      0.0000    685.3616      6.5174     88.2129
   478.5000      0.0000    684.7973      6.5344     87.6024
   478.7500      0.0000    684.7957      6.5474     86.5925
   479.0000      0.0000    684.9261      6.5530     84.8573
   479.2500      0.0000    684.9700      6.5492     82.9423
   479.5000      0.0000    684.8209      6.5370     81.5698
   479.7500      0.0000    684.4838      6.5198     81.0693
   480.0000      0.0000    684.0518      6.5012     81.2769
   480.2500      0.0000    683.6193      6.4835     81.6090
   480.5000      0.0000    683.2242      6.4680     81.3757
   480.7500      0.0000    682.8676      6.4575     80.2863
   481.0000      0.0000    682.5737      6.4575     78.6639
   481.2500      0.0000    682.4117      6.4754     77.2672
   481.5000      0.0000    682.4398      6.5193     76.9464
   481.7500      0.0000    682.6230      6.5962     78.2859
   482.0000      0.0000    682.8256      6.7066     81.2677
   482.2500      0.0000    682.8939      6.8400     84.9210
   482.5000      0.0000    682.7052      6.9779     87.3543
   482.7500      0.0000    682.1149      7.1037     86.9230
   483.0000      0.0000    680.8561      7.2079     83.8170
   483.2500      0.0000    678.7004      7.2826     79.9260
   483.5000      0.0000    676.0854      7.3051     76.8059
   483.7500      0.0000    674.8907      7.2309     74.4019
   484.0000      0.0000    678.0507      7.0222     71.8714
   484.2500      0.0000    687.3105      6.7039     68.8683
   484.5000      0.0000    700.8004      6.3766     65.7325
   484.7500      0.0000    713.3517      6.1449     63.0587
   485.0000      0.0000    720.0001      6.0348     61.4771
   485.2500      2.0000    719.7857      5.9960     61.4690
   485.5000      0.0000    716.4938      5.9778     62.9852
   485.7500      0.0000    715.2491      5.9966     65.3911
   486.0000      0.0000    717.4957      6.1443     67.9881
   486.2500      0.0000    719.5065      6.5258     70.3995
   486.5000      0.0000    716.5898      7.1395     72.3242
   486.7500      0.0000    708.2109      7.7964     73.2525
   487.0000      0.0000    698.0823      8.2154     72.8631
   487.2500      0.0000    690.1219      8.2458     71.5412
   487.5000      0.0000    685.5864      7.9800     70.1007
   487.7500      0.0000    683.5808      7.6369     69.0445
   488.0000      0.0000    682.8019      7.3778     68.3956
   488.2500      0.0000    682.4674      7.2421     68.1698
   488.5000      0.0000    682.2794      7.1990     68.7124
   488.7500      0.0000    682.1493      7.2096     70.5473
   489.0000      0.0000    682.0436      7.2492     74.0138
   489.2500      0.0000    681.9573      7.3022     79.0341
   489.5000      0.0000    681.9026      7.3530     85.1063
   489.7500      0.0000    681.8839      7.3868     91.4346
   490.0000      0.0000    681.8880      7.3982     97.0879
   490.2500      0.0000    681.8980      7.3942    101.1335
   490.5000      0.0000    681.9067      7.3863    102.8445
   490.7500      0.0000    681.9138      7.3802    102.0145
   491.0000      0.0000    681.9174      7.3721     99.1641
   491.2500      0.0000    681.9134      7.3526     95.3627
   491.5000      0.0000    681.8953      7.3151     91.8101
   491.7500      0.0000    681.8567      7.2604     89.3572
   492.0000      0.0000    681.8116      7.1951     88.0150
   492.2500      0.0000    681.8015      7.1278     86.9857
   492.5000      0.0000    681.8534      7.0665     85.5668
   492.7500      0.0000    681.9348      7.0197     83.8971
   493.0000      0.0000    681.9663      6.9928     82.5820
   493.2500      0.0000    681.8893      6.9824     81.9769
   493.5000      0.0000    681.7191      6.9753     82.0288
   493.7500      0.0000    681.5317      6.9539     82.3831
   494.0000      0.0000    681.3967      6.9055     82.4903
   494.2500      0.0000    681.3187      6.8293     81.9378
