~Version Information
VERS.                      2.0: CWLS Log ASCII Standard - VERSION 2.0
WRAP.                       NO: One line per depth step
~Well Information Block
STRT.FT               330.0000: 
STOP.FT              1876.2000: 
STEP.FT                 0.1000: 
NULL.                -999.2500: 
COMP.          Pioneer Natural Resources: COMPANY
WELL.          Cooper 11-13 Tr: WELL
FLD.           Purgatoire River: FIELD
LOC.           476' FNL & 738' FWL: LOCATION
STAT.                 Colorado: State
CNTY.               Las Animas: COUNTY
CTRY. USA : Country
SECT. 13 : Section
TOWN. 32S : Township
RANG. 67W : Range 
SRVC.                Patterson: SERVICE COMPANY
DATE.          Mon Sep 26 10:28:17 2005: LOG DATE
API.           05 071 08525 00: UNIQUE WELL ID
~Curve Information Block
DEPT.FT            0 000 00 00: Depth
DCAL.in                       : CDL Caliper
RHOB.g/cc                     : CDL Bulk Density
RHOC.g/cc                     : CDL Density Correction
DPOR.pu                       : CDL Density Porosity
NPOR.pu                       : Neutron Porosity
GR.GAPI                       : Gamma Ray
~Parameter Information Block
~A  Depth       DCAL        RHOB        RHOC        DPOR        NPOR         GR     
# ...
  1741.2000      7.8034      2.3848      0.1629     16.0732     26.9282     60.0597
  1741.3000      7.7785      2.4229      0.1935     13.7607     27.0830     60.3411
  1741.4000      7.7785      2.4395      0.1239     12.7592     27.2990     60.1654
  1741.5000      7.7694      2.4570      0.1112     11.6975     27.2107     60.4608
  1741.6000      7.7694      2.4979      0.1520      9.2183     26.5243     59.6258
  1741.7000      7.7694      2.5495      0.1765      6.0910     25.7252     57.4345
  1741.8000      7.7729      2.5916      0.1434      3.5413     25.4142     55.1793
  1741.9000      7.7729      2.6243      0.1815      1.5557     25.6069     53.7173
  1742.0000      7.7846      2.6522      0.1272     -0.1312     26.0816     52.4881
  1742.1000      7.7846      2.6670      0.1549     -1.0332     26.5119     49.5699
  1742.2000      7.7846      2.6556      0.0968     -0.3374     26.5241     46.6597
  1742.3000      7.8017      2.6196      0.0697      1.8444     26.0514     49.1832
  1742.4000      7.8017      2.5779      0.0678      4.3708     25.6308     56.4770
  1742.5000      7.8061      2.5521      0.0765      5.9321     25.8735     63.8719
  1742.6000      7.8061      2.5429      0.0662      6.4899     26.7113     73.8091
  1742.7000      7.8061      2.5326      0.0792      7.1140     27.7899     90.1746
  1742.8000      7.7975      2.5185      0.0397      7.9691     28.6898    109.8536
  1742.9000      7.7975      2.5174      0.0205      8.0380     28.9956    124.2602
  1743.0000      7.7992      2.5307      0.1048      7.2284     28.7386    127.4067
  1743.1000      7.7992      2.5428      0.0863      6.4954     28.2840    123.3648
  1743.2000      7.7992      2.5547      0.1086      5.7754     27.8009    119.8924
  1743.3000      7.8128      2.5727      0.1521      4.6869     27.1918    119.1581
  1743.4000      7.8128      2.5856      0.1811      3.9049     26.6591    118.7894
  1743.5000      7.8228      2.5800      0.1202      4.2439     26.5371    116.7781
  1743.6000      7.8228      2.5569      0.0916      5.6437     26.6010    114.6881
  1743.7000      7.8228      2.5302      0.0288      7.2626     26.4883    115.3413
  1743.8000      7.8275      2.5200      0.0272      7.8778     26.1898    118.1397
  1743.9000      7.8275      2.5356      0.0236      6.9337     25.8097    119.1221
  1744.0000      7.8168      2.5609      0.0850      5.4016     25.5431    115.2004
  1744.1000      7.8168      2.5743      0.0793      4.5874     25.3991    107.5947
  1744.2000      7.8168      2.5808      0.0796      4.1917     25.3127    102.2763
  1744.3000      7.7976      2.5946      0.1027      3.3552     25.2907    101.8770
  1744.4000      7.7976      2.6130      0.0831      2.2454     24.8875    102.3018
  1744.5000      7.7979      2.6267      0.0970      1.4091     24.0352    102.4477
  1744.6000      7.7979      2.6298      0.0854      1.2241     23.4417    104.4157
  1744.7000      7.7979      2.6208      0.0676      1.7687     23.4128    106.2843
  1744.8000      7.8278      2.6079      0.0788      2.5544     23.7868    105.9025
  1744.9000      7.8278      2.6031      0.0344      2.8440     24.5516    105.2797
  1745.0000      7.8682      2.6084      0.0447      2.5193     25.5455    104.6081
  1745.1000      7.8682      2.6136      0.0189      2.2041     26.3363    101.5756
  1745.2000      7.8682      2.6110      0.0671      2.3658     26.5981     99.7257
  1745.3000      7.8924      2.6011      0.0346      2.9631     26.3223    103.9726
  1745.4000      7.8924      2.5925      0.0133      3.4834     26.2457    109.0055
  1745.5000      7.8963      2.5899      0.0380      3.6395     26.9427    106.3549
  1745.6000      7.8963      2.5831      0.0652      4.0527     27.7730    100.9455
  1745.7000      7.8963      2.5622      0.0283      5.3202     28.1778    105.4459
  1745.8000      7.8921      2.5335     -0.0078      7.0580     28.5370    119.2044
  1745.9000      7.8921      2.5075     -0.0035      8.6344     29.0128    127.0181
  1746.0000      7.8876      2.4823      0.0115     10.1610     29.4453    123.4046
  1746.1000      7.8876      2.4507      0.0116     12.0777     29.9064    119.0398
  1746.2000      7.8876      2.4165     -0.0012     14.1512     30.6929    121.7489
  1746.3000      7.8847      2.3871     -0.0196     15.9309     31.9633    128.3436
  1746.4000      7.8847      2.3528      0.0048     18.0100     32.8005    130.1023
  1746.5000      7.8853      2.2937      0.0030     21.5915     32.3765    125.6499
  1746.6000      7.8853      2.2065     -0.0342     26.8790     31.6091    122.6983
  1746.7000      7.8853      2.1152     -0.0530     32.4146     31.5323    123.2355
  1746.8000      7.8943      2.0546     -0.0863     36.0828     31.9130    125.4212
  1746.9000      7.8943      2.0382     -0.0708     37.0790     32.2170    127.3415
  1747.0000      7.9045      2.0511     -0.0299     36.2952     32.3457    125.6182
  1747.1000      7.9045      2.0832     -0.0321     34.3515     32.4093    122.2144
  1747.2000      7.9045      2.1390      0.0513     30.9688     32.4168    123.2442
  1747.3000      7.8908      2.2115      0.1736     26.5746     32.4058    129.9741
  1747.4000      7.8908      2.2897      0.2268     21.8334     32.5712    136.6207
  1747.5000      7.8611      2.3713      0.3110     16.8892     32.7788    138.3392
  1747.6000      7.8611      2.4427      0.3574     12.5623     32.4656    135.3350
  1747.7000      7.8611      2.4929      0.2918      9.5208     31.8716    128.5342
  1747.8000      7.8549      2.5369      0.2296      6.8545     31.9532    120.3125
  1747.9000      7.8549      2.5851      0.2111      3.9305     32.4942    112.7611
  1748.0000      7.8698      2.6260      0.1791      1.4555     32.4512    105.3979
  1748.1000      7.8698      2.6610      0.1124     -0.6672     31.8630    101.7562
  1748.2000      7.8698      2.7109      0.1356     -3.6889     31.3338    104.4145
  1748.3000      7.8767      2.7773      0.1831     -7.7136     31.1413    107.2578
  1748.4000      7.8767      2.8298      0.2683    -10.8998     31.3577    106.5973
  1748.5000      7.8751      2.8410      0.2154    -11.5771     31.7769    105.2907
  1748.6000      7.8751      2.8167      0.1376    -10.1044     31.9856    103.5442
  1748.7000      7.8751      2.7762      0.0995     -7.6455     31.8310    100.6059
  1748.8000      7.8745      2.7332      0.0635     -5.0404     31.5884     98.0359
  1748.9000      7.8745      2.6982      0.0653     -2.9203     31.3829     98.2398
  1749.0000      7.8710      2.6770      0.0151     -1.6367     31.1617    102.4499
  1749.1000      7.8710      2.6646      0.0297     -0.8865     31.0645    105.7984
  1749.2000      7.8710      2.6467      0.0022      0.1974     30.9354    104.8955
  1749.3000      7.8697      2.6156     -0.0190      2.0824     30.6785    102.2271
  1749.4000      7.8697      2.5806     -0.0589      4.2075     30.6625     99.7831
  1749.5000      7.8735      2.5615     -0.0309      5.3640     30.7900    101.7485
  1749.6000      7.8735      2.5642      0.0420      5.2004     30.5552    108.5361
  1749.7000      7.8735      2.5733      0.0696      4.6485     30.1348    114.7058
  1749.8000      7.8744      2.5793      0.1038      4.2857     29.8605    120.1552
  1749.9000      7.8744      2.5930      0.0941      3.4535     29.4966    123.5394
  1750.0000      7.8706      2.6225      0.1476      1.6644     29.1641    121.4199
  1750.1000      7.8706      2.6556      0.1112     -0.3385     29.2595    117.8333
  1750.2000      7.8706      2.6829      0.1082     -1.9924     29.6353    114.2372
  1750.3000      7.8672      2.7077      0.1040     -3.4980     29.9150    110.2691
  1750.4000      7.8672      2.7317      0.1068     -4.9536     30.0023    107.6958
  1750.5000      7.8672      2.7509      0.0960     -6.1122     30.1135    104.8992
  1750.6000      7.8672      2.7608      0.0864     -6.7127     30.3347    103.6888
  1750.7000      7.8672      2.7573      0.0848     -6.5002     30.4032    104.4491
