~Version Information
VERS.                      2.0: CWLS Log ASCII Standard - VERSION 2.0
WRAP.                       NO: One line per depth step
~Well Information Block
STRT.FT               430.0000: 
STOP.FT              2074.0000: 
STEP.FT                 0.1000: 
NULL.                -999.2500: 
COMP.          Pioneer Natural Resources: COMPANY
WELL.             Fleming 11-2: WELL
FLD.           Purgatoire River: FIELD
LOC.           534' FNL & 160' FWL: LOCATION
CNTY.               Las Animas: COUNTY
SRVC.                Patterson: SERVICE COMPANY
DATE.          Tue Jun 27 10:07:47 2006: LOG DATE
UWI.           05 071 08491 00: UNIQUE WELL ID
STAT.                 Colorado: STATE
~Curve Information Block
DEPT.FT            0 000 00 00: Depth
DCAL.in                       : CDL Caliper
RHOB.g/cc                     : CDL Bulk Density
RHOC.g/cc                     : CDL Density Correction
DPOR.pu                       : CDL Density Porosity
GR.GAPI                       : Gamma Ray
NPOR.pu                       : Neutron Porosity
~Parameter Information Block
~A  Depth       DCAL        RHOB        RHOC        DPOR         GR         NPOR    
# ...
   977.2000      7.8476      2.7504     -0.0014     -6.0877     23.9874     21.1281
   977.3000      7.8391      2.7587      0.0634     -6.5876     24.0921     19.6851
   977.4000      7.8391      2.7389      0.0637     -5.3863     24.0366     18.5087
   977.5000      7.8342      2.6912     -0.0227     -2.4972     25.1299     17.3942
   977.6000      7.8342      2.6416     -0.0441      0.5081     26.3023     16.3335
   977.7000      7.8342      2.6013     -0.0451      2.9545     25.0201     15.4031
   977.8000      7.8335      2.5547     -0.0378      5.7768     22.9413     14.8520
   977.9000      7.8335      2.4771     -0.0263     10.4794     22.9111     14.8930
   978.0000      7.8423      2.3679     -0.1173     17.0994     24.7470     15.1733
   978.1000      7.8423      2.2608     -0.1264     23.5871     27.0480     15.1403
   978.2000      7.8423      2.1912     -0.1435     27.8082     28.2362     14.8446
   978.3000      7.8586      2.1670     -0.1008     29.2742     28.3915     14.8117
   978.4000      7.8586      2.1710     -0.0523     29.0292     29.6704     15.2860
   978.5000      7.8676      2.1852     -0.0483     28.1691     32.1918     15.8203
   978.6000      7.8676      2.2040      0.0283     27.0324     34.0370     16.4025
   978.7000      7.8676      2.2315      0.0327     25.3663     34.7197     17.3416
   978.8000      7.8668      2.2749      0.1412     22.7350     34.4669     18.1617
   978.9000      7.8668      2.3283      0.1915     19.4981     33.5889     19.1120
   979.0000      7.8673      2.3762      0.2290     16.5936     33.0377     20.3378
   979.1000      7.8673      2.4113      0.1589     14.4659     33.8496     20.5633
   979.2000      7.8673      2.4317      0.1790     13.2293     36.6449     19.7081
   979.3000      7.8736      2.4364      0.0829     12.9427     40.1508     18.8089
   979.4000      7.8736      2.4413      0.0834     12.6499     42.0435     18.2290
   979.5000      7.8903      2.4615      0.1136     11.4234     43.4957     18.1171
   979.6000      7.8903      2.4888      0.1369      9.7700     46.6825     18.7147
   979.7000      7.8903      2.5046      0.1789      8.8115     49.3481     19.9666
   979.8000      7.9070      2.5004      0.0894      9.0641     48.8957     21.0222
   979.9000      7.9070      2.4815      0.0757     10.2137     47.1387     21.1250
   980.0000      7.9051      2.4556      0.0503     11.7803     46.6410     21.0754
   980.1000      7.9051      2.4350     -0.0013     13.0279     48.0424     21.4786
   980.2000      7.9051      2.4288     -0.0275     13.4063     52.8784     22.0133
   980.3000      7.9005      2.4320     -0.0367     13.2140     59.8322     22.6211
   980.4000      7.9005      2.4409     -0.0099     12.6751     66.9388     23.2925
   980.5000      7.9052      2.4567      0.0275     11.7181     74.7055     23.9938
   980.6000      7.9052      2.4775      0.0217     10.4567     79.6708     24.7783
   980.7000      7.9052      2.5028      0.0609      8.9241     80.3152     25.3724
   980.8000      7.9160      2.5323      0.0575      7.1361     81.5378     25.4588
   980.9000      7.9160      2.5608      0.0942      5.4086     83.5242     25.2851
   981.0000      7.9293      2.5798      0.0864      4.2539     84.2469     25.2073
   981.1000      7.9293      2.5858      0.0633      3.8909     85.7526     25.4343
   981.2000      7.9293      2.5807      0.0893      4.1981     87.2185     26.1230
   981.3000      7.9402      2.5750      0.0520      4.5449     85.7141     26.7433
   981.4000      7.9402      2.5768      0.1124      4.4346     81.6791     26.4726
   981.5000      7.9477      2.5750      0.0710      4.5432     79.9514     25.5550
   981.6000      7.9477      2.5637      0.0608      5.2312     86.2581     24.7865
   981.7000      7.9477      2.5512      0.0175      5.9896     99.9982     24.3027
   981.8000      7.9562      2.5349      0.0456      6.9749    111.3592     23.7825
   981.9000      7.9562      2.5094      0.0181      8.5206    116.9646     23.1372
   982.0000      7.9626      2.4904     -0.0140      9.6705    121.5774     22.7230
   982.1000      7.9626      2.4885      0.0660      9.7874    122.2592     22.9926
   982.2000      7.9626      2.4930      0.0579      9.5163    116.1621     23.9818
   982.3000      7.9657      2.4970      0.0581      9.2755    110.7581     25.2898
   982.4000      7.9657      2.4994      0.0551      9.1266    112.3108     26.1894
   982.5000      7.9688      2.5035      0.0786      8.8811    116.8998     26.4473
   982.6000      7.9688      2.5108      0.1249      8.4378    117.8203     26.7789
   982.7000      7.9688      2.5129      0.1219      8.3106    115.1833     27.7038
   982.8000      7.9750      2.5023      0.0913      8.9494    113.2113     28.8098
   982.9000      7.9750      2.4868      0.0823      9.8921    115.7133     29.4513
   983.0000      7.9844      2.4863      0.1063      9.9236    120.1067     29.8137
   983.1000      7.9844      2.5157      0.0700      8.1416    122.4476     30.5255
   983.2000      7.9844      2.5735      0.0638      4.6368    125.1059     31.4985
   983.3000      7.9918      2.6424      0.1020      0.4584    127.4278     32.2746
   983.4000      7.9918      2.7057      0.1372     -3.3736    122.9757     32.5065
   983.5000      7.9954      2.7525      0.1245     -6.2147    112.2438     32.0589
   983.6000      7.9954      2.7742      0.1380     -7.5266    104.3960     31.3921
   983.7000      7.9954      2.7770      0.1310     -7.6943    102.2118     31.4438
   983.8000      8.0008      2.7822      0.0767     -8.0114     97.4320     32.1992
   983.9000      8.0008      2.7958      0.1329     -8.8357     86.9789     32.5262
   984.0000      8.0044      2.7909      0.1067     -8.5384     79.4325     32.0452
   984.1000      8.0044      2.7487     -0.0138     -5.9807     79.6136     31.4614
   984.2000      8.0044      2.6903     -0.0420     -2.4433     83.9413     31.0129
   984.3000      8.0078      2.6425     -0.0359      0.4519     90.1661     30.2992
   984.4000      8.0078      2.6104     -0.0318      2.4027     95.5902     29.5259
   984.5000      8.0110      2.5898      0.0020      3.6487     95.3161     29.0753
   984.6000      8.0110      2.5764      0.0641      4.4609     92.9279     28.7225
   984.7000      8.0110      2.5619      0.0436      5.3388     95.4448     28.2981
   984.8000      7.9938      2.5371      0.0391      6.8399    101.6257     28.2568
   984.9000      7.9938      2.5034      0.0206      8.8829    106.9315     28.7309
   985.0000      7.9695      2.4778      0.0235     10.4354    111.8114     29.0618
   985.1000      7.9695      2.4711      0.0208     10.8421    115.5879     28.9915
   985.2000      7.9695      2.4766      0.0263     10.5083    113.3953     28.8928
   985.3000      7.9665      2.4842      0.0478     10.0490    107.0823     28.7181
   985.4000      7.9665      2.4880      0.0323      9.8204    104.5427     28.1137
   985.5000      7.9813      2.4900      0.0402      9.6947    108.2742     27.2847
   985.6000      7.9813      2.4921      0.0291      9.5673    112.5776     27.2157
   985.7000      7.9813      2.4880      0.0428      9.8173    114.9263     28.2248
   985.8000      8.0004      2.4761      0.0456     10.5415    118.1560     29.1317
   985.9000      8.0004      2.4674      0.0074     11.0642    121.4437     28.7269
   986.0000      8.0199      2.4650      0.0512     11.2095    122.3727     27.4229
   986.1000      8.0199      2.4563      0.0308     11.7388    120.8274     26.1981
   986.2000      8.0199      2.4346      0.0644     13.0525    118.0819     25.6080
   986.3000      8.0372      2.4092     -0.0031     14.5918    118.0716     25.7541
   986.4000      8.0372      2.3967      0.0054     15.3538    124.0896     26.1621
   986.5000      8.0510      2.3948      0.0315     15.4668    131.4678     26.2336
   986.6000      8.0510      2.3940      0.0092     15.5161    132.3612     25.8547
   986.7000      8.0510      2.3994      0.0567     15.1881    126.3164     25.2503
