~Version Information
VERS.                      2.0: CWLS Log ASCII Standard - VERSION 2.0
WRAP.                       NO: One line per depth step
~Well Information Block
STRT.FT               625.0000: 
STOP.FT              2053.7500: 
STEP.FT                 0.2500: 
NULL.                -999.2500: 
COMP.          Pioneer Natural Resources: COMPANY
WELL.            Zink 44-10 Tr: WELL
FLD.           Purgatoire River: FIELD
LOC.           486' FSL & 554' FEL--: LOCATION
PROV.                 Colorado: PROVINCE
CNTY.               Las Animas: COUNTRY
SRVC.                Patterson: SERVICE COMPANY
DATE.          Sun Jul 24 06:18:01 2005: LOG DATE
UWI.           05 071 08446 00: UNIQUE WELL ID
~Curve Information Block
DEPT.FT            0 000 00 00: Depth
SN.Ohm-m                      : IEL Short Normal
SP.mV                         : IEL Spontaneous Potential
DIR.Ohm-m                     : IEL Induction Resistivity
GR.GAPI                       : Gamma Ray
~Parameter Information Block
~A  Depth        SN          SP         DIR          GR     
# ...
   893.0000   2000.0000   1979.0000     17.7292    108.4869
   893.2500   2000.0000   1979.0000     17.7919    105.6240
   893.5000   2000.0000   1979.0000     17.9367    103.0721
   893.7500   2000.0000   1979.0000     18.1660    102.5740
   894.0000   2000.0000   1979.0000     18.4793    103.4890
   894.2500   2000.0000   1979.0000     18.8680    105.1606
   894.5000   2000.0000   1979.0000     19.3118    108.8302
   894.7500   2000.0000   1979.0000     19.7808    111.3690
   895.0000   2000.0000   1979.0000     20.2442    113.7434
   895.2500   2000.0000   1979.0000     20.6836    113.7190
   895.5000   2000.0000   1979.0000     21.0994    111.1899
   895.7500   2000.0000   1979.0000     21.5052    108.2956
   896.0000   2000.0000   1979.0000     21.9175    103.2288
   896.2500   2000.0000   1979.0000     22.3519     99.9471
   896.5000   2000.0000   1979.0000     22.8259     95.8663
   896.7500   2000.0000   1979.0000     23.3582     93.9261
   897.0000   2000.0000   1979.0000     23.9562     92.3901
   897.2500   2000.0000   1979.0000     24.5965     92.3770
   897.5000   2000.0000   1979.0000     25.2169     93.8906
   897.7500   2000.0000   1979.0000     25.7345     95.7632
   898.0000   2000.0000   1979.0000     26.0879     99.3387
   898.2500   2000.0000   1979.0000     26.2729    101.8480
   898.5000   2000.0000   1979.0000     26.3431    105.0490
   898.7500   2000.0000   1979.0000     26.3745    106.3894
   899.0000   2000.0000   1979.0000     26.4272    106.8909
   899.2500   2000.0000   1979.0000     26.5273    106.3389
   899.5000   2000.0000   1979.0000     26.6722    104.5741
   899.7500   2000.0000   1979.0000     26.8392    102.9411
   900.0000   2000.0000   1979.0000     26.9888    100.1521
   900.2500   2000.0000   1979.0000     27.0638     98.3819
   900.5000   2000.0000   1979.0000     26.9956     96.3398
   900.7500   2000.0000   1979.0000     26.7239     95.5785
   901.0000   2000.0000   1979.0000     26.2194     95.8406
   901.2500   2000.0000   1979.0000     25.4935     97.3837
   901.5000   2000.0000   1979.0000     24.5910    102.1541
   901.7500   2000.0000   1979.0000     23.5735    106.7323
   902.0000   2000.0000   1979.0000     22.5016    114.5694
   902.2500   2000.0000   1979.0000     21.4233    119.5245
   902.5000   2000.0000   1979.0000     20.3687    124.8897
   902.7500   2000.0000   1979.0000     19.3587    126.4598
   903.0000   2000.0000   1979.0000     18.4163    125.9910
   903.2500   2000.0000   1979.0000     17.5724    124.4966
   903.5000   2000.0000   1979.0000     16.8577    121.6973
   903.7500   2000.0000   1979.0000     16.2927    119.8596
   904.0000   2000.0000   1979.0000     15.8827    117.4910
   904.2500   2000.0000   1979.0000     15.6218    116.3261
   904.5000   2000.0000   1979.0000     15.4995    115.3025
   904.7500   2000.0000   1979.0000     15.5038    114.9500
   905.0000   2000.0000   1979.0000     15.6190    114.2932
   905.2500   2000.0000   1979.0000     15.8222    113.3307
   905.5000   2000.0000   1979.0000     16.0813    110.6726
   905.7500   2000.0000   1979.0000     16.3588    108.2895
   906.0000   2000.0000   1979.0000     16.6212    104.9779
   906.2500   2000.0000   1979.0000     16.8516    103.7608
   906.5000   2000.0000   1979.0000     17.0534    104.0786
   906.7500   2000.0000   1979.0000     17.2416    105.5121
   907.0000   2000.0000   1979.0000     17.4249    108.7258
   907.2500   2000.0000   1979.0000     17.5928    111.1696
   907.5000   2000.0000   1979.0000     17.7175    114.4962
   907.7500   2000.0000   1979.0000     17.7695    115.9109
   908.0000   2000.0000   1979.0000     17.7371    116.2556
   908.2500   2000.0000   1979.0000     17.6347    115.5162
   908.5000   2000.0000   1979.0000     17.4951    113.8835
   908.7500   2000.0000   1979.0000     17.3537    112.8646
   909.0000   2000.0000   1979.0000     17.2371    111.6816
   909.2500   2000.0000   1979.0000     17.1607    111.1135
   909.5000   2000.0000   1979.0000     17.1327    110.3589
   909.7500   2000.0000   1979.0000     17.1581    109.5910
   910.0000   2000.0000   1979.0000     17.2387    107.4266
   910.2500   2000.0000   1979.0000     17.3715    105.2185
   910.5000   2000.0000   1979.0000     17.5488    101.2283
   910.7500   2000.0000   1979.0000     17.7645     98.5314
   911.0000   2000.0000   1979.0000     18.0188     94.8952
   911.2500   2000.0000   1979.0000     18.3183     92.8413
   911.5000   2000.0000   1979.0000     18.6699     90.4129
   911.7500   2000.0000   1979.0000     19.0737     89.2680
   912.0000   2000.0000   1979.0000     19.5238     88.1247
   912.2500   2000.0000   1979.0000     20.0154     87.6106
   912.5000   2000.0000   1979.0000     20.5556     87.1862
   912.7500   2000.0000   1979.0000     21.1639     87.1771
   913.0000   2000.0000   1979.0000     21.8614     87.2499
   913.2500   2000.0000   1979.0000     22.6557     86.8695
   913.5000   2000.0000   1979.0000     23.5343     84.9432
   913.7500   2000.0000   1979.0000     24.4737     82.8184
   914.0000   2000.0000   1979.0000     25.4548     79.3098
   914.2500   2000.0000   1979.0000     26.4730     77.4062
   914.5000   2000.0000   1979.0000     27.5345     75.8823
   914.7500   2000.0000   1979.0000     28.6444     75.7850
   915.0000   2000.0000   1979.0000     29.7973     76.3160
   915.2500   2000.0000   1979.0000     30.9768     76.3222
   915.5000   2000.0000   1979.0000     32.1587     74.7438
   915.7500   2000.0000   1979.0000     33.3103     72.8822
   916.0000   2000.0000   1979.0000     34.3769     70.7824
   916.2500   2000.0000   1979.0000     35.2653     70.9674
   916.5000   2000.0000   1979.0000     35.8405     74.0947
   916.7500   2000.0000   1979.0000     35.9585     77.4554
   917.0000   2000.0000   1979.0000     35.5301     82.8747
   917.2500   2000.0000   1979.0000     34.5818     86.2784
   917.5000   2000.0000   1979.0000     33.2618     91.5786
   917.7500   2000.0000   1979.0000     31.7871     95.9044
   918.0000   2000.0000   1979.0000     30.3691    103.9628
   918.2500   2000.0000   1979.0000     29.1602    109.7253
   918.5000   2000.0000   1979.0000     28.2346    116.6795
   918.7500   2000.0000   1979.0000     27.5982    118.8407
   919.0000   2000.0000   1979.0000     27.2116    117.2618
   919.2500   2000.0000   1979.0000     27.0183    113.2754
   919.5000   2000.0000   1979.0000     26.9685    104.2688
   919.7500   2000.0000   1979.0000     27.0329     97.0706
   920.0000   2000.0000   1979.0000     27.2023     85.7446
   920.2500   2000.0000   1979.0000     27.4734     78.6595
   920.5000   2000.0000   1979.0000     27.8242     70.2449
   920.7500   2000.0000   1979.0000     28.1898     66.7507
   921.0000   2000.0000   1979.0000     28.4549     64.8411
   921.2500   2000.0000   1979.0000     28.4746     65.4087
   921.5000   2000.0000   1979.0000     28.1287     68.3222
   921.7500   2000.0000   1979.0000     27.3864     71.6242
   922.0000   2000.0000   1979.0000     26.3337     79.1888
   922.2500   2000.0000   1979.0000     25.1305     86.0434
   922.5000   2000.0000   1979.0000     23.9316     97.6516
   922.7500   2000.0000   1979.0000     22.8344    104.8844
   923.0000   2000.0000   1979.0000     21.8766    113.4061
   923.2500   2000.0000   1979.0000     21.0613    117.4819
   923.5000   2000.0000   1979.0000     20.3790    121.3712
   923.7500   2000.0000   1979.0000     19.8155    122.1929
   924.0000   2000.0000   1979.0000     19.3514    120.3347
   924.2500   2000.0000   1979.0000     18.9647    117.4823
   924.5000   2000.0000   1979.0000     18.6376    112.6579
   924.7500   2000.0000   1979.0000     18.3654    110.2356
   925.0000   2000.0000   1979.0000     18.1574    109.0172
   925.2500   2000.0000   1979.0000     18.0266    109.8737
   925.5000   2000.0000   1979.0000     17.9731    112.6382
   925.7500   2000.0000   1979.0000     17.9730    114.5491
   926.0000   2000.0000   1979.0000     17.9793    116.3697
   926.2500   2000.0000   1979.0000     17.9391    116.7363
