~Version Information
 VERS.                                  2.0 : CWLS LAS VERSION
 WRAP.                                   NO : WRAPING MODE
 SWARE .                  MController 2.5.1 : SOFTWARE VERSION
~Well Information
 WELL.                    Sparrowhawk 22-12 : WELL
 COMP.  Pioneer Natural Resources USA, Inc. : COMPANY
 FLD.                      Purgatoire River : FIELD
 LOC.             SE/NE Sec. 12, T32S, R66W : LOCATION
 DATE.                03/22/2006-03/23/2006 : DATE(S) LOGGED
 SRVC.                  Entrada GeoSciences : SERVICE COMPANY
 STAT.                             Colorado : STATE
 CNTY.                           Las Animas : COUNTY
 CTRY.                        United States : COUNTRY
 API.                          05-071-08484 : API NUMBER
 STRT.FT                             533.00 : START DEPTH
 STOP.FT                            2380.00 : STOP DEPTH
 STEP.FT                               1.00 : DEPTH INCREMENT
 NULL.                                -9999 : NULL VALUE
~Curve information
 DEPTH.FT                                   :
 ROP.MIN/FT                                 :
 GAS.UNITS                                  :
~ASCII Log data
# ...
      933.00         0.17         13.8 
      934.00         0.27         15.5 
      935.00         0.20         16.5 
      936.00         0.17         17.5 
      937.00         0.23         18.9 
      938.00         0.30         21.1 
      939.00         0.17         30.4 
      940.00         0.27         62.4 
      941.00         0.32         94.6 
      942.00         0.30        103.4 
      943.00         0.27         96.5 
      944.00         0.30         81.0 
      945.00         0.17         72.1 
      946.00         0.20         61.7 
      947.00         0.10         57.1 
      948.00         0.17         50.9 
      949.00         0.20         45.2 
      950.00         0.23         38.9 
      951.00         0.20         35.3 
      952.00         0.23         31.0 
      953.00         0.23         27.4 
      954.00         0.27         24.8 
      955.00         0.10         23.5 
      956.00         0.27         13.2 
      957.00         0.25         13.3 
      958.00         0.23         11.8 
      959.00         0.20         11.3 
      960.00         0.20         11.6 
      961.00         0.20         11.4 
      962.00         0.20         12.2 
      963.00         0.17         13.0 
      964.00         0.20         14.0 
      965.00         0.20         15.1 
      966.00         0.20         18.5 
      967.00         0.20         26.9 
      968.00         0.20         36.0 
      969.00         0.23         42.2 
      970.00         0.20         46.2 
      971.00         0.23         47.5 
      972.00         0.30         44.9 
      973.00         0.35         40.8 
      974.00         0.27         36.4 
      975.00         0.23         32.1 
      976.00         0.20         29.5 
      977.00         0.23         25.9 
      978.00         0.20         23.3 
      979.00         0.23         21.2 
      980.00         0.20         19.2 
      981.00         0.27         17.2 
      982.00         0.20         16.0 
      983.00         0.17         15.4 
      984.00         0.23         14.4 
      985.00         0.20         13.8 
      986.00         0.27         11.5 
      987.00         0.27         11.9 
      988.00         0.17         11.4 
      989.00         0.17         11.8 
      990.00         0.13         11.2 
      991.00         0.20         10.9 
      992.00         0.13         11.3 
      993.00         0.23         11.5 
      994.00         0.23         11.7 
      995.00         0.17         11.3 
      996.00         0.25         10.1 
      997.00         0.33         10.7 
      998.00         0.27         11.0 
      999.00         0.10         11.1 
     1000.00         0.17         11.1 
     1001.00         0.13         13.9 
     1002.00         0.10         15.4 
     1003.00         0.27         20.8 
     1004.00         0.23         25.3 
     1005.00         0.23         28.4 
     1006.00         0.20         29.5 
     1007.00         0.23         29.1 
     1008.00         0.23         27.8 
     1009.00         0.17         27.7 
     1010.00         0.17         25.9 
     1011.00         0.20         24.7 
     1012.00         0.28         22.2 
     1013.00         0.27         19.5 
     1014.00         0.17         18.3 
     1015.00         0.23         15.8 
     1016.00         0.20         12.2 
     1017.00         0.27         11.0 
     1018.00         0.30         11.2 
     1019.00         0.27         11.7 
     1020.00         0.13         10.8 
     1021.00         0.35         10.9 
     1022.00         0.30         10.7 
     1023.00         0.23          9.8 
     1024.00         0.23          9.8 
     1025.00         0.20          8.9 
     1026.00         0.23          9.0 
     1027.00         0.23          9.8 
     1028.00         0.17         11.1 
     1029.00         0.20         15.1 
     1030.00         0.20         21.5 
     1031.00         0.27         28.6 
     1032.00         0.20         30.0 
     1033.00         0.17         29.6 
     1034.00         0.23         28.5 
     1035.00         0.28         25.9 
     1036.00         0.17         23.8 
     1037.00         0.13         21.9 
     1038.00         0.13         20.2 
     1039.00         0.17         18.6 
     1040.00         0.20         17.2 
     1041.00         0.17         15.6 
     1042.00         0.10         15.2 
     1043.00         0.17         14.5 
     1044.00         0.20         13.2 
     1045.00         0.23         12.7 
     1046.00         0.30         11.1 
     1047.00         0.30         10.6 
     1048.00         0.30         10.1 
     1049.00         0.30          9.6 
     1050.00         0.30          9.6 
     1051.00         0.27          9.2 
     1052.00         0.20          8.5 
     1053.00         0.20          8.7 
     1054.00         0.30         10.7 
     1055.00         0.30         16.0 
     1056.00         0.27         25.6 
     1057.00         0.32         32.9 
     1058.00         0.13         33.3 
     1059.00         0.33         32.2 
     1060.00         0.27         28.4 
     1061.00         0.23         24.3 
     1062.00         0.20         22.2 
     1063.00         0.23         19.5 
     1064.00         0.27         17.2 
     1065.00         0.40         14.3 
     1066.00         0.37         12.9 
     1067.00         0.27         12.5 
     1068.00         0.27         11.2 
     1069.00         0.32         10.5 
     1070.00         0.23         10.8 
     1071.00         0.20          9.4 
     1072.00         0.20         10.5 
     1073.00         0.17          9.9 
     1074.00         0.20         10.0 
     1075.00         0.20         10.5 
     1076.00         0.50          9.6 
     1077.00         0.33          9.0 
     1078.00         0.27          9.2 
     1079.00         0.30          8.5 
     1080.00         0.27          6.9 
     1081.00         0.20          7.4 
     1082.00         0.23          6.7 
     1083.00         0.13          5.8 
     1084.00         0.10          7.0 
     1085.00         0.23          9.0 
     1086.00         0.13         10.0 
     1087.00         0.20         11.3 
     1088.00         0.23         16.2 
     1089.00         0.22         25.2 
     1090.00         0.20         37.8 
     1091.00         0.23         46.1 
     1092.00         0.20         48.8 
     1093.00         0.23         47.4 
     1094.00         0.20         43.9 
     1095.00         0.23         38.8 
     1096.00         0.20         33.7 
     1097.00         0.23         28.5 
     1098.00         0.23         24.0 
     1099.00         0.23         20.1 
     1100.00         0.20         17.5 
     1101.00         0.20         16.0 
     1102.00         0.23         14.6 
     1103.00         0.17         14.0 
     1104.00         0.17         12.8 
     1105.00         0.15         13.3 
     1106.00         0.27          9.5 
     1107.00         0.33          8.5 
     1108.00         0.30          9.0 
     1109.00         0.32          7.9 
     1110.00         0.23          7.7 
     1111.00         0.23          7.8 
     1112.00         0.13          6.7 
     1113.00         0.13          6.9 
     1114.00         0.27          5.7 
     1115.00         0.23          8.9 
     1116.00         0.27         13.1 
     1117.00         0.27         20.7 
     1118.00         0.27         36.6 
     1119.00         0.40         51.5 
     1120.00         0.33         48.0 
     1121.00         0.23         42.5 
     1122.00         0.38         34.5 
     1123.00         0.30         27.6 
     1124.00         0.33         21.9 
     1125.00         0.30         17.7 
     1126.00         0.40         13.8 
     1127.00         0.23         12.8 
     1128.00         0.23         10.9 
     1129.00         0.20          9.9 
     1130.00         0.20          7.6 
     1131.00         0.23          6.6 
     1132.00         0.20          8.2 
