~Version Information
VERS.                      2.0: CWLS Log ASCII Standard - VERSION 2.0
WRAP.                       NO: One line per depth step
~Well Information Block
STRT.FT               490.0000: 
STOP.FT              2303.5000: 
STEP.FT                 0.1000: 
NULL.                -999.2500: 
COMP.          Pioneer Natural Resources: COMPANY
WELL.             Baa Baa 34-1: WELL
FLD.           Purgatoire River: FIELD
LOC.           617' FSL & 2289' FEL: LOCATION
STAT.                 Colorado: State
CNTY.               Las Animas: COUNTY
CTRY. USA : Country
SECT. 1 : Section
TOWN. 33S : Township
RANG. 67W : Range
SRVC.                Patterson: SERVICE COMPANY
DATE.          Thu Sep 08 09:44:32 2005: LOG DATE
API.           05 071 08502 00: UNIQUE WELL ID
~Curve Information Block
DEPT.FT            0 000 00 00: Depth
DCAL.in                       : CDL Caliper
RHOB.g/cc                     : CDL Bulk Density
RHOC.g/cc                     : CDL Density Correction
DPOR.pu                       : CDL Density Porosity
GR.GAPI                       : Gamma Ray
NPOR.pu                       : Neutron Porosity
~Parameter Information Block
~A  Depth       DCAL        RHOB        RHOC        DPOR         GR         NPOR    
# ...
  2170.0000      7.8705      2.5110      0.0898      8.4236     90.5693     18.0012
  2170.1000      7.8705      2.5282      0.1058      7.3846     89.1327     17.0470
  2170.2000      7.8705      2.5304      0.0909      7.2506     86.4387     17.0840
  2170.3000      7.8320      2.5169      0.1241      8.0644     85.9242     17.6985
  2170.4000      7.8320      2.5029      0.0432      8.9127     87.9051     18.0590
  2170.5000      7.8280      2.5002      0.0637      9.0797     91.5576     17.9671
  2170.6000      7.8280      2.4969      0.0322      9.2763     91.9641     17.4807
  2170.7000      7.8280      2.4893      0.0001      9.7373     85.5970     16.8535
  2170.8000      7.8607      2.4975      0.0013      9.2452     77.6672     16.4963
  2170.9000      7.8607      2.5235      0.0636      7.6651     73.6046     16.6344
  2171.0000      7.8769      2.5368      0.0827      6.8603     72.1631     17.0651
  2171.1000      7.8769      2.5220      0.0156      7.7583     71.0489     17.3507
  2171.2000      7.8769      2.5103     -0.0094      8.4662     72.2553     17.3543
  2171.3000      7.8964      2.5238      0.0372      7.6514     78.0373     17.0482
  2171.4000      7.8964      2.5366      0.0865      6.8701     85.7918     16.7512
  2171.5000      7.8908      2.5296      0.0634      7.2960     92.3521     16.6421
  2171.6000      7.8908      2.5206      0.0322      7.8446     93.7968     16.3409
  2171.7000      7.8908      2.5191      0.0701      7.9363     87.8463     16.1476
  2171.8000      7.8611      2.5144      0.0488      8.2167     80.0454     16.6357
  2171.9000      7.8611      2.5014      0.0258      9.0060     75.1650     17.4847
  2172.0000      7.8596      2.4804      0.0395     10.2758     73.0456     18.1926
  2172.1000      7.8596      2.4675     -0.0228     11.0610     75.7457     18.8516
  2172.2000      7.8596      2.4746      0.0741     10.6284     82.9086     19.6404
  2172.3000      7.8831      2.4773      0.0635     10.4690     88.5381     20.1549
  2172.4000      7.8831      2.4540      0.0564     11.8808     92.0602     20.1556
  2172.5000      7.9019      2.4221     -0.0185     13.8150     96.5848     19.8949
  2172.6000      7.9019      2.4090     -0.0004     14.6057    100.2712     19.5859
  2172.7000      7.9019      2.4155      0.0379     14.2120    102.2738     19.2708
  2172.8000      7.9132      2.4298      0.0092     13.3443    104.0177     19.0610
  2172.9000      7.9132      2.4503      0.0517     12.1036    104.7827     19.5301
  2173.0000      7.9322      2.4730      0.0615     10.7251    105.6423     20.8707
  2173.1000      7.9322      2.4897      0.0915      9.7177    106.6711     22.1427
  2173.2000      7.9322      2.4937      0.0661      9.4712    103.2887     22.1986
  2173.3000      7.8953      2.4891      0.0403      9.7519     97.3987     21.1682
  2173.4000      7.8953      2.4901      0.0585      9.6891     96.3858     20.2599
  2173.5000      7.8807      2.5072      0.0231      8.6542     97.7343     19.9421
  2173.6000      7.8807      2.5319      0.1003      7.1565     95.4885     19.6034
  2173.7000      7.8807      2.5324      0.1294      7.1260     95.0592     19.3423
  2173.8000      7.8715      2.4950      0.0821      9.3943    104.2946     19.7692
  2173.9000      7.8715      2.4483      0.0172     12.2213    115.1608     19.9606
  2174.0000      7.8607      2.4176      0.0482     14.0823    115.7732     18.9335
  2174.1000      7.8607      2.4066     -0.0164     14.7542    112.3327     17.7868
  2174.2000      7.8607      2.4169     -0.0119     14.1279    114.0668     17.5536
  2174.3000      7.8667      2.4349      0.0290     13.0371    116.0426     18.3013
  2174.4000      7.8667      2.4372      0.0249     12.8952    111.8762     19.9402
  2174.5000      7.8732      2.4263     -0.0038     13.5586    101.7761     21.7498
  2174.6000      7.8732      2.4180      0.0201     14.0607     90.3989     22.6584
  2174.7000      7.8732      2.4147      0.0340     14.2598     84.1266     22.8353
  2174.8000      7.8672      2.4231     -0.0161     13.7520     87.4332     22.7588
  2174.9000      7.8672      2.4485      0.0539     12.2151     97.0711     21.9217
  2175.0000      7.8703      2.4680      0.0727     11.0291    102.0710     20.0004
  2175.1000      7.8703      2.4644      0.0449     11.2507     98.6758     18.1564
  2175.2000      7.8703      2.4503      0.0606     12.1025     94.9826     17.8001
  2175.3000      7.8703      2.4429      0.0367     12.5493     94.9118     18.8638
  2175.4000      7.8703      2.4448      0.0566     12.4380     94.8415     20.1783
  2175.5000      7.8937      2.4470      0.0526     12.3041     91.8286     20.9780
  2175.6000      7.8937      2.4402      0.0189     12.7166     85.8056     21.2325
  2175.7000      7.8937      2.4211      0.0134     13.8711     80.2059     21.0331
  2175.8000      7.8766      2.3947      0.0124     15.4699     78.6924     20.5190
  2175.9000      7.8766      2.3758     -0.0159     16.6174     82.3675     19.8658
  2176.0000      7.8735      2.3729     -0.0119     16.7962     87.9922     19.2721
  2176.1000      7.8735      2.3770     -0.0242     16.5463     91.2481     19.0400
  2176.2000      7.8735      2.3802     -0.0097     16.3487     93.1597     19.4336
  2176.3000      7.8708      2.3855      0.0216     16.0305     94.1986     20.4059
  2176.4000      7.8708      2.4018      0.0323     15.0425     94.7327     21.5004
  2176.5000      7.8447      2.4240      0.0873     13.6958     98.2867     21.8797
  2176.6000      7.8447      2.4395      0.0230     12.7596    103.4182     21.2204
  2176.7000      7.8447      2.4580      0.0162     11.6337    105.0091     20.1523
  2176.8000      7.8376      2.4862      0.0675      9.9268    100.7384     19.3387
  2176.9000      7.8376      2.5082      0.1145      8.5923     92.1270     19.2364
  2177.0000      7.8334      2.5172      0.0754      8.0501     84.4419     19.9640
  2177.1000      7.8334      2.5193      0.1173      7.9194     81.7738     20.9223
  2177.2000      7.8334      2.5133      0.0988      8.2835     85.9195     21.3685
  2177.3000      7.8261      2.4972      0.0916      9.2606     95.2182     20.9353
  2177.4000      7.8261      2.4818      0.0452     10.1944    100.4929     20.0422
  2177.5000      7.8246      2.4759      0.0726     10.5507     95.4962     19.7679
  2177.6000      7.8246      2.4740      0.0564     10.6676     87.8968     20.1547
  2177.7000      7.8246      2.4754      0.0466     10.5842     83.6953     19.8018
  2177.8000      7.8415      2.4881      0.0260      9.8092     82.0323     18.4728
  2177.9000      7.8415      2.5137      0.0412      8.2591     84.4527     17.5472
  2178.0000      7.8497      2.5386      0.0828      6.7543     86.6380     17.4494
  2178.1000      7.8497      2.5458      0.0937      6.3136     84.3523     17.5175
  2178.2000      7.8497      2.5366      0.0741      6.8733     83.5378     17.4703
  2178.3000      7.8473      2.5249      0.0484      7.5800     88.9989     17.5589
  2178.4000      7.8473      2.5119      0.0715      8.3703     96.8353     17.7406
  2178.5000      7.8572      2.4891      0.0613      9.7521    100.6324     17.6051
  2178.6000      7.8572      2.4715     -0.0432     10.8176     98.7084     17.4212
  2178.7000      7.8572      2.4757      0.0320     10.5620     95.3601     17.3902
  2178.8000      7.8599      2.4877      0.0225      9.8352     95.5156     17.1294
  2178.9000      7.8599      2.4967      0.0089      9.2889     97.2123     16.9452
  2179.0000      7.8558      2.5068      0.0403      8.6781     96.9366     16.9185
  2179.1000      7.8558      2.5120      0.0129      8.3610     95.2470     16.5917
  2179.2000      7.8558      2.5093      0.0159      8.5265     92.4125     16.5272
  2179.3000      7.8584      2.5106      0.0397      8.4475     90.5097     17.4650
  2179.4000      7.8584      2.5186      0.0274      7.9624     92.7985     18.9631
  2179.5000      7.8573      2.5243      0.0397      7.6200     99.9257     20.2891
