~Version Information
VERS.                      2.0: CWLS Log ASCII Standard - VERSION 2.0
WRAP.                       NO: One line per depth step
~Well Information Block
STRT.FT                -7.5000: 
STOP.FT              1517.5000: 
STEP.FT                 0.2500: 
NULL.                -999.2500: 
COMP.          Pioneer Natural Resources: COMPANY
WELL.          McClaren 13-34 Tr: WELL
FLD.           Purgatorie River: FIELD
LOC.           1934' FSL & 826' WL--: LOCATION
PROV.                       CO: PROVINCE
CNTY.               Las Animas: COUNTRY
SRVC.          Patterson Wireline: SERVICE COMPANY
DATE.          Fri Jul 15 13:10:35 2005: LOG DATE
UWI.           05 071 08437 00: UNIQUE WELL ID
~Curve Information Block
DEPT.FT            0 000 00 00: Depth
CCL.                          : Casing Collar Locator
TT3.usec                      : CBL 3' Travel Time
AMP3.mV                       : CBL 3' Amplitude
GR.GAPI                       : Gamma Ray
~Parameter Information Block
~A  Depth       CCL         TT3         AMP3         GR     
# ...
   595.5000      0.0000    304.5246     19.1904     81.8012
   595.7500      0.0000    304.4884     19.2622     78.1542
   596.0000      0.0000    304.5591     19.1860     73.1346
   596.2500      0.0000    304.7222     18.9868     68.8115
   596.5000      0.0000    304.9321     18.7241     67.7179
   596.7500      0.0000    305.1318     18.4746     71.1261
   597.0000      0.0000    305.2792     18.3068     78.2598
   597.2500      0.0000    305.3608     18.2683     86.7751
   597.5000      0.0000    305.3855     18.3850     94.1402
   597.7500      0.0000    305.3774     18.6438     99.0581
   598.0000      0.0000    305.3716     18.9662    101.6399
   598.2500      0.0000    305.3998     19.2262    102.2632
   598.5000      0.0000    305.4693     19.3267    100.6554
   598.7500      0.0000    305.5568     19.2664     96.3105
   599.0000      0.0000    305.6268     19.1311     89.4950
   599.2500      0.0000    305.6552     19.0280     81.6121
   599.5000      0.0000    305.6387     19.0252     74.7509
   599.7500      0.0000    305.5895     19.1318     70.8610
   600.0000      0.0000    305.5251     19.3117     70.9824
   600.2500      0.0000    305.4591     19.5131     74.8105
   600.5000      0.0000    305.3979     19.6946     80.8889
   600.7500      0.0000    305.3413     19.8366     87.4789
   601.0000      0.0000    305.2858     19.9407     93.4267
   601.2500      0.0000    305.2277     20.0241     98.1855
   601.5000      0.0000    305.1673     20.1121    101.3173
   601.7500      0.0000    305.1098     20.2255    102.6201
   602.0000      0.0000    305.0606     20.3680    102.7014
   602.2500      0.0000    305.0218     20.5253    102.8279
   602.5000      0.0000    304.9923     20.6759    103.9032
   602.7500      0.0000    304.9729     20.8025    105.6870
   603.0000      0.0000    304.9670     20.8953    107.0678
   603.2500      0.0000    304.9776     20.9493    107.2191
   603.5000      0.0000    305.0075     20.9606    106.5518
   603.7500      0.0000    305.0592     20.9265    106.2381
   604.0000      0.0000    305.1315     20.8514    106.6772
   604.2500      0.0000    305.2155     20.7507    106.8238
   604.5000      0.0000    305.2971     20.6503    105.3961
   604.7500      0.0000    305.3611     20.5835    102.4801
   605.0000      0.0000    305.3937     20.5844     99.6489
   605.2500      0.0000    305.3868     20.6665     98.6383
   605.5000      0.0000    305.3484     20.7982    100.0786
   605.7500      0.0000    305.3022     20.9120    103.2085
   606.0000      0.0000    305.2697     20.9567    106.4134
   606.2500      0.0000    305.2517     20.9413    108.2417
   606.5000      0.0000    305.2332     20.9203    108.3331
   606.7500      0.0000    305.2032     20.9374    107.3990
   607.0000      0.0000    305.1663     20.9851    106.2346
   607.2500      0.0000    305.1359     21.0189    105.0291
   607.5000      0.0000    305.1193     21.0074    103.7390
   607.7500      0.0000    305.1102     20.9690    102.7583
   608.0000      0.0000    305.0922     20.9576    103.0481
   608.2500      0.0000    305.0497     21.0169    105.7933
   608.5000      0.0000    304.9799     21.1581    111.9110
   608.7500      0.0000    304.8944     21.3808    121.4623
   609.0000      0.0000    304.8090     21.6961    133.2050
   609.2500      0.0000    304.7371     22.1137    144.6459
   609.5000      0.0000    304.6960     22.6086    152.7316
   609.7500      0.0000    304.7088     23.1095    155.2041
   610.0000      0.0000    304.7852     23.5186    152.1263
   610.2500      0.0000    304.8979     23.7528    146.0887
   610.5000      0.0000    304.9896     23.7860    140.3399
   610.7500      0.0000    305.0174     23.6649    136.5454
   611.0000      0.0000    304.9863     23.4788    134.4068
   611.2500      0.0000    304.9362     23.3112    133.0681
   611.5000      0.0000    304.9012     23.2225    132.5656
   611.7500      0.0000    304.8884     23.2555    134.1598
   612.0000      0.0000    304.8885     23.4272    139.4611
   612.2500      0.0000    304.8924     23.7093    148.6640
   612.5000      0.0000    304.8988     24.0370    159.1764
   612.7500      0.0000    304.9093     24.3400    166.5271
   613.0000      0.0000    304.9204     24.5671    167.4906
   613.2500      0.0000    304.9233     24.6992    162.3772
   613.5000      0.0000    304.9124     24.7575    154.1516
   613.7500      0.0000    304.8943     24.7901    145.8052
   614.0000      0.0000    304.8797     24.8372    138.7688
   614.2500      0.0000    304.8694     24.9122    133.2229
   614.5000      0.0000    304.8556     25.0068    129.2189
   614.7500      0.0000    304.8404     25.0982    127.2521
   615.0000      0.0000    304.8389     25.1535    127.7783
   615.2500      0.0000    304.8558     25.1406    130.4918
   615.5000      0.0000    304.8738     25.0432    134.3401
   615.7500      0.0000    304.8730     24.8691    138.1732
   616.0000      0.0000    304.8566     24.6502    141.2153
   616.2500      0.0000    304.8486     24.4307    142.9510
   616.5000      0.0000    304.8757     24.2412    142.9350
   616.7500      0.0000    304.9538     24.0801    141.2715
   617.0000      0.0000    305.0772     23.9280    139.2934
   617.2500      0.0000    305.2096     23.7735    138.8129
   617.5000      0.0000    305.2997     23.6171    140.2077
   617.7500      0.0000    305.3546     23.4534    141.8651
   618.0000      0.0000    305.5586     23.2629    141.8604
   618.2500      0.0000    306.6647     23.0173    139.7464
   618.5000      0.0000    311.0937     22.6750    136.7593
   618.7500      0.0000    324.4487     22.1664    134.8920
   619.0000      0.0000    355.0887     21.3923    135.6065
   619.2500      0.0000    407.6565     20.2805    138.7555
   619.5000      0.0000    472.0172     18.9041    142.6877
   619.7500      0.0000    520.7242     17.5383    145.6728
   620.0000      0.0000    526.7379     16.5239    147.0169
   620.2500      0.0000    488.2444     16.0197    146.8978
   620.5000      0.0000    432.0885     15.9084    145.8530
   620.7500      2.0000    391.2702     15.9387    144.6497
   621.0000      0.0000    381.9036     15.9124    143.9598
   621.2500      0.0000    398.7972     15.7547    143.7240
   621.5000      0.0000    425.0852     15.5008    143.2851
   621.7500      0.0000    443.8304     15.2917    142.5365
   622.0000      0.0000    445.0421     15.3664    142.4251
   622.2500      0.0000    427.3504     15.9696    143.7120
   622.5000      0.0000    396.6394     17.1614    145.5649
   622.7500      0.0000    362.9121     18.6845    146.0291
   623.0000      0.0000    335.3358     20.0789    143.6870
   623.2500      0.0000    317.9173     20.9851    138.4522
   623.5000      0.0000    309.3124     21.3450    131.1916
   623.7500      0.0000    305.9515     21.3311    123.2332
   624.0000      0.0000    304.8911     21.1456    116.1357
   624.2500      0.0000    304.6119     20.9097    111.2765
   624.5000      0.0000    304.5739     20.6888    109.0512
   624.7500      0.0000    304.6230     20.5472    108.3784
   625.0000      0.0000    304.6816     20.5488    107.3517
   625.2500      0.0000    304.6858     20.7213    104.8750
   625.5000      0.0000    304.6043     21.0345    101.9214
   625.7500      0.0000    304.4556     21.4138    100.9435
   626.0000      0.0000    304.2964     21.7705    103.5536
   626.2500      0.0000    304.1891     22.0250    108.7657
   626.5000      0.0000    304.1697     22.1187    113.9497
   626.7500      0.0000    304.2358     22.0259    117.5207
   627.0000      0.0000    304.3506     21.7720    120.1962
   627.2500      0.0000    304.4594     21.4358    123.6016
   627.5000      0.0000    304.5139     21.1223    128.2390
   627.7500      0.0000    304.4974     20.9211    133.0998
   628.0000      0.0000    304.4262     20.8798    136.7200
   628.2500      0.0000    304.3299     21.0008    138.1972
   628.5000      0.0000    304.2371     21.2477    137.6124
   628.7500      0.0000    304.1765     21.5508    135.9204
