~Version Information
VERS.                      2.0: CWLS Log ASCII Standard - VERSION 2.0
WRAP.                       NO: One line per depth step
~Well Information Block
STRT.FT                -6.7500: 
STOP.FT              1121.2500: 
STEP.FT                 0.2500: 
NULL.                -999.2500: 
COMP.          Pioneer Natural Resources: COMPANY
WELL.              Draco 31-21: WELL
FLD.           Purgatorie River: FIELD
LOC.           491' FNL & 2446' FEL--: LOCATION
CNTY.               Las Animas: COUNTY
SRVC.          Patterson Wireline: SERVICE COMPANY
DATE.          Mon Feb 06 09:50:04 2006: LOG DATE
UWI.           05 071 08672 00: UNIQUE WELL ID
STAT.                       CO: STATE
~Curve Information Block
DEPT.FT            0 000 00 00: Depth
CCL.                          : Casing Collar Locator
TT3.usec                      : CBL 3' Travel Time
AMP3.mV                       : CBL 3' Amplitude
GR.GAPI                       : Gamma Ray
~Parameter Information Block
~A  Depth       CCL         TT3         AMP3         GR     
# ...
   127.2500      0.0000    611.1637      9.9452     68.3152
   127.5000      0.0000    559.3025     10.5355     68.7253
   127.7500      0.0000    537.3260     11.0116     69.2791
   128.0000      0.0000    556.8818     11.2395     69.5190
   128.2500      0.0000    606.8658     11.2457     69.9439
   128.5000      0.0000    663.2290     11.1632     71.3257
   128.7500      0.0000    706.3712     11.1089     73.4109
   129.0000      0.0000    728.1750     11.1265     74.8466
   129.2500      0.0000    727.5170     11.2097     74.5793
   129.5000      0.0000    706.5668     11.3390     72.9869
   129.7500      0.0000    673.5386     11.4925     71.3538
   130.0000      0.0000    644.4382     11.6366     70.4590
   130.2500      0.0000    636.9957     11.7105     70.1764
   130.5000      0.0000    660.8571     11.6386     70.4455
   130.7500      0.0000    712.3762     11.3873     71.8636
   131.0000      0.0000    777.7473     11.0110     74.8279
   131.2500      0.0000    841.6656     10.6212     78.5978
   131.5000      0.0000    894.3434     10.3070     81.7088
   131.7500      0.0000    931.4882     10.0976     82.9130
   132.0000      0.0000    949.4055      9.9907     81.4648
   132.2500      0.0000    943.0535      9.9854     77.2094
   132.5000      0.0000    911.1794     10.0775     70.9200
   132.7500      0.0000    862.0935     10.2358     64.1450
   133.0000      0.0000    810.6771     10.3978     58.3269
   133.2500      0.0000    768.2919     10.4998     54.0530
   133.5000      0.0000    736.7419     10.5155     51.0540
   133.7500      0.0000    712.5307     10.4662     48.6701
   134.0000      0.0000    694.9825     10.3925     46.3566
   134.2500      0.0000    687.8719     10.3185     44.0148
   134.5000      0.0000    693.3001     10.2437     42.0309
   134.7500      0.0000    706.8664     10.1606     41.0515
   135.0000      0.0000    720.7815     10.0677     41.6533
   135.2500      0.0000    730.0735      9.9617     43.9519
   135.5000      0.0000    734.4823      9.8288     47.2757
   135.7500      0.0000    735.9946      9.6454     50.3790
   136.0000      0.0000    736.3054      9.3860     52.3719
   136.2500      0.0000    736.0754      9.0317     53.5328
   136.5000      0.0000    735.2263      8.5817     54.9829
   136.7500      0.0000    733.7362      8.0777     57.5682
   137.0000      0.0000    733.2242      7.6243     61.2546
   137.2500      0.0000    738.8107      7.3483     65.4132
   137.5000      0.0000    758.5115      7.2836     69.2759
   137.7500      0.0000    796.8192      7.3117     72.2626
   138.0000      0.0000    845.6758      7.2754     74.3253
   138.2500      0.0000    884.7034      7.1376     75.8981
   138.5000      0.0000    896.5742      6.9816     77.3162
   138.7500      0.0000    882.5605      6.8902     78.7232
   139.0000     -2.0000    858.3279      6.8848     80.7384
   139.2500      0.0000    835.3827      6.9626     84.3387
   139.5000      0.0000    811.6595      7.1537     89.5511
   139.7500      0.0000    779.4465      7.5342     95.0347
   140.0000      0.0000    737.8848      8.1591     99.4697
   140.2500      0.0000    697.4713      8.9448    102.6536
   140.5000      0.0000    673.4991      9.6524    104.7512
   140.7500      0.0000    673.5215     10.0709    105.2998
   141.0000      0.0000    690.9193     10.2047    103.7249
   141.2500      0.0000    711.7960     10.2263    100.4261
   141.5000      0.0000    726.4678     10.2894     96.6082
   141.7500      0.0000    733.2453     10.4406     93.1353
   142.0000      0.0000    734.6349     10.6554     90.0334
   142.2500      0.0000    733.4197     10.8839     87.0949
   142.5000      0.0000    731.7312     11.0712     84.5046
   142.7500      0.0000    731.2131     11.1809     82.8235
   143.0000      0.0000    732.6605     11.2138     82.6519
   143.2500      0.0000    735.9218     11.1992     84.2481
   143.5000      0.0000    740.6585     11.1741     87.2896
   143.7500      0.0000    746.9798     11.1691     91.0653
   144.0000      0.0000    754.7738     11.2044     94.8695
   144.2500      0.0000    762.6221     11.2842     97.9610
   144.5000      0.0000    768.0020     11.3858     99.3967
   144.7500      0.0000    768.9487     11.4552     98.5996
   145.0000      0.0000    765.7032     11.4326     96.1280
   145.2500      0.0000    760.8250     11.3026     93.4007
   145.5000      0.0000    757.3895     11.1231     91.4394
   145.7500      0.0000    756.4971     10.9878     90.0795
   146.0000      0.0000    756.4439     10.9529     88.6083
   146.2500      0.0000    754.3657     11.0018     86.9884
   146.5000      0.0000    748.4271     11.0721     86.1290
   146.7500      0.0000    738.0492     11.1074     86.9778
   147.0000      0.0000    723.3638     11.0875     89.5422
   147.2500      0.0000    706.8649     11.0253     92.8102
   147.5000      0.0000    695.3906     10.9397     95.5226
   147.7500      0.0000    696.4476     10.8314     96.9958
   148.0000      0.0000    710.1487     10.6899     97.2822
   148.2500      0.0000    727.5973     10.5214     96.6734
   148.5000      0.0000    739.4230     10.3533     95.3029
   148.7500      0.0000    743.6233     10.2059     93.4205
   149.0000      0.0000    744.1609     10.0783     91.7997
   149.2500      0.0000    745.0494      9.9663     91.3266
   149.5000      0.0000    747.4750      9.8789     92.0762
   149.7500      0.0000    751.0409      9.8289     93.2159
   150.0000      0.0000    755.8687      9.8184     93.8003
   150.2500      0.0000    762.4441      9.8337     93.2200
   150.5000      0.0000    769.3890      9.8455     91.1656
   150.7500      0.0000    772.8082      9.8157     87.9136
   151.0000      0.0000    769.5668      9.7200     84.7247
   151.2500      0.0000    760.7554      9.5647     83.3379
   151.5000      0.0000    750.7518      9.3782     84.7249
   151.7500      0.0000    743.2947      9.1932     88.3262
   152.0000      0.0000    739.3130      9.0391     92.3644
   152.2500      0.0000    737.8025      8.9409     94.8537
   152.5000      0.0000    737.4725      8.9129     94.7281
   152.7500      0.0000    737.4852      8.9554     92.5103
   153.0000      0.0000    737.4398      9.0556     89.9140
   153.2500      0.0000    737.2262      9.1826     88.4609
   153.5000      0.0000    736.8988      9.2846     88.2728
   153.7500      0.0000    736.5643      9.3112     88.2544
   154.0000      0.0000    736.2929      9.2541     87.4035
   154.2500      0.0000    736.0990      9.1600     85.6677
   154.5000      0.0000    735.9683      9.0969     83.5730
   154.7500      0.0000    735.8796      9.1046     81.5676
   155.0000      0.0000    735.8151      9.1762     80.0915
   155.2500      0.0000    735.7435      9.2765     79.8026
   155.5000      0.0000    735.5552      9.3714     81.1683
   155.7500      0.0000    734.9712      9.4465     83.9112
   156.0000      0.0000    733.5948      9.5013     87.0351
   156.2500      0.0000    731.2721      9.5280     89.2606
   156.5000      0.0000    728.4723      9.5007     89.6419
   156.7500      0.0000    726.0721      9.3957     88.2780
   157.0000      0.0000    724.6276      9.2241     86.3295
   157.2500      0.0000    724.0540      9.0345     84.8563
   157.5000      0.0000    724.0110      8.8794     83.7505
   157.7500      0.0000    724.3094      8.7847     82.1876
   158.0000      0.0000    725.0159      8.7529     79.9462
   158.2500      0.0000    726.3384      8.7848     77.9029
   158.5000      0.0000    728.1232      8.8831     77.3062
   158.7500      0.0000    729.4997      9.0324     78.6673
   159.0000      0.0000    729.5706      9.1906     81.2622
   159.2500      0.0000    728.4959      9.3149     83.5201
   159.5000      0.0000    727.3416      9.3952     83.7620
   159.7500      0.0000    726.7537      9.4510     80.8238
   160.0000      0.0000    726.3521      9.5023     74.6261
   160.2500      0.0000    725.3862      9.5550     66.4702
   160.5000      0.0000    722.7803      9.6114     58.5069
