~Version Information
VERS.                      2.0: CWLS Log ASCII Standard - VERSION 2.0
WRAP.                       NO: One line per depth step
~Well Information Block
STRT.FT                -0.5000: 
STOP.FT              1417.0000: 
STEP.FT                 0.2500: 
NULL.                -999.2500: 
COMP.          Pioneer Natural Resources: COMPANY
WELL.              Darren 11-7: WELL
FLD.           Purgatoire River: FIELD
LOC.           230' FNL & 596' FWL: LOCATION
CNTY.               Las Animas: COUNTY
SRVC.                Patterson: SERVICE COMPANY
DATE.          Thu Mar 30 10:43:52 2006: LOG DATE
UWI.           05 071 08720 00: UNIQUE WELL ID
STAT.                 Colorado: STATE
~Curve Information Block
DEPT.FT            0 000 00 00: Depth
GR.GAPI                       : Gamma Ray
CCL.                          : Casing Collar Locator
TT3.usec                      : CBL 3' Travel Time
AMP3.mV                       : CBL 3' Amplitude
~Parameter Information Block
~A  Depth        GR         CCL         TT3         AMP3    
# ...
   468.5000    138.8210      0.0000    756.0883     11.0172
   468.7500    136.1535      0.0000    755.2086     11.0181
   469.0000    131.5177      0.0000    754.5314     10.9369
   469.2500    125.9003      0.0000    754.5740     10.7972
   469.5000    120.6391      0.0000    754.0687     10.6316
   469.7500    116.7639      0.0000    751.0014     10.4632
   470.0000    114.7383      0.0000    744.8220     10.3006
   470.2500    114.4975      0.0000    737.5402     10.1419
   470.5000    115.3991      0.0000    732.6583      9.9857
   470.7500    116.4117      0.0000    732.8574      9.8398
   471.0000    116.9177      0.0000    738.2618      9.7246
   471.2500    117.2932      0.0000    746.4935      9.6658
   471.5000    118.3160      0.0000    754.3232      9.6768
   471.7500    120.0717      0.0000    759.4970      9.7426
   472.0000    121.6934      0.0000    761.2573      9.8259
   472.2500    122.2670      0.0000    759.6331      9.8935
   472.5000    121.8083      0.0000    754.9310      9.9334
   472.7500    121.0398      0.0000    748.2739      9.9448
   473.0000    120.2560      0.0000    742.1925      9.9185
   473.2500    118.9380      0.0000    739.6736      9.8368
   473.5000    116.7026      0.0000    741.9536      9.6935
   473.7500    114.1205      0.0000    747.2737      9.5142
   474.0000    112.3600      0.0000    752.1623      9.3544
   474.2500    112.3739      0.0000    754.1526      9.2675
   474.5000    114.4839      0.0000    753.5423      9.2562
   474.7500    118.1236      0.0000    752.9219      9.2508
   475.0000    121.7199      0.0000    755.0118      9.1485
   475.2500    123.2657      0.0000    760.4129      8.8880
   475.5000    121.2830      0.0000    767.0289      8.4865
   475.7500    115.2575      0.0000    771.9043      8.0115
   476.0000    105.6254      0.0000    773.8295      7.5312
   476.2500     93.7464      0.0000    773.8571      7.0996
   476.5000     81.4585      0.0000    773.3329      6.7638
   476.7500     70.3044      0.0000    772.2587      6.5551
   477.0000     61.2465      0.0000    769.8227      6.4667
   477.2500     54.8445      0.0000    765.7702      6.4575
   477.5000     51.3054      0.0000    760.9017      6.4899
   477.7500     50.4862      0.0000    756.7311      6.5648
   478.0000     52.1229      0.0000    754.7834      6.7173
   478.2500     55.9765      0.0000    755.6125      6.9804
   478.5000     61.7768      0.0000    758.3334      7.3561
   478.7500     69.2331      0.0000    761.3742      7.8171
   479.0000     77.9970      0.0000    763.6318      8.3267
   479.2500     87.2215      0.0000    764.8304      8.8514
   479.5000     95.3083      0.0000    765.1267      9.3608
   479.7500    100.7236      0.0000    764.6896      9.8193
   480.0000    103.3448      0.0000    763.4902     10.1814
   480.2500    104.7447      0.0000    761.3070     10.4050
   480.5000    106.8521      0.0000    758.0432     10.4762
   480.7500    110.1760      0.0000    754.0756     10.4168
   481.0000    113.2189      0.0000    749.9620     10.2634
   481.2500    113.5787      0.0000    745.7640     10.0486
   481.5000    109.8286      0.0000    741.2881      9.8031
   481.7500    102.6864      0.0000    737.2425      9.5622
   482.0000     94.4731      0.0000    735.1940      9.3563
   482.2500     87.3890      0.0000    735.6142      9.2003
   482.5000     82.4216      0.0000    736.6075      9.0955
   482.7500     79.7225      0.0000    735.5383      9.0366
   483.0000     79.1966      0.0000    731.7988      9.0133
   483.2500     80.2251      0.0000    727.3737      9.0136
   483.5000     81.5039      0.0000    724.7755      9.0323
   483.7500     82.0118      0.0000    724.7805      9.0726
   484.0000     81.9121      0.0000    725.8607      9.1244
   484.2500     81.9773      0.0000    725.3762      9.1388
   484.5000     82.4691      0.0000    721.7325      9.0366
   484.7500     83.1901      0.0000    716.2403      8.7700
   485.0000     84.4102      0.0000    713.0793      8.3964
   485.2500     86.9560      0.0000    716.4628      8.0655
   485.5000     91.1029      0.0000    726.6876      7.8884
   485.7500     95.7644      0.0000    739.2733      7.8299
   486.0000     99.1159      0.0000    748.9188      7.7795
   486.2500    100.0520      0.0000    753.9748      7.6993
   486.5000     98.9921      0.0000    756.4809      7.6364
   486.7500     97.3642      2.7960    758.8947      7.6203
   487.0000     96.5660      3.0000    761.7374      7.6181
   487.2500     97.3830      3.0000    763.7334      7.5863
   487.5000     99.7848      0.0000    763.4108      7.5348
   487.7500    102.8756      0.0000    760.5474      7.5385
   488.0000    105.2379      0.0000    756.1636      7.6830
   488.2500    105.6120      0.0000    751.3450      7.9811
   488.5000    103.4166      0.0000    746.5146      8.3525
   488.7500     99.1017      0.0000    741.6287      8.7030
   489.0000     94.3383      0.0000    736.5524      9.0001
   489.2500     91.3396      0.0000    731.3735      9.2554
   489.5000     91.2508      0.0000    726.6306      9.4688
   489.7500     93.2732      0.0000    723.0337      9.6167
   490.0000     95.6631      0.0000    720.8659      9.6741
   490.2500     97.2368      0.0000    719.8312      9.6317
   490.5000     97.6333      0.0000    719.4009      9.5036
   490.7500     96.7455      0.0000    719.1691      9.3258
   491.0000     94.5683      0.0000    718.9520      9.1460
   491.2500     91.4595      0.0000    718.7218      9.0046
   491.5000     88.1096      0.0000    718.5055      8.9222
   491.7500     85.2201      0.0000    718.3351      8.8985
   492.0000     83.2902      0.0000    718.2545      8.9233
   492.2500     82.5083      0.0000    718.2958      8.9852
   492.5000     82.6728      0.0000    718.4297      9.0682
   492.7500     83.3548      0.0000    718.5643      9.1464
   493.0000     84.2924      0.0000    718.6174      9.1905
   493.2500     85.8071      0.0000    718.5846      9.1895
   493.5000     89.0180      0.0000    718.5309      9.1631
   493.7500     95.4755      0.0000    718.5269      9.1415
   494.0000    106.0194      0.0000    718.5987      9.1316
   494.2500    119.5570      0.0000    718.7304      9.1142
   494.5000    132.9423      0.0000    718.8911      9.0733
   494.7500    142.4678      0.0000    719.0480      9.0222
   495.0000    146.1709      0.0000    719.1679      8.9989
   495.2500    145.1143      0.0000    719.2284      9.0407
   495.5000    142.2270      0.0000    719.2291      9.1654
   495.7500    139.7975      0.0000    719.1904      9.3638
   496.0000    138.3819      0.0000    719.1454      9.6002
   496.2500    137.8244      0.0000    719.1302      9.8234
   496.5000    138.2590      0.0000    719.1705      9.9895
   496.7500    139.7020      0.0000    719.2709     10.0812
   497.0000    141.3365      0.0000    719.4143     10.1093
   497.2500    141.8444      0.0000    719.5756     10.0995
   497.5000    140.4980      0.0000    719.7409     10.0785
   497.7500    137.8833      0.0000    719.9156     10.0656
   498.0000    135.4667      0.0000    720.1102     10.0707
   498.2500    134.1425      0.0000    720.3217     10.0942
   498.5000    133.2254      0.0000    720.5330     10.1252
   498.7500    131.3649      0.0000    720.7274     10.1433
   499.0000    128.5282      0.0000    720.8958     10.1309
   499.2500    126.4542      0.0000    721.0358     10.0872
   499.5000    126.8604      0.0000    721.1463     10.0248
   499.7500    129.6190      0.0000    721.2159      9.9517
   500.0000    132.8825      0.0000    721.2172      9.8627
   500.2500    134.6366      0.0000    721.1223      9.7509
   500.5000    133.9861      0.0000    720.9294      9.6247
   500.7500    131.4267      0.0000    720.6640      9.5088
   501.0000    128.2399      0.0000    720.3581      9.4243
   501.2500    125.5214      0.0000    720.0391      9.3700
   501.5000    123.6043      0.0000    719.7296      9.3236
   501.7500    122.3872      0.0000    719.4389      9.2650
