~Version Information
VERS.                      2.0: CWLS Log ASCII Standard - VERSION 2.0
WRAP.                       NO: One line per depth step
~Well Information Block
STRT.FT                -8.7500: 
STOP.FT              2331.5000: 
STEP.FT                 0.2500: 
NULL.                -999.2500: 
COMP.          Pioneer Natural Resources: COMPANY
WELL.          Sparrowhawk 22-12: WELL
FLD.           Purgatorie River: FIELD
LOC.           2049' FNL & 2060' FWL--: LOCATION
CNTY.               Las Animas: COUNTY
SRVC.          Patterson Wireline: SERVICE COMPANY
DATE.          Wed Apr 12 08:53:41 2006: LOG DATE
UWI.           05 071 08484 00: UNIQUE WELL ID
STAT.                       CO: STATE
~Curve Information Block
DEPT.FT            0 000 00 00: Depth
CCL.                          : Casing Collar Locator
TT3.usec                      : CBL 3' Travel Time
AMP3.mV                       : CBL 3' Amplitude
GR.GAPI                       : Gamma Ray
~Parameter Information Block
MAXAMPL.mV              0.0000: Maximum Amplitude
~A  Depth       CCL         TT3         AMP3         GR     
# ...
   594.2500      0.0000    264.3875     82.4523     81.9705
   594.5000      0.0000    264.3752     82.3780     80.9380
   594.7500      0.0000    264.3580     82.3008     82.7407
   595.0000      0.0000    264.3448     82.2448     87.3910
   595.2500      0.0000    264.3421     82.2232     92.7755
   595.5000      0.0000    264.3491     82.2237     96.2650
   595.7500      0.0000    264.3593     82.2206     97.0534
   596.0000      0.0000    264.3659     82.1908     96.3039
   596.2500      0.0000    264.3671     82.1228     95.2728
   596.5000      0.0000    264.3656     82.0318     94.1155
   596.7500      0.0000    264.3654     81.9686     92.4684
   597.0000      0.0000    264.3683     81.9863     90.4202
   597.2500      0.0000    264.3730     82.0815     88.5553
   597.5000      0.0000    264.3758     82.1871     87.3188
   597.7500      0.0000    264.3727     82.2446     86.6167
   598.0000      0.0000    264.3618     82.2659     86.0132
   598.2500      0.0000    264.3460     82.3040     85.1702
   598.5000      0.0000    264.3326     82.3839     84.1143
   598.7500      0.0000    264.3288     82.4873     83.2608
   599.0000      0.0000    264.3360     82.5871     83.2338
   599.2500      0.0000    264.3497     82.6624     84.4097
   599.5000      0.0000    264.3653     82.6914     86.3829
   599.7500      0.0000    264.3825     82.6648     87.9525
   600.0000      0.0000    264.4020     82.6072     87.8921
   600.2500      0.0000    264.4193     82.5640     85.9057
   600.5000      0.0000    264.4267     82.5632     82.7286
   600.7500      0.0000    264.4209     82.6003     79.2945
   601.0000      0.0000    264.4071     82.6546     76.0481
   601.2500      0.0000    264.3942     82.7077     73.1452
   601.5000      0.0000    264.3870     82.7451     71.0816
   601.7500      0.0000    264.3846     82.7517     70.9961
   602.0000      0.0000    264.3852     82.7174     74.2482
   602.2500      0.0000    264.3891     82.6538     81.4087
   602.5000      0.0000    264.3967     82.5964     91.4828
   602.7500      0.0000    264.4056     82.5745    102.2462
   603.0000      0.0000    264.4117     82.5880    111.6356
   603.2500      0.0000    264.4135     82.6346    118.8726
   603.5000      0.0000    264.4120     82.7392    124.0908
   603.7500      0.0000    264.4090     82.9197    127.0936
   604.0000      0.0000    264.4051     83.1272    126.9985
   604.2500      0.0000    264.4013     83.2592    123.1488
   604.5000      0.0000    264.3995     83.2518    116.0620
   604.7500      0.0000    264.4020     83.1391    107.3713
   605.0000      0.0000    264.4101     83.0075     98.9559
   605.2500      0.0000    264.4229     82.9115     92.1158
   605.5000      0.0000    264.4369     82.8511     87.3536
   605.7500      0.0000    264.4469     82.8160     84.6579
   606.0000      0.0000    264.4481     82.8246     83.8476
   606.2500      0.0000    264.4399     82.9059     84.6498
   606.5000      0.0000    264.4264     83.0578     86.6230
   606.7500      0.0000    264.4135     83.2365     89.2449
   607.0000      0.0000    264.4044     83.3869     92.4283
   607.2500      0.0000    264.4001     83.4690     97.0187
   607.5000      0.0000    264.4023     83.4589    104.3519
   607.7500      0.0000    264.4116     83.3483    114.7922
   608.0000      0.0000    264.4249     83.1592    126.8332
   608.2500      0.0000    264.4357     82.9447    138.1375
   608.5000      0.0000    264.4395     82.7579    147.3557
   608.7500      0.0000    264.4362     82.6136    154.5793
   609.0000      0.0000    264.4293     82.4881    160.5769
   609.2500      0.0000    264.4223     82.3567    166.1790
   609.5000      0.0000    264.4167     82.2217    171.7821
   609.7500      0.0000    264.4104     82.1056    176.7648
   610.0000      0.0000    264.3990     82.0318    179.7894
   610.2500      0.0000    264.3804     82.0163    180.0815
   610.5000      0.0000    264.3595     82.0640    178.2434
   610.7500      0.0000    264.3463     82.1569    175.9494
   611.0000      0.0000    264.3464     82.2534    175.1070
   611.2500      0.0000    264.3561     82.3118    176.6867
   611.5000      0.0000    264.3676     82.3161    179.6474
   611.7500      0.0000    264.3785     82.2855    181.0720
   612.0000      0.0000    264.3912     82.2740    177.9040
   612.2500      0.0000    264.4044     82.3528    169.1967
   612.5000      0.0000    264.4116     82.5599    157.3051
   612.7500      0.0000    264.4076     82.8546    146.8763
   613.0000      0.0000    264.3960     83.1369    141.8137
   613.2500      0.0000    264.3853     83.3205    142.5204
   613.5000      0.0000    264.3815     83.3831    146.1052
   613.7500      0.0000    264.3837     83.3577    149.2182
   614.0000      0.0000    264.3869     83.2962    150.6479
   614.2500      0.0000    264.3864     83.2495    151.5853
   614.5000      0.0000    264.3812     83.2563    153.6911
   614.7500      0.0000    264.3733     83.3162    156.8815
   615.0000      0.0000    264.3665     83.3772    159.3948
   615.2500      0.0000    264.3633     83.3717    160.3468
   615.5000      0.0000    264.3643     83.2684    161.3802
   615.7500      0.0000    264.3692     83.0882    164.7517
   616.0000      0.0000    264.3780     82.8763    170.1267
   616.2500      0.0000    264.3899     82.6701    174.3276
   616.5000      0.0000    264.4020     82.4913    174.5384
   616.7500      0.0000    264.4097     82.3579    171.0680
   617.0000      0.0000    264.4109     82.2966    166.2467
   617.2500      0.0000    264.4099     82.3322    161.1245
   617.5000      0.0000    264.4131     82.4582    154.5958
   617.7500      0.0000    264.4214     82.6197    146.0002
   618.0000      0.0000    264.4292     82.7307    137.2704
   618.2500      0.0000    264.4326     82.7183    131.5644
   618.5000      0.0000    264.4345     82.5661    130.4151
   618.7500      0.0000    264.4398     82.3279    132.8671
   619.0000      0.0000    264.4467     82.0904    136.8275
   619.2500      0.0000    264.4481     81.9098    140.4447
   619.5000      0.0000    264.4398     81.7790    142.6113
   619.7500      0.0000    264.4258     81.6600    143.2321
   620.0000      0.0000    264.4120     81.5412    143.5292
   620.2500      0.0000    264.3987     81.4522    145.5263
   620.5000      0.0000    264.3824     81.4281    150.1410
   620.7500      0.0000    264.3632     81.4655    155.3770
   621.0000      0.0000    264.3475     81.5172    157.1531
   621.2500      0.0000    264.3409     81.5281    152.7578
   621.5000      0.0000    264.3420     81.4739    143.4681
   621.7500      0.0000    264.3428     81.3683    133.5857
   622.0000      0.0000    264.3372     81.2457    127.2295
   622.2500      0.0000    264.3267     81.1451    126.0470
   622.5000      0.0000    264.3183     81.0919    129.0614
   622.7500      0.0000    264.3178     81.0805    133.7019
   623.0000      0.0000    264.3256     81.0796    137.0462
   623.2500      0.0000    264.3376     81.0610    137.0308
   623.5000      0.0000    264.3463     81.0142    133.2888
   623.7500      0.0000    264.3444     80.9218    126.9283
   624.0000      0.0000    264.3353     80.6829    119.4457
   624.2500      0.0000    264.3470     80.0173    112.0614
   624.5000      0.0000    264.4470     78.4387    106.0362
   624.7500      0.0000    264.7461     75.4879    102.8196
   625.0000      0.0000    265.3702     71.2128    103.2428
   625.2500      0.0000    266.3821     66.4023    106.8289
   625.5000      0.0000    267.6951     62.1038    112.4392
   625.7500      0.0000    269.0686     58.8709    119.4139
   626.0000      0.0000    270.2258     56.6419    127.3888
   626.2500      0.0000    271.0080     55.1932    134.9838
   626.5000      0.0000    271.4278     54.3946    139.8415
   626.7500      0.0000    271.5970     54.1133    140.8243
   627.0000     -2.0000    271.6262     54.1772    139.4771
   627.2500      2.0000    271.5775     54.4834    138.2782
   627.5000      0.0000    271.4588     55.1161    137.8016
