~Version Information
VERS.                      2.0: CWLS Log ASCII Standard - VERSION 2.0
WRAP.                       NO: One line per depth step
~Well Information Block
STRT.FT                -8.0000: 
STOP.FT              2135.0000: 
STEP.FT                 0.2500: 
NULL.                -999.2500: 
COMP.          Pioneer Natural Resources: COMPANY
WELL.             AMX 13-13 Tr: WELL
FLD.           Purgatorie River: FIELD
LOC.           2401' FSL & 895' FWL--: LOCATION
PROV.                       CO: PROVINCE
CNTY.               Las Animas: COUNTRY
SRVC.          Patterson Wireline: SERVICE COMPANY
DATE.          Thu Jan 05 10:37:28 2006: LOG DATE
UWI.           05 071 08631 00: UNIQUE WELL ID
~Curve Information Block
DEPT.FT            0 000 00 00: Depth
CCL.                          : Casing Collar Locator
TT3.usec                      : CBL 3' Travel Time
AMP3.mV                       : CBL 3' Amplitude
GR.GAPI                       : Gamma Ray
~Parameter Information Block
~A  Depth       CCL         TT3         AMP3         GR     
# ...
  1533.0000      0.0000    726.5499      6.3847    128.7690
  1533.2500      0.0000    727.0067      6.4978    128.6601
  1533.5000      0.0000    726.9638      6.5936    128.5696
  1533.7500      0.0000    726.7745      6.6641    130.3043
  1534.0000      0.0000    726.5612      6.7060    134.2303
  1534.2500      0.0000    726.3804      6.7196    138.8835
  1534.5000      0.0000    726.2366      6.7130    142.0464
  1534.7500      0.0000    726.0428      6.6964    141.9008
  1535.0000      0.0000    725.6985      6.6742    138.0085
  1535.2500      0.0000    725.2314      6.6422    131.9795
  1535.5000      0.0000    724.8121      6.5920    126.6640
  1535.7500      0.0000    724.6200      6.5176    123.9475
  1536.0000      0.0000    724.7413      6.4221    123.3955
  1536.2500      0.0000    725.2253      6.3173    123.1520
  1536.5000      0.0000    726.3000      6.2132    121.8504
  1536.7500      0.0000    728.5736      6.1103    119.7314
  1537.0000      0.0000    732.9115      6.0057    118.3339
  1537.2500      0.0000    739.7593      5.9059    119.1256
  1537.5000      0.0000    748.1957      5.8251    122.1420
  1537.7500      0.0000    755.5579      5.7720    125.8590
  1538.0000      0.0000    758.6307      5.7409    128.4003
  1538.2500      0.0000    756.2111      5.7205    128.9802
  1538.5000      0.0000    750.6895      5.7031    128.4491
  1538.7500      0.0000    746.4228      5.6824    128.5145
  1539.0000      0.0000    746.5248      5.6489    130.2083
  1539.2500      0.0000    751.6625      5.5993    132.8859
  1539.5000      0.0000    760.9011      5.5517    134.6834
  1539.7500      0.0000    772.2085      5.5428    134.1422
  1540.0000      0.0000    782.7705      5.6060    131.4751
  1540.2500      0.0000    790.3593      5.7508    128.0263
  1540.5000      0.0000    794.6089      5.9587    124.5391
  1540.7500      0.0000    796.6667      6.1957    120.6606
  1541.0000      0.0000    797.9524      6.4264    116.2243
  1541.2500      0.0000    799.4504      6.6235    111.9654
  1541.5000      0.0000    801.7218      6.7719    108.5621
  1541.7500      0.0000    804.9263      6.8702    105.8616
  1542.0000      0.0000    808.3743      6.9283    103.5033
  1542.2500      0.0000    809.9096      6.9586    101.6189
  1542.5000      0.0000    806.3810      6.9701    100.5611
  1542.7500      0.0000    795.9422      6.9695    100.4388
  1543.0000      0.0000    780.3496      6.9615    101.1655
  1543.2500      0.0000    764.4345      6.9429    102.6119
  1543.5000      0.0000    752.8770      6.9001    104.4566
  1543.7500      0.0000    747.4436      6.8175    105.9756
  1544.0000      0.0000    746.6406      6.6910    106.3030
  1544.2500      0.0000    747.1891      6.5339    105.2341
  1544.5000      0.0000    746.1164      6.3708    103.7162
  1544.7500      0.0000    742.3317      6.2236    103.0522
  1545.0000      0.0000    736.7676      6.1021    103.3793
  1545.2500      0.0000    731.2520      6.0059    103.3954
  1545.5000      0.0000    727.1849      5.9300    101.9133
  1545.7500      0.0000    724.9080      5.8675     99.0795
  1546.0000      0.0000    723.9132      5.8098     95.6428
  1546.2500      0.0000    723.4485      5.7477     91.7341
  1546.5000      0.0000    723.0553      5.6719     87.2967
  1546.7500      0.0000    722.7368      5.5737     83.5108
  1547.0000      0.0000    722.6344      5.4530     82.7191
  1547.2500      0.0000    722.6104      5.3255     86.3030
  1547.5000      0.0000    722.4137      5.2172     92.8374
  1547.7500      0.0000    722.4039      5.1449     98.8232
  1548.0000      0.0000    723.5464      5.1034    101.5254
  1548.2500      0.0000    726.0082      5.0715    101.0395
  1548.5000      0.0000    727.9929      5.0296     99.6009
  1548.7500      0.0000    727.0706      4.9711     99.3545
  1549.0000      0.0000    723.2484      4.9047    100.9955
  1549.2500      0.0000    720.0862      4.8512    103.8184
  1549.5000      0.0000    722.0699      4.8345    106.2951
  1549.7500      0.0000    730.9866      4.8649    106.8860
  1550.0000      0.0000    744.5811      4.9308    105.0881
  1550.2500      0.0000    757.9368      5.0074    101.9491
  1550.5000      0.0000    766.5865      5.0765     99.2757
  1550.7500      0.0000    769.7037      5.1367     98.0817
  1551.0000      0.0000    770.7458      5.1996     97.8263
  1551.2500      0.0000    774.4593      5.2812     97.3928
  1551.5000      0.0000    782.8510      5.3935     96.6094
  1551.7500      0.0000    793.6837      5.5377     96.3370
  1552.0000      0.0000    802.2369      5.7019     97.2492
  1552.2500      0.0000    804.3381      5.8662     99.0332
  1552.5000      0.0000    798.2778      6.0084    100.7591
  1552.7500      0.0000    784.7280      6.1096    101.9015
  1553.0000      0.0000    765.8613      6.1608    103.0907
  1553.2500      0.0000    744.9460      6.1693    105.7336
  1553.5000      0.0000    725.9065      6.1579    110.5354
  1553.7500      0.0000    712.0894      6.1493    116.2250
  1554.0000      0.0000    704.9896      6.1522    119.8517
  1554.2500      0.0000    704.0797      6.1608    118.6088
  1554.5000      0.0000    707.5074      6.1660    111.8689
  1554.7500      0.0000    712.8000      6.1639    101.9174
  1555.0000      0.0000    717.3678      6.1543     92.5706
  1555.2500      0.0000    719.1497      6.1359     86.6217
  1555.5000      0.0000    717.4349      6.1063     84.3604
  1555.7500      0.0000    713.5452      6.0632     84.3646
  1556.0000      0.0000    710.8491      6.0056     85.3353
  1556.2500      0.0000    713.4788      5.9360     86.9704
  1556.5000      0.0000    723.8981      5.8620     89.4914
  1556.7500      0.0000    741.0625      5.7898     92.9931
  1557.0000      0.0000    760.8859      5.7155     97.3129
  1557.2500      0.0000    778.0693      5.6297    102.0980
  1557.5000      0.0000    787.7350      5.5332    106.8653
  1557.7500      0.0000    787.3716      5.4471    111.0376
  1558.0000      0.0000    779.1419      5.4016    113.6415
  1558.2500      0.0000    769.8096      5.4102    112.9156
  1558.5000      0.0000    766.3706      5.4584    107.0134
  1558.7500      0.0000    770.7888      5.5175     95.9465
  1559.0000      0.0000    779.4128      5.5720     82.7429
  1559.2500      0.0000    787.2713      5.6313     72.1295
  1559.5000      0.0000    791.9675      5.7169     67.6127
  1559.7500      0.0000    793.8252      5.8383     69.4964
  1560.0000      0.0000    793.8215      5.9826     75.3618
  1560.2500      0.0000    792.0280      6.1245     82.0485
  1560.5000      0.0000    787.5761      6.2451     87.1905
  1560.7500      0.0000    779.9822      6.3374     89.6882
  1561.0000      0.0000    770.6784      6.3987     89.6936
  1561.2500      0.0000    762.6489      6.4241     88.3431
  1561.5000      0.0000    757.5675      6.4099     87.0722
  1561.7500      0.0000    753.4852      6.3569     86.8092
  1562.0000      0.0000    746.4697      6.2688     87.6269
  1562.2500      0.0000    734.9559      6.1520     88.8864
  1562.5000      0.0000    721.9134      6.0214     89.5319
  1562.7500      0.0000    712.2089      5.8992     88.6197
  1563.0000      0.0000    708.0933      5.8042     86.1191
  1563.2500      0.0000    708.0350      5.7456     83.2489
  1563.5000      0.0000    709.8899      5.7245     81.6510
  1563.7500      0.0000    713.9755      5.7354     82.1067
  1564.0000      0.0000    722.0223      5.7685     84.1946
  1564.2500      0.0000    733.4559      5.8147     87.0739
  1564.5000      0.0000    744.0855      5.8679     90.0495
  1564.7500      0.0000    749.6854      5.9197     92.2865
  1565.0000      0.0000    750.3507      5.9552     92.8257
  1565.2500      0.0000    749.7249      5.9616     91.6642
  1565.5000      0.0000    750.0783      5.9385     90.6700
  1565.7500      0.0000    749.7531      5.8979     92.5955
  1566.0000      0.0000    745.1638      5.8535     98.6532
  1566.2500      0.0000    733.3378      5.8145    107.2979
