~Version Information
VERS.                      2.0: CWLS Log ASCII Standard - VERSION 2.0
WRAP.                       NO: One line per depth step
~Well Information Block
STRT.FT               309.8000: 
STOP.FT              2184.7000: 
STEP.FT                 0.1000: 
NULL.                -999.2500: 
COMP.          Pioneer Natural Resources: COMPANY
WELL.             AMX 13-13 Tr: WELL
FLD.           Purgatoire River: FIELD
LOC.           2401' FSL & 895' FWL--: LOCATION
PROV.                 Colorado: PROVINCE
CNTY.               Las Animas: COUNTRY
SRVC.                Patterson: SERVICE COMPANY
DATE.          Thu Dec 22 15:57:57 2005: LOG DATE
UWI.           05 071 08631 00: UNIQUE WELL ID
~Curve Information Block
DEPT.FT            0 000 00 00: Depth
DCAL.in                       : CDL Caliper
RHOB.g/cc                     : CDL Bulk Density
RHOC.g/cc                     : CDL Density Correction
DPOR.pu                       : CDL Density Porosity
GR.GAPI                       : Gamma Ray
~Parameter Information Block
~A  Depth       DCAL        RHOB        RHOC        DPOR         GR     
# ...
   690.6000      8.1713      2.5819      0.0616      4.1249    102.5710
   690.7000      8.1713      2.5927     -0.0055      3.4724     98.9454
   690.8000      8.1726      2.6194      0.0097      1.8523     91.4846
   690.9000      8.1726      2.6507      0.0573     -0.0407     86.3301
   691.0000      8.1757      2.6627      0.0495     -0.7718     88.1602
   691.1000      8.1757      2.6462      0.0744      0.2316     96.1852
   691.2000      8.1757      2.6110     -0.0328      2.3646    103.3796
   691.3000      8.1776      2.5814     -0.0031      4.1565    105.1733
   691.4000      8.1776      2.5664      0.0047      5.0640    103.6638
   691.5000      8.1772      2.5540      0.0101      5.8168    101.0863
   691.6000      8.1772      2.5344     -0.0320      7.0058     99.4549
   691.7000      8.1772      2.5096     -0.0078      8.5104     99.4391
   691.8000      8.1768      2.4891     -0.0616      9.7497     98.0355
   691.9000      8.1768      2.4808     -0.0338     10.2519     94.8060
   692.0000      8.1762      2.4813     -0.0354     10.2271     93.6748
   692.1000      8.1762      2.4865     -0.0417      9.9106     94.1321
   692.2000      8.1762      2.4923      0.0409      9.5590     93.4346
   692.3000      8.1733      2.4969     -0.0066      9.2796     93.8282
   692.4000      8.1733      2.5095      0.0133      8.5159     96.7163
   692.5000      8.1657      2.5266      0.0455      7.4775     97.4668
   692.6000      8.1657      2.5280      0.0624      7.3911     92.8621
   692.7000      8.1657      2.5083      0.0463      8.5877     88.6336
   692.8000      8.1552      2.4863      0.0508      9.9221     92.0249
   692.9000      8.1552      2.4861      0.0364      9.9359     99.4875
   693.0000      8.1518      2.5128      0.0624      8.3140    102.8360
   693.1000      8.1518      2.5402      0.1297      6.6568     99.9013
   693.2000      8.1518      2.5349      0.0845      6.9757     95.6540
   693.3000      8.1589      2.4941      0.0391      9.4508     96.8401
   693.4000      8.1589      2.4412     -0.0141     12.6533    102.7857
   693.5000      8.1678      2.4041      0.0006     14.9036    107.7100
   693.6000      8.1678      2.4075     -0.0098     14.6966    109.7062
   693.7000      8.1678      2.4546      0.0783     11.8402    112.3912
   693.8000      8.1712      2.5133      0.1115      8.2861    116.7577
   693.9000      8.1712      2.5480      0.1395      6.1795    118.1382
   694.0000      8.1711      2.5519      0.1259      5.9435    116.3684
   694.1000      8.1711      2.5398      0.1018      6.6760    115.0999
   694.2000      8.1711      2.5263      0.0629      7.4948    112.8171
   694.3000      8.1702      2.5206      0.0692      7.8425    108.2683
   694.4000      8.1702      2.5351      0.0176      6.9612    106.2149
   694.5000      8.1686      2.5725      0.0650      4.6980    107.9018
   694.6000      8.1686      2.6120      0.0923      2.3003    110.5715
   694.7000      8.1686      2.6394      0.0871      0.6441    112.4008
   694.8000      8.1699      2.6492      0.1152      0.0478    110.4934
   694.9000      8.1699      2.6345      0.0807      0.9364    101.3206
   695.0000      8.1754      2.6064      0.0206      2.6434     89.7764
   695.1000      8.1754      2.5860      0.0291      3.8808     83.5825
   695.2000      8.1754      2.5781      0.0595      4.3570     80.7531
   695.3000      8.1834      2.5739      0.0758      4.6122     78.0364
   695.4000      8.1834      2.5657      0.0503      5.1076     77.1814
   695.5000      8.1936      2.5517      0.0407      5.9570     77.6423
   695.6000      8.1936      2.5346      0.0264      6.9964     79.4003
   695.7000      8.1936      2.5183      0.0535      7.9847     85.4379
   695.8000      8.2029      2.5062      0.0371      8.7158     91.8239
   695.9000      8.2029      2.5030      0.0241      8.9076     92.1295
   696.0000      8.2130      2.5074      0.0142      8.6412     89.3809
   696.1000      8.2130      2.5087      0.0461      8.5613     89.6958
   696.2000      8.2130      2.5052     -0.0076      8.7738     91.5638
   696.3000      8.2216      2.5082      0.0135      8.5929     91.2469
   696.4000      8.2216      2.5145      0.0105      8.2128     89.9484
   696.5000      8.2258      2.5173      0.0018      8.0399     90.6750
   696.6000      8.2258      2.5250      0.0147      7.5755     93.5718
   696.7000      8.2258      2.5445      0.0561      6.3955     97.0756
   696.8000      8.2272      2.5627      0.0975      5.2932    101.0204
   696.9000      8.2272      2.5575      0.0675      5.6077    104.9709
   697.0000      8.2275      2.5338      0.0397      7.0403    105.9431
   697.1000      8.2275      2.5161      0.0207      8.1138    101.8359
   697.2000      8.2275      2.5118      0.0642      8.3772     94.3061
   697.3000      8.2281      2.5119      0.0440      8.3710     87.9775
   697.4000      8.2281      2.5179      0.0016      8.0058     84.6769
   697.5000      8.2278      2.5280      0.0735      7.3958     80.9513
   697.6000      8.2278      2.5251      0.0634      7.5700     74.1285
   697.7000      8.2278      2.5076      0.0535      8.6309     67.7462
   697.8000      8.2254      2.4954      0.0179      9.3719     66.6429
   697.9000      8.2254      2.5028      0.0777      8.9188     70.5263
   698.0000      8.2226      2.5219      0.0988      7.7659     73.4570
   698.1000      8.2226      2.5388      0.0974      6.7407     70.6910
   698.2000      8.2226      2.5466      0.0890      6.2688     65.5210
   698.3000      8.2224      2.5410      0.0914      6.6063     63.4544
   698.4000      8.2224      2.5267      0.0433      7.4753     64.7031
   698.5000      8.2246      2.5148      0.0145      8.1947     66.7925
   698.6000      8.2246      2.5099      0.0646      8.4922     69.4931
   698.7000      8.2246      2.5137      0.0560      8.2588     72.4897
   698.8000      8.2264      2.5305      0.0516      7.2441     72.8405
   698.9000      8.2264      2.5501      0.1091      6.0516     70.4025
   699.0000      8.2270      2.5539      0.0724      5.8227     67.1482
   699.1000      8.2270      2.5437      0.0338      6.4443     62.3484
   699.2000      8.2270      2.5306      0.0617      7.2354     56.7878
   699.3000      8.2261      2.5097      0.0913      8.5050     55.8844
   699.4000      8.2261      2.4816      0.0384     10.2063     59.4984
   699.5000      8.2250      2.4538      0.0669     11.8900     59.9728
   699.6000      8.2250      2.4272      0.0133     13.5040     56.7782
   699.7000      8.2250      2.4202     -0.0377     13.9286     55.8192
   699.8000      8.2251      2.4492      0.0395     12.1709     57.2043
   699.9000      8.2251      2.4897      0.0893      9.7153     58.5575
   700.0000      8.2266      2.5065      0.0947      8.6993     61.5891
   700.1000      8.2266      2.4998      0.0471      9.1017     66.6190
   700.2000      8.2266      2.4916      0.1021      9.5973     66.6347
   700.3000      8.2295      2.4878      0.1068      9.8292     58.6350
   700.4000      8.2295      2.4855      0.1072      9.9715     50.9500
   700.5000      8.2314      2.4877      0.0865      9.8340     48.9432
   700.6000      8.2314      2.4889      0.1140      9.7617     49.0697
   700.7000      8.2314      2.4764      0.0830     10.5238     49.8468
   700.8000      8.2313      2.4566     -0.0147     11.7216     52.8184
   700.9000      8.2313      2.4424      0.0372     12.5809     55.7240
   701.0000      8.2304      2.4275      0.0190     13.4871     55.2696
   701.1000      8.2304      2.4100     -0.0253     14.5465     53.0305
   701.2000      8.2304      2.4022      0.0040     15.0189     52.4282
   701.3000      8.2296      2.4099      0.0026     14.5520     54.6908
   701.4000      8.2296      2.4266      0.0472     13.5413     57.0789
   701.5000      8.2294      2.4352      0.0516     13.0209     54.3976
   701.6000      8.2294      2.4269      0.0516     13.5194     47.5025
   701.7000      8.2294      2.4131      0.0422     14.3563     44.3219
