~Version Information
VERS.                      2.0: CWLS Log ASCII Standard - VERSION 2.0
WRAP.                       NO: One line per depth step
~Well Information Block
STRT.FT                -8.7500: 
STOP.FT              1727.2500: 
STEP.FT                 0.2500: 
NULL.                -999.2500: 
COMP.          XTO Energy Inc.: COMPANY
WELL.          Apache Canyon 34-08: WELL
FLD.              Vermejo Coal: FIELD
LOC.           1668' FNL & 275' FEL: LOCATION
STAT.                       CO: State
CNTY.               Las Animas: COUNTY
CTRY. USA : Country
SECT. 34 : Section
TOWN. 33S : Township
RANG. 67W : Range
SRVC.          Patterson Wireline: SERVICE COMPANY
DATE.          Mon Jan 09 09:34:21 2006: LOG DATE
API.           05 071 08541 00: UNIQUE WELL ID
~Curve Information Block
DEPT.FT            0 000 00 00: Depth
CCL.                          : Casing Collar Locator
TT3.usec                      : CBL 3' Travel Time
AMP3.mV                       : CBL 3' Amplitude
GR.GAPI                       : Gamma Ray
~Parameter Information Block
~A  Depth       CCL         TT3         AMP3         GR     
# ...
   661.2500      0.0000    669.2443      4.9394    116.4339
   661.5000      0.0000    651.1118      4.9399    118.2673
   661.7500      0.0000    637.6556      4.9401    117.5085
   662.0000      0.0000    636.6520      4.9353    115.7419
   662.2500      0.0000    647.9578      4.9258    114.6969
   662.5000      0.0000    665.5976      4.9135    115.6975
   662.7500      0.0000    683.0605      4.8956    119.1068
   663.0000      0.0000    696.5191      4.8670    124.0483
   663.2500      0.0000    704.9831      4.8260    129.0220
   663.5000      0.0000    709.3018      4.7769    133.0002
   663.7500      0.0000    711.0814      4.7265    135.7392
   664.0000      0.0000    711.7557      4.6817    137.1994
   664.2500      0.0000    712.1334      4.6466    137.3933
   664.5000      0.0000    712.4761      4.6201    137.0368
   664.7500      0.0000    712.7684      4.5974    137.5623
   665.0000      0.0000    712.9118      4.5749    139.9608
   665.2500      0.0000    712.8317      4.5548    143.8392
   665.5000      0.0000    712.4976      4.5454    147.7237
   665.7500      0.0000    711.9006      4.5549    150.1458
   666.0000      0.0000    710.8499      4.5869    150.4422
   666.2500      0.0000    708.6181      4.6388    148.6875
   666.5000      0.0000    703.6257      4.7036    145.0951
   666.7500      0.0000    694.0372      4.7706    139.6686
   667.0000      0.0000    679.9253      4.8262    132.3495
   667.2500      0.0000    665.1624      4.8587    123.3496
   667.5000      0.0000    655.1281      4.8648    113.4580
   667.7500      0.0000    650.8419      4.8526    104.1248
   668.0000      0.0000    647.4921      4.8378     97.0374
   668.2500      0.0000    641.4262      4.8355     93.3207
   668.5000      0.0000    636.6545      4.8525     92.8187
   668.7500      0.0000    640.9319      4.8879     93.8639
   669.0000      0.0000    656.2703      4.9359     94.0562
   669.2500      0.0000    676.4257      4.9856     92.0803
   669.5000      0.0000    693.3480      5.0190     89.1190
   669.7500      0.0000    703.4722      5.0169     88.0249
   670.0000      0.0000    707.9083      4.9719     90.7913
   670.2500      0.0000    709.2664      4.8926     96.9747
   670.5000      0.0000    709.4283      4.7968    104.4286
   670.7500      0.0000    709.2418      4.7003    111.2666
   671.0000      0.0000    708.9631      4.6128    117.1130
   671.2500      0.0000    708.6605      4.5389    122.6512
   671.5000      0.0000    708.4094      4.4795    128.2016
   671.7500      0.0000    708.3093      4.4328    133.0368
   672.0000      0.0000    708.4145      4.3953    136.2555
   672.2500      0.0000    708.6600      4.3656    138.1316
   672.5000      0.0000    708.8394      4.3487    140.1381
   672.7500      0.0000    708.6143      4.3565    143.4620
   673.0000      0.0000    707.5432      4.4045    147.7883
   673.2500      0.0000    705.2874      4.4993    151.5849
   673.5000      0.0000    702.0925      4.6218    153.2305
   673.7500      0.0000    699.3679      4.7287    151.9207
   674.0000      0.0000    699.6249      4.7858    147.9326
   674.2500      0.0000    705.5891      4.7965    142.2569
   674.5000      0.0000    718.9935      4.7902    136.0744
   674.7500      0.0000    739.5969      4.7895    130.7292
   675.0000     -2.0000    764.3346      4.7991    127.8332
   675.2500      0.0000    787.1632      4.8171    128.6148
   675.5000      0.0000    801.2484      4.8459    132.8511
   675.7500      0.0000    803.5226      4.8900    138.7113
   676.0000      0.0000    797.3619      4.9389    143.7868
   676.2500      0.0000    788.8965      4.9516    146.2131
   676.5000      0.0000    780.3185      4.8761    145.2804
   676.7500      0.0000    769.1412      4.7039    141.6200
   677.0000      0.0000    754.3591      4.4874    136.7912
   677.2500      0.0000    740.4115      4.2902    132.3581
   677.5000      0.0000    733.8964      4.1351    129.1835
   677.7500      0.0000    737.6921      4.0093    127.1695
   678.0000      0.0000    748.1042      3.8994    125.4696
   678.2500      0.0000    756.8292      3.8041    123.5247
   678.5000      0.0000    756.6937      3.7279    121.8859
   678.7500      0.0000    746.9937      3.6744    121.2049
   679.0000      0.0000    733.1324      3.6483    120.5213
   679.2500      0.0000    721.2506      3.6551    117.6305
   679.5000      0.0000    714.0204      3.6973    111.3340
   679.7500      0.0000    710.8876      3.7707    102.4883
   680.0000      0.0000    710.4164      3.8657     92.7365
   680.2500      0.0000    711.8118      3.9739     83.1585
   680.5000      0.0000    715.2434      4.0912     74.4905
   680.7500      0.0000    721.5283      4.2132     67.6123
   681.0000      0.0000    730.9796      4.3282     62.9424
   681.2500      0.0000    741.7166      4.4199     59.7087
   681.5000      0.0000    749.5303      4.4763     56.5270
   681.7500      0.0000    750.9075      4.4964     52.7724
   682.0000      0.0000    746.6737      4.4898     49.1653
   682.2500      0.0000    741.6532      4.4711     47.2066
   682.5000      0.0000    740.4988      4.4530     48.4356
   682.7500      0.0000    744.6881      4.4411     53.9882
   683.0000      0.0000    753.1870      4.4337     63.9598
   683.2500      0.0000    763.8224      4.4276     76.8075
   683.5000      0.0000    772.8993      4.4188     90.0071
   683.7500      0.0000    775.3887      4.4009    101.7869
   684.0000      0.0000    768.1263      4.3679    112.0262
   684.2500      0.0000    753.1398      4.3219    121.5128
   684.5000      0.0000    736.5806      4.2752    130.8843
   684.7500      0.0000    724.0468      4.2406    140.3353
   685.0000      0.0000    717.4328      4.2240    149.6372
   685.2500      0.0000    715.7539      4.2270    157.9312
   685.5000      0.0000    717.7085      4.2484    163.7192
   685.7500      0.0000    722.8899      4.2786    165.7636
   686.0000      0.0000    730.8397      4.2946    164.3961
   686.2500      0.0000    739.7181      4.2697    161.4579
   686.5000      0.0000    747.3706      4.1924    158.4246
   686.7500      0.0000    754.4236      4.0729    154.9127
   687.0000      0.0000    764.6881      3.9328    149.3995
   687.2500      0.0000    780.5887      3.7891    141.0643
   687.5000      0.0000    799.2732      3.6502    130.6614
   687.7500      0.0000    815.6237      3.5267    119.9629
   688.0000      0.0000    828.6773      3.4395    110.6860
   688.2500      0.0000    842.0587      3.4116    103.7750
   688.5000      0.0000    857.2993      3.4499     99.4453
   688.7500      0.0000    869.7426      3.5376     97.7464
   689.0000      0.0000    873.3983      3.6462     98.6980
   689.2500      0.0000    868.0696      3.7547    101.6381
   689.5000      0.0000    859.6449      3.8562    104.9628
   689.7500      0.0000    853.9980      3.9507    107.1867
   690.0000      0.0000    851.5692      4.0398    108.1306
   690.2500      0.0000    847.7997      4.1282    108.5898
   690.5000      0.0000    838.5134      4.2258    108.9448
   690.7500      0.0000    824.1099      4.3417    108.6511
   691.0000      0.0000    808.2339      4.4760    107.2755
   691.2500      0.0000    793.7181      4.6160    105.5754
   691.5000      0.0000    780.9410      4.7415    105.0163
   691.7500      0.0000    769.2480      4.8331    106.2278
   692.0000      0.0000    758.5869      4.8785    108.3134
   692.2500      0.0000    749.6642      4.8740    109.6905
   692.5000      0.0000    743.1358      4.8254    109.2626
   692.7500      0.0000    739.0119      4.7501    106.9011
   693.0000      0.0000    736.9195      4.6717    103.4566
   693.2500      0.0000    736.5534      4.6090    100.4887
   693.5000      0.0000    737.5631      4.5683     99.5316
   693.7500      0.0000    738.9153      4.5446    101.2667
   694.0000      0.0000    738.2410      4.5269    105.2869
   694.2500      0.0000    732.1837      4.5036    110.4570
   694.5000      0.0000    718.7150      4.4695    115.4762
