~Version Information
 VERS.                                  2.0 : CWLS LAS VERSION
 WRAP.                                   NO : WRAPING MODE
 SWARE .                 MController 2.5.0J : SOFTWARE VERSION
~Well Information
 WELL.                         State 16-44R : WELL
 COMP.                Petrogulf Corporation : COMPANY
 FLD.                      Purgatoire River : FIELD
 LOC.                SE/SE Sec 16 T33S R67W : LOCATION
 DATE.                          10/20-21/05 : DATE(S) LOGGED
 SRVC.       BLANCO Geological Services LLC : SERVICE COMPANY
 STAT.                                   CO : STATE
 CNTY.                           Las Animas : COUNTY
 CTRY.                                  USA : COUNTRY
 API.                       05-071-08457-00 : API NUMBER
 STRT.FT                               1.00 : START DEPTH
 STOP.FT                            1629.00 : STOP DEPTH
 STEP.FT                               1.00 : DEPTH INCREMENT
 NULL.                                -9999 : NULL VALUE
~Curve information
 DEPTH.FT                                   :
 ROP.MIN/FT                                 :
 GAS.UNITS                                  :
~ASCII Log data
# ...
       201.0         0.33          7.7 
       202.0         0.23          8.1 
       203.0         0.30          8.2 
       204.0         0.30          8.4 
       205.0         0.28          8.4 
       206.0         1.20          8.7 
       207.0         0.20          8.4 
       208.0         0.30          8.4 
       209.0         0.23          8.4 
       210.0         0.20          8.9 
       211.0         0.17          8.8 
       212.0         0.27          8.9 
       213.0         0.23          9.1 
       214.0         0.23          8.9 
       215.0         0.17          8.5 
       216.0         0.18          8.5 
       217.0         0.13          8.4 
       218.0         0.13          8.0 
       219.0         0.20          8.4 
       220.0         0.20          8.4 
       221.0         0.27          8.5 
       222.0         0.33          8.2 
       223.0         0.33          7.9 
       224.0         0.23          8.0 
       225.0         0.27          8.1 
       226.0         0.30          7.9 
       227.0         0.30          8.3 
       228.0         0.33          8.4 
       229.0         0.35          8.7 
       230.0         0.27          8.6 
       231.0         0.33          8.5 
       232.0         0.30          8.4 
       233.0         0.27          8.6 
       234.0         0.33          8.7 
       235.0         0.27          8.2 
       236.0         2.18          8.4 
       237.0         0.40          7.9 
       238.0         0.40          7.7 
       239.0         0.37          7.9 
       240.0         0.30          7.8 
       241.0         0.37          7.7 
       242.0         0.33          7.9 
       243.0         0.35          8.0 
       244.0         0.43          8.0 
       245.0         0.40          8.2 
       246.0         0.30          8.3 
       247.0         0.40          8.2 
       248.0         0.33          8.4 
       249.0         0.40          8.3 
       250.0         0.37          8.3 
       251.0         0.37          8.1 
       252.0         0.35          8.2 
       253.0         0.30          8.2 
       254.0         0.37          8.2 
       255.0         0.37          8.2 
       256.0         0.37          7.9 
       257.0         0.37          8.3 
       258.0         0.37          8.4 
       259.0         0.37          8.5 
       260.0         0.37          8.6 
       261.0         0.38          8.5 
       262.0         0.37          8.4 
       263.0         0.37          8.3 
       264.0         0.33          8.4 
       265.0         0.30          8.3 
       266.0       583.05        123.8 
       267.0         0.10          3.5 
       268.0         0.30          3.9 
       269.0         0.30          4.2 
       270.0         0.30          4.2 
       271.0         0.27          4.2 
       272.0         0.23          4.5 
       273.0         0.23          4.6 
       274.0         0.23          4.8 
       275.0         0.20          4.5 
       276.0         0.20          4.9 
       277.0         0.23          5.1 
       278.0         0.20          5.1 
       279.0         0.13          5.2 
       280.0         0.07          4.8 
       281.0         0.12          5.1 
       282.0         0.13          5.5 
       283.0         0.13          5.0 
       284.0         0.20          5.2 
       285.0         0.20          5.4 
       286.0         0.23          5.3 
       287.0         0.20          5.4 
       288.0         0.17          5.6 
       289.0         0.20          5.5 
       290.0         0.20          5.8 
       291.0         0.20          5.7 
       292.0         0.20          5.5 
       293.0         0.20          5.7 
       294.0         0.17          5.8 
       295.0         0.23          5.4 
       296.0         1.35          6.0 
       297.0         0.27          5.8 
       298.0         0.37          6.1 
       299.0         0.37          5.9 
       300.0         0.33          6.0 
       301.0         0.27          6.1 
       302.0         0.23          6.3 
       303.0         0.27          6.1 
       304.0         0.20          6.3 
       305.0         0.28          6.6 
       306.0         0.30          6.2 
       307.0         0.27          6.4 
       308.0         0.27          6.2 
       309.0         0.30          6.3 
       310.0         0.27          6.1 
       311.0         0.27          5.8 
       312.0         0.27          6.0 
       313.0         0.23          5.9 
       314.0         0.23          5.6 
       315.0         0.20          5.8 
       316.0         0.23          5.6 
       317.0         0.20          5.6 
       318.0         0.20          5.6 
       319.0         0.25          5.5 
       320.0         0.20          5.7 
       321.0         0.20          5.7 
       322.0         0.27          5.8 
       323.0         0.20          5.9 
       324.0         0.27          5.8 
       325.0         0.27          6.0 
       326.0         1.10          6.0 
       327.0         0.43          5.7 
       328.0         0.35          5.6 
       329.0         0.33          5.4 
       330.0         0.27          5.9 
       331.0         0.27          5.5 
       332.0         0.27          5.6 
       333.0         0.30          5.6 
       334.0         0.27          5.9 
       335.0         0.27          5.5 
       336.0         0.30          6.0 
       337.0         0.23          6.0 
       338.0         0.23          5.9 
       339.0         0.23          6.0 
       340.0         0.23          5.9 
       341.0         0.25          6.4 
       342.0         0.23          5.9 
       343.0         0.20          6.1 
       344.0         0.23          6.5 
       345.0         0.20          6.4 
       346.0         0.27          6.3 
       347.0         0.57          6.3 
       348.0         0.37          6.3 
       349.0         0.33          6.3 
       350.0         0.20          6.1 
       351.0         0.13          6.6 
       352.0         0.07          6.0 
       353.0         0.17          6.3 
       354.0         0.18          6.1 
       355.0         0.17          5.8 
       356.0         1.93        107.7 
       357.0         0.20         10.3 
       358.0         0.20          6.9 
       359.0         0.23          5.8 
       360.0         0.20          5.1 
       361.0         0.17          4.9 
       362.0         0.17          5.2 
       363.0         0.25          4.9 
       364.0         0.17          5.0 
       365.0         0.27          5.0 
       366.0         0.20          5.3 
       367.0         0.20          5.3 
       368.0         0.23          6.2 
       369.0         0.23          6.7 
       370.0         0.20          8.3 
       371.0         0.23          9.9 
       372.0         0.17         11.0 
       373.0         0.13         11.6 
       374.0         0.10         11.5 
       375.0         0.13         11.9 
       376.0         0.13         12.4 
       377.0         0.17         13.1 
       378.0         0.20         13.5 
       379.0         0.20         13.4 
       380.0         0.28         13.6 
       381.0         0.27         13.6 
       382.0         0.20         13.5 
       383.0         0.23         26.0 
       384.0         0.20         38.5 
       385.0         0.20         52.8 
       386.0         1.47        125.5 
       387.0         0.20         16.3 
       388.0         0.27         13.8 
       389.0         0.25         11.6 
       390.0         0.23         11.1 
       391.0         0.20         11.7 
       392.0         0.27         12.2 
       393.0         0.20         10.3 
       394.0         0.20         10.7 
       395.0         0.23         12.4 
       396.0         0.23         13.1 
       397.0         0.23         12.8 
       398.0         0.17         11.6 
       399.0         0.20         11.3 
       400.0         0.23         13.1 
