~Version Information
VERS.                      2.0: CWLS Log ASCII Standard - VERSION 2.0
WRAP.                       NO: One line per depth step
~Well Information Block
STRT.FT               240.0000: 
STOP.FT              1456.0000: 
STEP.FT                 0.1000: 
NULL.                -999.2500: 
COMP.          Pioneer Natural Resources: COMPANY
WELL.              Darren 11-7: WELL
FLD.           Purgatoire River: FIELD
LOC.           230' FNL & 596' FWL: LOCATION
CNTY.               Las Animas: COUNTY
SRVC.                Patterson: SERVICE COMPANY
DATE.          Mon Mar 20 07:16:06 2006: LOG DATE
UWI.           05 071 08720 00: UNIQUE WELL ID
STAT.                 Colorado: STATE
~Curve Information Block
DEPT.FT            0 000 00 00: Depth
DCAL.in                       : CDL Caliper
RHOB.g/cc                     : CDL Bulk Density
RHOC.g/cc                     : CDL Density Correction
DPOR.pu                       : CDL Density Porosity
GR.GAPI                       : Gamma Ray
NPOR.pu                       : Neutron Porosity
~Parameter Information Block
~A  Depth       DCAL        RHOB        RHOC        DPOR         GR         NPOR    
# ...
   720.0000      7.8999      2.4680     -0.0272     11.0289     81.1960     23.2592
   720.1000      7.8999      2.4597      0.0077     11.5334     79.2421     22.9892
   720.2000      7.8999      2.4536      0.0391     11.9046     74.1438     22.7351
   720.3000      7.9002      2.4402     -0.0005     12.7138     66.4032     22.3293
   720.4000      7.9002      2.4268      0.0256     13.5263     59.5275     21.8999
   720.5000      7.8913      2.4220      0.0111     13.8189     57.8067     21.5516
   720.6000      7.8913      2.4209      0.0375     13.8819     60.9015     21.0291
   720.7000      7.8913      2.4130      0.0143     14.3634     62.9202     20.5490
   720.8000      7.8849      2.4030     -0.0489     14.9667     60.5585     20.5017
   720.9000      7.8849      2.3954      0.0629     15.4285     58.3141     20.5595
   721.0000      7.8887      2.3724      0.0417     16.8213     62.3385     20.5117
   721.1000      7.8887      2.3295     -0.0131     19.4241     72.7492     20.7309
   721.2000      7.8887      2.2817     -0.0312     22.3231     83.2515     21.1731
   721.3000      7.8980      2.2388     -0.0137     24.9188     89.3612     21.4227
   721.4000      7.8980      2.2074     -0.0303     26.8237     92.2568     21.3880
   721.5000      7.9061      2.1913     -0.0139     27.8012     94.2252     21.3669
   721.6000      7.9061      2.1852      0.0458     28.1680     96.4008     21.5676
   721.7000      7.9061      2.1820      0.0454     28.3610    100.0835     21.6634
   721.8000      7.9153      2.1739      0.1080     28.8517    104.3476     21.4584
   721.9000      7.9153      2.1537      0.0774     30.0806    104.4329     21.1904
   722.0000      7.9484      2.1234      0.0664     31.9134    100.0189     21.0008
   722.1000      7.9484      2.0800      0.1076     34.5473     99.2427     20.9474
   722.2000      7.9484      2.0144      0.0621     38.5230    106.4177     21.0213
   722.3000      8.0707      1.9371      0.0065     43.2067    116.6353     21.1392
   722.4000      8.0707      1.8677     -0.0084     47.4133    123.2761     21.3499
   722.5000      8.0578      1.8123      0.0069     50.7674    122.3986     21.7515
   722.6000      8.0578      1.7736      0.0175     53.1170    115.3043     22.3760
   722.7000      8.0578      1.7627     -0.0177     53.7772    108.9223     23.1567
   722.8000      8.0432      1.7879      0.0146     52.2457    107.7783     23.7543
   722.9000      8.0432      1.8381      0.0918     49.2031    108.6171     23.9807
   723.0000      8.0531      1.8987      0.1353     45.5353    104.4075     24.2567
   723.1000      8.0531      1.9715      0.2025     41.1183     97.8791     24.8902
   723.2000      8.0531      2.0633      0.2572     35.5595     96.2297     25.5749
   723.3000      8.0173      2.1663      0.2881     29.3147     99.5626     25.8517
   723.4000      8.0173      2.2564      0.2833     23.8553    107.4792     25.8989
   723.5000      8.0869      2.3101      0.2108     20.5971    117.3663     26.3531
   723.6000      8.0869      2.3343      0.0952     19.1319    123.2526     27.2847
   723.7000      8.0869      2.3564      0.1343     17.7952    125.7595     28.1033
   723.8000      8.1264      2.3850      0.1773     16.0591    130.5964     28.4790
   723.9000      8.1264      2.4082      0.2103     14.6544    139.3163     28.8816
   724.0000      8.0642      2.4168      0.1703     14.1345    148.9359     29.5090
   724.1000      8.0642      2.4178      0.1253     14.0739    154.5101     29.9124
   724.2000      8.0642      2.4181      0.1705     14.0538    153.8755     29.9249
   724.3000      8.0242      2.4206      0.1132     13.9028    153.8486     29.8685
   724.4000      8.0242      2.4357      0.1143     12.9892    158.3948     29.9546
   724.5000      8.0132      2.4658      0.1294     11.1639    157.9917     29.8198
   724.6000      8.0132      2.4953      0.1473      9.3750    150.3997     29.3646
   724.7000      8.0132      2.5099      0.1255      8.4936    146.8571     29.1811
   724.8000      8.0087      2.5225      0.0722      7.7280    151.4939     29.2985
   724.9000      8.0087      2.5448      0.1490      6.3785    156.5520     29.1338
   725.0000      7.9835      2.5559      0.1472      5.7054    157.1218     28.5961
   725.1000      7.9835      2.5377      0.1383      6.8069    156.7606     28.0292
   725.2000      7.9835      2.5014      0.0858      9.0073    156.1714     27.8654
   725.3000      7.9204      2.4757      0.0217     10.5647    153.8492     28.2453
   725.4000      7.9204      2.4749      0.0256     10.6137    151.6921     28.7579
   725.5000      7.9030      2.4823      0.0279     10.1615    151.2326     28.9218
   725.6000      7.9030      2.4844      0.0182     10.0387    152.5352     28.7227
   725.7000      7.9030      2.4916      0.0162      9.6029    153.5210     28.5968
   725.8000      7.8770      2.5090      0.0471      8.5445    151.7979     28.7672
   725.9000      7.8770      2.5201      0.1092      7.8749    149.8432     29.0170
   726.0000      7.9337      2.5111      0.0962      8.4197    151.1919     29.1526
   726.1000      7.9337      2.4895      0.0533      9.7247    153.5161     28.9588
   726.2000      7.9337      2.4695      0.0544     10.9368    153.3757     28.6261
   726.3000      7.9762      2.4657     -0.0148     11.1710    150.1689     28.8754
   726.4000      7.9762      2.4887      0.0221      9.7728    143.0549     29.7237
   726.5000      7.9194      2.5234      0.0931      7.6708    135.8537     30.4437
   726.6000      7.9194      2.5450      0.0785      6.3656    136.1205     30.6337
   726.7000      7.9194      2.5549      0.0416      5.7616    143.6375     30.3864
   726.8000      7.8840      2.5643      0.0818      5.1954    149.5560     30.0577
   726.9000      7.8840      2.5665      0.0934      5.0605    149.5271     29.9503
   727.0000      7.9072      2.5533      0.0663      5.8582    146.6458     30.0471
   727.1000      7.9072      2.5377      0.0158      6.8054    144.2075     30.0583
   727.2000      7.9072      2.5344      0.0694      7.0046    143.3707     29.7840
   727.3000      7.9229      2.5393      0.0630      6.7112    142.6873     29.2379
   727.4000      7.9229      2.5492      0.0155      6.1063    139.7073     28.7890
   727.5000      7.8940      2.5675      0.0204      5.0019    131.8661     28.8375
   727.6000      7.8940      2.5848     -0.0005      3.9541    116.2957     29.0046
   727.7000      7.8940      2.5808      0.0520      4.1928     99.7286     28.7408
   727.8000      7.8835      2.5572     -0.0164      5.6215     95.9743     28.1871
   727.9000      7.8835      2.5414      0.0251      6.5834    106.8981     27.8008
   728.0000      7.8904      2.5393      0.0388      6.7071    121.5983     27.9022
   728.1000      7.8904      2.5401     -0.0215      6.6600    129.9334     28.4514
   728.2000      7.8904      2.5397     -0.0091      6.6843    130.1140     28.8725
   728.3000      7.8927      2.5282      0.0234      7.3800    126.2925     28.6571
   728.4000      7.8927      2.4957     -0.0020      9.3531    122.4956     27.9292
   728.5000      7.9002      2.4468      0.0109     12.3172    117.9011     27.1848
   728.6000      7.9002      2.4005     -0.0484     15.1225    111.6046     26.6965
   728.7000      7.9002      2.3801     -0.0127     16.3606    106.5986     26.4374
   728.8000      7.8950      2.3864      0.0213     15.9742    104.5010     26.5248
   728.9000      7.8950      2.3954      0.0529     15.4286    105.8007     27.0536
   729.0000      7.9010      2.3860      0.0161     15.9974    110.3914     27.5357
   729.1000      7.9010      2.3661      0.0137     17.2065    114.0382     27.3349
   729.2000      7.9010      2.3594      0.0275     17.6132    116.7973     26.4791
   729.3000      7.9322      2.3780      0.1022     16.4853    122.2934     25.7009
   729.4000      7.9322      2.4223      0.2138     13.7975    126.2511     25.5448
   729.5000      7.9278      2.4939      0.2570      9.4634    126.0473     25.9082
