~Version Information
VERS.                      2.0: CWLS Log ASCII Standard - VERSION 2.0
WRAP.                       NO: One line per depth step
~Well Information Block
STRT.FT                -6.7500: 
STOP.FT              2034.2500: 
STEP.FT                 0.2500: 
NULL.                -999.2500: 
COMP.          Evergreen Operating Corp.: COMPANY
WELL.           Big Pine 32-15: WELL
FLD.           Purgatorie River: FIELD
LOC.           2590 FNL & 1442 FEL--: LOCATION
STAT.                       CO: State
CNTY.               Las Animas: COUNTY
CTRY. USA : Country
SECT. 15 : Section
TOWN. 33S : township
RANG. 67W : Range
SRVC.          Patterson Wireline, Inc.: SERVICE COMPANY
DATE.          Mon Mar 24 12:45:01 2003: LOG DATE
API.           05 071 07772 00: UNIQUE WELL ID
~Curve Information Block
DEPT.FT            0 000 00 00: Depth
HVOLTA.V                      : Head Voltage Apparent
CCL.                          : Casing Collar Locator
TT3.usec                      : CBL 3' Travel Time
AMP3.mV                       : CBL 3' Amplitude
GR.GAPI                       : Gamma Ray
~Parameter Information Block
~A  Depth      HVOLTA       CCL         TT3         AMP3         GR     
# ...
  2009.2500    121.5726      0.0000    409.9160      3.4396     71.5288
  2009.5000    121.4662      0.0000    408.9066      3.4153     70.9228
  2009.7500    121.4106      0.0000    408.1127      3.3671     71.5765
  2010.0000    121.5438      0.0000    407.7613      3.3497     73.3149
  2010.2500    121.4662      0.0000    408.8308      3.4142     75.3136
  2010.5000    121.5211      0.0000    415.5476      3.5429     75.8868
  2010.7500    121.5411      0.0000    436.6689      3.6532     73.4805
  2011.0000    121.5974      0.0000    477.1423      3.6928     68.2353
  2011.2500    121.4058      0.0000    523.2862      3.6669     62.1124
  2011.5000    121.4614      0.0000    547.1896      3.6035     57.2397
  2011.7500    121.5706      0.0000    534.7427      3.5006     54.3422
  2012.0000    121.5445      0.0000    501.8100      3.3877     52.8962
  2012.2500    121.4861      0.0000    480.2723      3.3726     52.5268
  2012.5000    121.4642      0.0000    495.4888      3.5143     53.8396
  2012.7500    121.4312      0.0000    552.7973      3.7455     57.5987
  2013.0000    121.5733      0.0000    630.4347      3.9390     63.2224
  2013.2500    121.3577      0.0000    693.4985      4.0100     68.5727
  2013.5000    121.5466      0.0000    725.9053      3.9513     71.5994
  2013.7500    121.4394      0.0000    736.3940      3.7867     72.0731
  2014.0000    121.4635      0.0000    737.7392      3.5458     71.4539
  2014.2500    121.4902      0.0000    733.9271      3.2742     71.2805
  2014.5000    121.4930      0.0000    721.0547      3.0870     72.1275
  2014.7500    121.4113      0.0000    694.5168      3.0894     73.9240
  2015.0000    121.5994      0.0000    658.5878      3.2429     76.4441
  2015.2500    121.5191      0.0000    626.2639      3.4490     79.1124
  2015.5000    121.5987      0.0000    606.0767      3.6544     80.9343
  2015.7500    121.4724      0.0000    593.4960      3.8194     81.1054
  2016.0000    121.4909      0.0000    575.6995      3.8986     79.5715
  2016.2500    121.3845      0.0000    543.8223      3.8631     76.9413
  2016.5000    121.4861      0.0000    504.1025      3.7395     74.1203
  2016.7500    121.4072      0.0000    472.5645      3.5947     72.0229
  2017.0000    121.5431      0.0000    456.7647      3.4072     71.3158
  2017.2500    121.3818      0.0000    451.0414      3.1272     72.1791
  2017.5000    121.5974      0.0000    446.4408      2.8327     74.2934
  2017.7500    121.4662      0.0000    438.1892      2.6471     77.0811
  2018.0000    121.3797      0.0000    427.4525      2.6209     79.9353
  2018.2500    121.3564      0.0000    418.5674      2.7627     82.2812
  2018.5000    121.4902      0.0000    413.7500      3.0712     83.6381
  2018.7500    121.3303      0.0000    411.8062      3.4547     83.8357
  2019.0000    121.4127      0.0000    410.9497      3.7519     83.0837
  2019.2500    121.6571      0.0000    410.4676      3.8863     81.6945
  2019.5000    121.5417      0.0000    410.2507      3.9073     79.7788
  2019.7500    121.4099      0.0000    410.3394      3.8876     77.1261
  2020.0000    121.4133      0.0000    411.4151      3.8187     73.0399
  2020.2500    121.3577      0.0000    415.0558      3.6390     66.3077
  2020.5000    121.5198      0.0000    421.6837      3.3545     55.8982
  2020.7500    121.5754      0.0000    427.5514      3.0859     42.2185
  2021.0000    121.3824      0.0000    427.2220      2.9259     27.6283
  2021.2500    121.4669      0.0000    420.5853      2.8448     15.2381
  2021.5000    121.5493      0.0000    412.9330      2.7842      6.9333
  2021.7500    121.6015      0.0000    408.1030      2.7432      2.5619
  2022.0000    121.5507      0.0000    405.9744      2.8073      0.7597
  2022.2500    121.4923      0.0000    405.1252      3.0761      0.1790
  2022.5000    121.4937      0.0000    404.6517      3.4704      0.0329
  2022.7500    121.3557      0.0000    404.2064      3.7619      0.0044
  2023.0000    121.4669      0.0000    403.6977      3.8385      0.0000
  2023.2500    121.3570      0.0000    403.0938      3.7867   -999.2500
  2023.5000    121.5417      0.0000    402.3752      3.7216   -999.2500
  2023.7500    121.4916      0.0000    401.5798      3.6502   -999.2500
  2024.0000    121.3481      0.0000    400.7847      3.5267   -999.2500
  2024.2500    121.4394      0.0000    400.0262      3.3593   -999.2500
  2024.5000    121.4140      0.0000    399.2776      3.2093   -999.2500
  2024.7500    121.3598      0.0000    398.4003      3.1166   -999.2500
  2025.0000    121.3261      0.0000    396.9306      3.1074   -999.2500
  2025.2500    121.3474      0.0000    392.6942      3.1552   -999.2500
  2025.5000    121.4607      0.0000    377.3633      3.1143   -999.2500
  2025.7500    121.4079      0.0000    333.4975      2.7310   -999.2500
  2026.0000    121.4381      0.0000    249.2370      1.7434   -999.2500
  2026.2500    121.4951      0.0000    144.4118      0.2931   -999.2500
  2026.5000    121.5177      0.0000     60.5889     -0.9938   -999.2500
  2026.7500    121.4944      0.0000     17.5796     -1.6985   -999.2500
  2027.0000    121.2458      0.0000      3.4260     -1.9399   -999.2500
  2027.2500    121.4346      0.0000      0.4392     -1.9922   -999.2500
  2027.5000    121.4381      0.0000      0.0351     -1.9994   -999.2500
  2027.7500    121.3255      0.0000   -999.2500   -999.2500   -999.2500
  2028.0000    121.3804      0.0000   -999.2500   -999.2500   -999.2500
  2028.2500    121.4319      0.0000   -999.2500   -999.2500   -999.2500
  2028.5000    121.4065      0.0000   -999.2500   -999.2500   -999.2500
  2028.7500    121.4113      0.0000   -999.2500   -999.2500   -999.2500
  2029.0000    121.3598      0.0000   -999.2500   -999.2500   -999.2500
  2029.2500    121.4614      0.0000   -999.2500   -999.2500   -999.2500
  2029.5000    121.4621      0.0000   -999.2500   -999.2500   -999.2500
  2029.7500    121.4099      0.0000   -999.2500   -999.2500   -999.2500
  2030.0000    121.4140      0.0000   -999.2500   -999.2500   -999.2500
  2030.2500    121.4957      0.0000   -999.2500   -999.2500   -999.2500
  2030.5000    121.4916      0.0000   -999.2500   -999.2500   -999.2500
  2030.7500    121.4525      0.0000   -999.2500   -999.2500   -999.2500
  2031.0000    121.4113      0.0000   -999.2500   -999.2500   -999.2500
  2031.2500    121.5177      0.0000   -999.2500   -999.2500   -999.2500
  2031.5000    121.5287      0.0000   -999.2500   -999.2500   -999.2500
  2031.7500    121.3584      0.0000   -999.2500   -999.2500   -999.2500
  2032.0000    121.3268      0.0000   -999.2500   -999.2500   -999.2500
  2032.2500    121.4120      0.0000   -999.2500   -999.2500   -999.2500
  2032.5000    121.3529      0.0000   -999.2500   -999.2500   -999.2500
  2032.7500    121.3783      0.0000   -999.2500   -999.2500   -999.2500
  2033.0000    121.3255      0.0000   -999.2500   -999.2500   -999.2500
  2033.2500    121.4346      0.0000   -999.2500   -999.2500   -999.2500
  2033.5000    121.3859      0.0000   -999.2500   -999.2500   -999.2500
  2033.7500    121.4333      0.0000   -999.2500   -999.2500   -999.2500
  2034.0000    121.4092   -999.2500   -999.2500   -999.2500   -999.2500
  2034.2500    121.2163   -999.2500   -999.2500   -999.2500   -999.2500
