~Version Information
VERS.                      2.0: CWLS Log ASCII Standard - VERSION 2.0
WRAP.                       NO: One line per depth step
~Well Information Block
STRT.FT               460.0000: 
STOP.FT              1349.5000: 
STEP.FT                 0.2500: 
NULL.                -999.2500: 
COMP.          Pioneer Natural Resources: COMPANY
WELL.              Dicks 32-5R: WELL
FLD.           Purgatorie River: FIELD
LOC.           1485' FNL & 1684' FEL: LOCATION
PROV.                 Colorado: PROVINCE
CNTY.               Las Animas: COUNTRY
SRVC.                Patterson: SERVICE COMPANY
DATE.          Thu Dec 08 23:11:15 2005: LOG DATE
UWI.                          : UNIQUE WELL ID
~Curve Information Block
DEPT.FT            0 000 00 00: Depth
SN.Ohm-m                      : IEL Short Normal
SP.mV                         : IEL Spontaneous Potential
DIR.Ohm-m                     : IEL Induction Resistivity
GR.GAPI                       : Gamma Ray
~Parameter Information Block
~A  Depth        SN          SP         DIR          GR     
# ...
   795.0000   2000.0000   2000.0000     21.2709    148.2389
   795.2500   2000.0000   2000.0000     21.7231    142.2385
   795.5000   2000.0000   2000.0000     22.1091    131.0474
   795.7500   2000.0000   2000.0000     22.4238    122.8302
   796.0000   2000.0000   2000.0000     22.6353    111.3953
   796.2500   2000.0000   2000.0000     22.6821    105.5656
   796.5000   2000.0000   2000.0000     22.4949    100.5543
   796.7500   2000.0000   2000.0000     22.0364     99.5212
   797.0000   2000.0000   2000.0000     21.3333    100.3665
   797.2500   2000.0000   2000.0000     20.4699    102.0429
   797.5000   2000.0000   2000.0000     19.5491    106.3070
   797.7500   2000.0000   2000.0000     18.6558    110.6775
   798.0000   2000.0000   2000.0000     17.8443    119.4775
   798.2500   2000.0000   2000.0000     17.1459    126.0005
   798.5000   2000.0000   2000.0000     16.5789    134.6610
   798.7500   2000.0000   2000.0000     16.1514    138.9350
   799.0000   2000.0000   2000.0000     15.8625    143.3574
   799.2500   2000.0000   2000.0000     15.7040    145.5895
   799.5000   2000.0000   2000.0000     15.6642    148.4985
   799.7500   2000.0000   2000.0000     15.7319    150.1149
   800.0000   2000.0000   2000.0000     15.8983    151.7802
   800.2500   2000.0000   2000.0000     16.1594    152.3128
   800.5000   2000.0000   2000.0000     16.5175    152.3399
   800.7500   2000.0000   2000.0000     16.9789    151.9072
   801.0000   2000.0000   2000.0000     17.5486    150.2680
   801.2500   2000.0000   2000.0000     18.2219    147.9373
   801.5000   2000.0000   2000.0000     18.9789    141.4257
   801.7500   2000.0000   2000.0000     19.7838    134.8802
   802.0000   2000.0000   2000.0000     20.5909    122.8096
   802.2500   2000.0000   2000.0000     21.3520    114.3856
   802.5000   2000.0000   2000.0000     22.0175    102.8790
   802.7500   2000.0000   2000.0000     22.5316     96.4536
   803.0000   2000.0000   2000.0000     22.8333     88.7848
   803.2500   2000.0000   2000.0000     22.8754     84.8525
   803.5000   2000.0000   2000.0000     22.6511     80.5058
   803.7500   2000.0000   2000.0000     22.2060     78.5789
   804.0000   2000.0000   2000.0000     21.6226     77.0674
   804.2500   2000.0000   2000.0000     20.9901     76.8898
   804.5000   2000.0000   2000.0000     20.3804     77.7533
   804.7500   2000.0000   2000.0000     19.8374     79.2648
   805.0000   2000.0000   2000.0000     19.3756     84.0833
   805.2500   2000.0000   2000.0000     18.9810     90.0306
   805.5000   2000.0000   2000.0000     18.6188    104.3342
   805.7500   2000.0000   2000.0000     18.2487    117.1198
   806.0000   2000.0000   2000.0000     17.8461    138.0633
   806.2500   2000.0000   2000.0000     17.4130    150.3915
   806.5000   2000.0000   2000.0000     16.9724    161.9875
   806.7500   2000.0000   2000.0000     16.5492    163.8376
   807.0000   2000.0000   2000.0000     16.1553    158.6426
   807.2500   2000.0000   2000.0000     15.7844    151.8004
   807.5000   2000.0000   2000.0000     15.4182    140.7004
   807.7500   2000.0000   2000.0000     15.0349    134.8414
   808.0000   2000.0000   2000.0000     14.6187    130.2779
   808.2500   2000.0000   2000.0000     14.1662    130.0943
   808.5000   2000.0000   2000.0000     13.6872    132.8079
   808.7500   2000.0000   2000.0000     13.2001    135.4650
   809.0000   2000.0000   2000.0000     12.7240    138.9815
   809.2500   2000.0000   2000.0000     12.2722    140.6151
   809.5000   2000.0000   2000.0000     11.8488    142.7409
   809.7500   2000.0000   2000.0000     11.4493    144.8324
   810.0000   2000.0000   2000.0000     11.0650    149.8793
   810.2500   2000.0000   2000.0000     10.6894    154.1957
   810.5000   2000.0000   2000.0000     10.3240    160.6030
   810.7500   2000.0000   2000.0000      9.9798    164.1292
   811.0000   2000.0000   2000.0000      9.6732    168.1219
   811.2500   2000.0000   2000.0000      9.4192    170.1396
   811.5000   2000.0000   2000.0000      9.2266    172.2743
   811.7500   2000.0000   2000.0000      9.0968    172.8695
   812.0000   2000.0000   2000.0000      9.0255    172.1800
   812.2500   2000.0000   2000.0000      9.0055    170.7755
   812.5000   2000.0000   2000.0000      9.0281    167.8581
   812.7500   2000.0000   2000.0000      9.0845    165.6664
   813.0000   2000.0000   2000.0000      9.1660    162.1515
   813.2500   2000.0000   2000.0000      9.2643    159.7340
   813.5000   2000.0000   2000.0000      9.3717    156.4858
   813.7500   2000.0000   2000.0000      9.4813    154.9014
   814.0000   2000.0000   2000.0000      9.5883    153.4359
   814.2500   2000.0000   2000.0000      9.6915    152.7474
   814.5000   2000.0000   2000.0000      9.7941    151.5820
   814.7500   2000.0000   2000.0000      9.9000    150.6383
   815.0000   2000.0000   2000.0000     10.0089    149.0873
   815.2500   2000.0000   2000.0000     10.1126    147.9118
   815.5000   2000.0000   2000.0000     10.1981    145.6112
   815.7500   2000.0000   2000.0000     10.2550    143.6736
   816.0000   2000.0000   2000.0000     10.2808    140.6551
   816.2500   2000.0000   2000.0000     10.2793    139.0170
   816.5000   2000.0000   2000.0000     10.2543    137.5776
   816.7500   2000.0000   2000.0000     10.2058    137.2380
   817.0000   2000.0000   2000.0000     10.1322    137.2260
   817.2500   2000.0000   2000.0000     10.0345    137.3442
   817.5000   2000.0000   2000.0000      9.9177    137.6955
   817.7500   2000.0000   2000.0000      9.7894    138.1485
   818.0000   2000.0000   2000.0000      9.6559    139.1370
   818.2500   2000.0000   2000.0000      9.5192    139.7915
   818.5000   2000.0000   2000.0000      9.3767    140.2695
   818.7500   2000.0000   2000.0000      9.2220    140.0149
   819.0000   2000.0000   2000.0000      9.0490    138.5869
   819.2500   2000.0000   2000.0000      8.8555    136.9941
   819.5000   2000.0000   2000.0000      8.6471    149.6870
   819.7500   2000.0000   2000.0000      8.4374    147.0362
   820.0000   2000.0000   2000.0000      8.2444    142.4992
   820.2500   2000.0000   2000.0000      8.0858    139.0859
   820.5000     15.2564    161.6619      7.9751    147.5979
   820.7500     15.0256    161.8568      7.9188    143.3432
   821.0000     14.8320    161.9224      7.9156    136.9053
   821.2500     14.7334    162.0262      7.9583    132.7966
   821.5000     14.7052    162.1808      8.0358    146.0192
   821.7500     14.6822    162.3472      8.1375    143.8271
   822.0000     14.6315    162.4880      8.2556    143.8844
   822.2500     14.5713    162.5780      8.3873    146.0416
   822.5000     14.5641    162.5979      8.5357    151.2297
   822.7500     14.7059    162.5369      8.7086    154.9997
   823.0000     15.0657    162.4100      8.9154    159.6944
   823.2500     15.6455    162.2625      9.1631    161.7780
   823.5000     16.4146    162.1539      9.4554    163.2767
   823.7500     17.3354    162.1351      9.7934    163.1855
   824.0000     18.3759    162.2326     10.1781    160.9950
   824.2500     19.5267    162.4429     10.6130    157.8421
   824.5000     20.7664    162.7381     11.1048    150.5701
   824.7500     22.0087    163.0883     11.6627    144.4679
   825.0000     23.1034    163.4859     12.2923    134.5229
   825.2500     23.9121    163.9468     12.9898    127.9582
   825.5000     24.4083    164.4806     13.7409    119.2432
   825.7500     24.6754    165.0602     14.5272    114.9147
   826.0000     24.8216    165.6266     15.3361    111.7640
   826.2500     24.9319    166.1236     16.1599    112.0828
   826.5000     25.0253    166.5210     16.9834    115.3596
   826.7500     25.0696    166.8052     17.7730    118.4276
   827.0000     25.1385    166.9557     18.4834    122.5394
   827.2500     25.4339    166.9456     19.0811    124.1444
   827.5000     26.0712    166.7630     19.5672    124.0990
   827.7500     26.9901    166.4243     19.9841    122.3181
   828.0000     28.0861    165.9655     20.4004    117.1597
   828.2500     29.3117    165.4276     20.8855    112.2374
