~Version Information
 VERS.                                  2.0 : CWLS LAS VERSION
 WRAP.                                   NO : WRAPING MODE
 SWARE .                 MController 2.5.0N : SOFTWARE VERSION
~Well Information
 WELL.                         Andrew 23-15 : WELL
 COMP.    Pioneer Natural Resources USA Inc : COMPANY
 FLD.                      Purgatoire River : FIELD
 LOC.               NE/SW Sec 15 T32S  R65W : LOCATION
 DATE.                             08/12/05 : DATE(S) LOGGED
 SRVC.       BLANCO Geological Services LLC : SERVICE COMPANY
 STAT.                                   CO : STATE
 CNTY.                           Las Animas : COUNTY
 CTRY.                                  USA : COUNTRY
 API.                       05 071 08460 00 : API NUMBER
 STRT.FT                             447.00 : START DEPTH
 STOP.FT                            1521.00 : STOP DEPTH
 STEP.FT                               1.00 : DEPTH INCREMENT
 NULL.                                -9999 : NULL VALUE
~Curve information
 DEPTH.FT                                   :
 ROP.MIN/FT                                 :
 GAS.UNITS                                  :
~ASCII Log data
# ...
       647.0         0.40          0.2 
       648.0         0.10          0.3 
       649.0         0.30          0.6 
       650.0         0.37          0.9 
       651.0         5.18       1391.4 
       652.0         0.38         11.6 
       653.0         0.17          5.5 
       654.0         0.43          3.6 
       655.0         0.47          0.7 
       656.0         0.17          0.5 
       657.0         0.53          0.7 
       658.0         0.17          0.7 
       659.0         0.47          0.7 
       660.0         0.37          0.5 
       661.0         0.38          0.4 
       662.0         0.30          0.4 
       663.0         0.50          0.3 
       664.0         0.30          0.2 
       665.0         0.50          0.1 
       666.0         0.30          0.1 
       667.0         0.50          0.2 
       668.0         0.43          0.2 
       669.0         0.30          0.1 
       670.0         0.15          0.7 
       671.0         0.20          0.8 
       672.0         0.07          0.9 
       673.0         0.30          0.3 
       674.0         0.63          0.2 
       675.0         0.40          0.1 
       676.0         0.40          0.3 
       677.0         0.30          0.1 
       678.0         0.50          0.1 
       679.0         0.40          0.0 
       680.0         0.52          0.1 
       681.0         4.55        121.5 
       682.0         0.80          0.4 
       683.0         0.63         -1.0 
       684.0         0.72          0.9 
       685.0         0.37          0.8 
       686.0         0.47          0.8 
       687.0         0.70          0.5 
       688.0         0.30          0.2 
       689.0         0.70          0.4 
       690.0         0.42          0.5 
       691.0         0.30          0.9 
       692.0         0.30          0.8 
       693.0         0.60          0.3 
       694.0         0.40          0.3 
       695.0         0.40          0.3 
       696.0         0.30          0.5 
       697.0         0.50          0.3 
       698.0         0.30          0.1 
       699.0         0.52          0.2 
       700.0         0.30          0.4 
       701.0         0.60          0.1 
       702.0         0.30          0.2 
       703.0         0.40          0.2 
       704.0         0.30          0.2 
       705.0         0.60          0.1 
       706.0         0.52          0.4 
       707.0         0.40          0.2 
       708.0         0.60          0.1 
       709.0         0.30          0.0 
       710.0         0.40          0.3 
       711.0         0.60          1.6 
       712.0         2.55        408.1 
       713.0         0.27          9.5 
       714.0         0.27          4.3 
       715.0         0.20          0.3 
       716.0         0.33         -1.2 
       717.0         0.27         -2.7 
       718.0         0.38         -2.3 
       719.0         0.17         -3.1 
       720.0         0.37         -2.4 
       721.0         0.43         -2.3 
       722.0         0.37         -2.3 
       723.0         0.20         -2.2 
       724.0         0.40         -2.3 
       725.0         0.40         -2.0 
       726.0         0.40         -2.1 
       727.0         0.20         -2.1 
       728.0         0.52         -1.9 
       729.0         0.50         -2.0 
       730.0         0.40         -2.1 
       731.0         0.50         -2.0 
       732.0         0.20         -2.0 
       733.0         0.50         -1.9 
       734.0         0.30         -1.9 
       735.0         0.40         -2.2 
       736.0         0.22         -1.8 
       737.0         0.30         -1.9 
       738.0         0.50         -1.8 
       739.0         0.40         -1.8 
       740.0         0.40         -1.8 
       741.0         0.40         -1.7 
       742.0         3.72       1465.5 
       743.0         0.37         13.0 
       744.0         0.17          4.0 
       745.0         0.42          1.9 
       746.0         0.33          0.4 
       747.0         0.20         -1.6 
       748.0         0.60         -1.6 
       749.0         0.53         -1.7 
       750.0         0.53         -1.9 
       751.0         0.30         -1.7 
       752.0         0.52         -1.7 
       753.0         0.50         -1.7 
       754.0         0.30         -1.7 
       755.0         0.50         -1.7 
       756.0         0.50         -1.6 
       757.0         0.40         -1.8 
       758.0         0.50         -1.6 
       759.0         0.20         -2.1 
       760.0         0.42         -1.5 
       761.0         0.30         -1.6 
       762.0         0.50         -1.7 
       763.0         0.20         -2.1 
       764.0         0.40         -1.6 
       765.0         0.20         -1.9 
       766.0         0.60         -1.5 
       767.0         0.20         -1.7 
       768.0         0.40         -1.4 
       769.0         0.20         -1.5 
       770.0         0.42         -1.0 
       771.0         0.70          0.7 
       772.0         4.82       1537.0 
       773.0         0.47         22.8 
       774.0         0.27          6.5 
       775.0         0.55          3.0 
       776.0         0.37          0.7 
       777.0         0.43         -1.8 
       778.0         0.43         -2.0 
       779.0         0.37         -2.0 
       780.0         0.37         -2.0 
       781.0         0.53         -2.0 
       782.0         0.62         -1.9 
       783.0         0.40         -2.0 
       784.0         0.40         -1.9 
       785.0         0.30         -2.2 
       786.0         0.40         -2.1 
       787.0         0.20         -2.2 
       788.0         0.40         -1.9 
       789.0         0.30         -1.9 
       790.0         0.30         -2.1 
       791.0         0.52         -1.7 
       792.0         0.40         -2.0 
       793.0         0.40         -1.7 
       794.0         0.30         -1.8 
       795.0         0.30         -1.8 
       796.0         0.40         -1.8 
       797.0         0.40         -1.8 
       798.0         0.13         -2.1 
       799.0         0.27         -1.3 
       800.0         0.30          1.4 
       801.0         0.42          2.8 
       802.0         3.95       1528.7 
       803.0         0.60         39.3 
       804.0         0.53          9.1 
       805.0         0.63          0.6 
       806.0         0.37         -2.6 
       807.0         0.45         -2.9 
       808.0         0.17         -2.5 
       809.0         0.37         -3.1 
       810.0         0.17         -3.0 
       811.0         0.27         -2.6 
       812.0         0.40         -2.5 
       813.0         0.30         -2.4 
       814.0         0.40         -2.4 
       815.0         0.50         -2.6 
       816.0         0.30         -2.7 
       817.0         0.32         -2.3 
       818.0         0.40         -2.4 
       819.0         0.40         -2.2 
       820.0         0.30         -2.3 
       821.0         0.20         -2.7 
       822.0         0.30         -2.3 
       823.0         0.30         -2.4 
       824.0         0.50         -2.3 
       825.0         0.30         -2.7 
       826.0         0.20         -3.0 
       827.0         0.42         -2.5 
       828.0         0.50         -2.7 
       829.0         0.50         -2.2 
       830.0         0.30         -2.1 
       831.0         0.60          0.0 
       832.0         5.07       1747.5 
       833.0         0.27          5.2 
       834.0         0.27          2.0 
       835.0         0.37          0.3 
       836.0         0.27         -1.5 
       837.0         0.43         -2.1 
       838.0         0.27         -2.2 
       839.0         0.47         -2.5 
       840.0         0.33         -2.8 
       841.0         0.48         -3.0 
       842.0         0.20         -3.0 
       843.0         0.40         -2.8 
       844.0         0.20         -2.9 
       845.0         0.40         -2.6 
       846.0         0.20         -3.2 
