~Version Information
VERS.                      2.0: CWLS Log ASCII Standard - VERSION 2.0
WRAP.                       NO: One line per depth step
~Well Information Block
STRT.FT               880.0000: 
STOP.FT              1996.5000: 
STEP.FT                 0.1000: 
NULL.                -999.2500: 
COMP.          Petrogulf Corporation: COMPANY
WELL.          Collister 17-31R: WELL
FLD.           Purgatorie River: FIELD
LOC.           962' FNL & 1520' FEL: LOCATION
PROV.                 Colorado: PROVINCE
CNTY.               Las Animas: COUNTRY
SRVC.                Patterson: SERVICE COMPANY
DATE.          Mon Sep 26 09:28:52 2005: LOG DATE
UWI.                          : UNIQUE WELL ID
~Curve Information Block
DEPT.FT            0 000 00 00: Depth
DCAL.in                       : CDL Caliper
RHOB.g/cc                     : CDL Bulk Density
RHOC.g/cc                     : CDL Density Correction
DPOR.pu                       : CDL Density Porosity
GR.GAPI                       : Gamma Ray
NPOR.pu                       : Neutron Porosity
~Parameter Information Block
~A  Depth       DCAL        RHOB        RHOC        DPOR         GR         NPOR    
# ...
  1024.0000      8.0669      2.6330      0.0691      1.0313    108.6261     18.9666
  1024.1000      8.0669      2.6501      0.0631     -0.0079    110.3301     18.5877
  1024.2000      8.0669      2.6661      0.0863     -0.9777    110.4149     18.4741
  1024.3000      8.0669      2.6696      0.1138     -1.1899    109.1422     19.0314
  1024.4000      8.0669      2.6698      0.0265     -1.1973    106.4379     19.8389
  1024.5000      8.0763      2.6722      0.0994     -1.3451    103.2788     20.3803
  1024.6000      8.0763      2.6638      0.0147     -0.8390    104.2947     20.5253
  1024.7000      8.0763      2.6440      0.0379      0.3620    110.0534     20.5463
  1024.8000      8.0711      2.6208      0.0559      1.7703    115.1129     20.6943
  1024.9000      8.0711      2.5993      0.0133      3.0747    117.1163     20.9237
  1025.0000      8.0671      2.5837      0.0113      4.0170    118.9633     21.0809
  1025.1000      8.0671      2.5703     -0.0026      4.8322    122.5033     20.9818
  1025.2000      8.0671      2.5592     -0.0297      5.5022    126.5485     20.8190
  1025.3000      8.0670      2.5692     -0.0223      4.8987    129.8205     21.2051
  1025.4000      8.0670      2.6057      0.0489      2.6874    130.3824     22.1884
  1025.5000      8.0714      2.6390      0.1319      0.6690    128.8434     23.2500
  1025.6000      8.0714      2.6432      0.0319      0.4141    129.8293     23.8383
  1025.7000      8.0714      2.6308      0.0323      1.1665    133.2320     23.9393
  1025.8000      8.0895      2.6220      0.0671      1.6980    134.3962     24.0688
  1025.9000      8.0895      2.6220      0.0474      1.6943    132.2863     24.5019
  1026.0000      8.0929      2.6290      0.0123      1.2749    130.6160     25.0603
  1026.1000      8.0929      2.6321      0.0521      1.0841    131.9553     25.4605
  1026.2000      8.0929      2.6243      0.0323      1.5561    135.1544     25.5897
  1026.3000      8.0950      2.6176      0.0353      1.9624    139.5522     25.6543
  1026.4000      8.0950      2.6210      0.0642      1.7595    143.8505     25.7261
  1026.5000      8.1086      2.6284      0.0403      1.3094    143.8578     25.6418
  1026.6000      8.1086      2.6400      0.0406      0.6048    139.9930     25.4782
  1026.7000      8.1086      2.6557      0.0530     -0.3460    138.8281     25.3374
  1026.8000      8.1049      2.6614      0.0796     -0.6917    141.3166     25.1852
  1026.9000      8.1049      2.6504      0.0382     -0.0259    142.1267     25.1595
  1027.0000      8.1067      2.6362      0.0286      0.8387    140.3071     25.4540
  1027.1000      8.1067      2.6236      0.0526      1.5994    138.2734     25.7556
  1027.2000      8.1067      2.6011      0.0523      2.9650    137.2082     25.7021
  1027.3000      8.0976      2.5697     -0.0070      4.8693    137.7615     25.6394
  1027.4000      8.0976      2.5427      0.0251      6.5002    138.1198     25.9349
  1027.5000      8.1090      2.5276     -0.0178      7.4203    137.4290     26.3793
  1027.6000      8.1090      2.5295      0.0220      7.3059    138.2603     26.7291
  1027.7000      8.1090      2.5464      0.0144      6.2773    141.4150     26.9970
  1027.8000      8.1183      2.5680      0.0574      4.9667    144.3856     27.1831
  1027.9000      8.1183      2.5899      0.0404      3.6418    146.0713     27.2245
  1028.0000      8.1463      2.6101      0.0554      2.4169    146.7754     27.1570
  1028.1000      8.1463      2.6185      0.0779      1.9083    144.8009     27.2002
  1028.2000      8.1463      2.6138      0.0934      2.1959    140.4636     27.4887
  1028.3000      8.1612      2.6083      0.1124      2.5248    135.4460     27.6884
  1028.4000      8.1612      2.6144      0.0750      2.1564    129.7774     27.5465
  1028.5000      8.1620      2.6353      0.0689      0.8922    126.7517     27.4079
  1028.6000      8.1620      2.6558      0.0905     -0.3508    126.7790     27.4125
  1028.7000      8.1620      2.6603      0.1047     -0.6230    123.7917     27.2773
  1028.8000      8.1568      2.6518      0.1061     -0.1111    116.0393     26.8617
  1028.9000      8.1568      2.6373      0.0990      0.7712    107.9365     26.1190
  1029.0000      8.1552      2.6236      0.0760      1.5970    101.8801     25.0606
  1029.1000      8.1552      2.6259      0.0764      1.4632     97.2803     23.9164
  1029.2000      8.1552      2.6393      0.0842      0.6500     93.3315     22.8948
  1029.3000      8.1453      2.6355      0.0802      0.8816     90.0342     22.1429
  1029.4000      8.1453      2.6100      0.0252      2.4223     87.5848     21.6728
  1029.5000      8.1255      2.5873      0.0026      3.8003     85.2325     21.4355
  1029.6000      8.1255      2.5749      0.0370      4.5494     82.8372     21.4633
  1029.7000      8.1255      2.5598      0.0117      5.4661     80.2590     21.4753
  1029.8000      8.1289      2.5419      0.0121      6.5534     77.2271     21.1260
  1029.9000      8.1289      2.5382     -0.0331      6.7748     75.1229     20.5993
  1030.0000      8.1288      2.5510      0.0623      5.9992     75.9428     20.1875
  1030.1000      8.1288      2.5554      0.0791      5.7349     79.0315     19.8505
  1030.2000      8.1288      2.5381      0.0385      6.7841     82.5781     19.5629
  1030.3000      8.1286      2.5133      0.0393      8.2825     85.1093     19.4308
  1030.4000      8.1286      2.4975      0.0249      9.2432     84.1716     19.3769
  1030.5000      8.1173      2.4964      0.0177      9.3087     79.8359     19.1410
  1030.6000      8.1173      2.5064      0.0475      8.7002     76.5962     18.6572
  1030.7000      8.1173      2.5167      0.0743      8.0761     77.7035     17.9786
  1030.8000      8.0883      2.5203     -0.0005      7.8587     79.9486     17.2628
  1030.9000      8.0883      2.5151      0.0759      8.1743     78.8367     17.0894
  1031.0000      8.0452      2.5019      0.0246      8.9770     75.5460     17.7114
  1031.1000      8.0452      2.4951      0.0354      9.3878     74.3075     18.5245
  1031.2000      8.0452      2.5037      0.0531      8.8644     75.2216     18.9291
  1031.3000      8.0262      2.5167      0.0527      8.0775     74.1721     18.9144
  1031.4000      8.0262      2.5219      0.0381      7.7630     71.2893     18.7326
  1031.5000      8.0118      2.5154      0.0420      8.1567     69.7626     18.5250
  1031.6000      8.0118      2.4976      0.0341      9.2333     70.5168     18.3263
  1031.7000      8.0118      2.4806     -0.0242     10.2681     72.0841     18.1614
  1031.8000      7.9916      2.4762      0.0259     10.5331     72.3871     18.0626
  1031.9000      7.9916      2.4785      0.0381     10.3918     72.1103     18.0725
  1032.0000      7.9800      2.4814      0.0307     10.2210     73.0160     18.1836
  1032.1000      7.9800      2.4875      0.0241      9.8511     74.2017     18.1641
  1032.2000      7.9800      2.4938      0.0703      9.4637     73.7265     17.9312
  1032.3000      7.9795      2.4959      0.0127      9.3416     72.3669     17.7770
  1032.4000      7.9795      2.5025      0.0320      8.9371     71.7599     17.7998
  1032.5000      7.9785      2.5161      0.0425      8.1181     71.0490     17.8622
  1032.6000      7.9785      2.5228      0.0351      7.7118     69.4576     18.0085
  1032.7000      7.9785      2.5174      0.0732      8.0353     67.9131     18.3891
  1032.8000      7.9868      2.5051      0.0719      8.7828     66.8426     18.7661
  1032.9000      7.9868      2.4937     -0.0059      9.4755     65.6598     18.8352
  1033.0000      7.9975      2.4947      0.0283      9.4102     66.6911     18.9111
  1033.1000      7.9975      2.5130     -0.0128      8.3052     71.4333     19.2478
  1033.2000      7.9975      2.5390      0.0261      6.7263     75.5331     19.5159
  1033.3000      8.0023      2.5583      0.0375      5.5553     75.9670     19.5291
  1033.4000      8.0023      2.5684      0.0516      4.9484     75.3594     19.3911
  1033.5000      8.0073      2.5744      0.0611      4.5789     76.3584     19.0436
