~Version Information
VERS.                      2.0: CWLS Log ASCII Standard - VERSION 2.0
WRAP.                       NO: One line per depth step
~Well Information Block
STRT.FT               240.0000: 
STOP.FT              1677.0000: 
STEP.FT                 0.1000: 
NULL.                -999.2500: 
COMP.          Pioneer Natural Resources: COMPANY
WELL.          Lorencito 8-1-34-67: WELL
FLD.           Purgatoire River: FIELD
LOC.           1567' FNL & 500' FEL: LOCATION
STAT.                 Colorado: State
CTRY. USA : Country 
CNTY.               Las Animas: COUNTY
SECT. 1 : Section 
TOWN. 34S : Township
RANG. 67W : Range
SRVC.                Patterson: SERVICE COMPANY
DATE.          Fri Aug 26 09:30:14 2005: LOG DATE
API.           05 071 08506 00: UNIQUE WELL ID
~Curve Information Block
DEPT.FT            0 000 00 00: Depth
DCAL.in                       : CDL Caliper
RHOB.g/cc                     : CDL Bulk Density
RHOC.g/cc                     : CDL Density Correction
DPOR.pu                       : CDL Density Porosity
GR.GAPI                       : Gamma Ray
NPOR.pu                       : Neutron Porosity
~Parameter Information Block
~A  Depth       DCAL        RHOB        RHOC        DPOR         GR         NPOR    
# ...
  1372.8000      8.1101      2.5469      0.0880      6.2493    148.9090     23.2896
  1372.9000      8.1101      2.5268      0.1263      7.4688    149.4893     23.2418
  1373.0000      8.0513      2.5086      0.0845      8.5712    150.2256     23.2977
  1373.1000      8.0513      2.4924      0.1271      9.5517    150.7478     23.5120
  1373.2000      8.0513      2.4715      0.0789     10.8179    152.8246     23.4924
  1373.3000      8.0180      2.4507      0.0390     12.0791    154.0339     23.1999
  1373.4000      8.0180      2.4413      0.0531     12.6488    151.6190     23.0838
  1373.5000      8.0353      2.4503      0.0086     12.1003    150.0950     23.2955
  1373.6000      8.0353      2.4764      0.0686     10.5209    154.9455     23.5563
  1373.7000      8.0353      2.5084      0.0748      8.5818    166.8242     23.4763
  1373.8000      8.0360      2.5372      0.0788      6.8337    176.8334     23.0474
  1373.9000      8.0360      2.5486      0.1324      6.1484    172.4089     22.6110
  1374.0000      8.0338      2.5266      0.0866      7.4785    157.1142     22.0603
  1374.1000      8.0338      2.4902      0.0116      9.6848    141.3136     21.0359
  1374.2000      8.0338      2.4683      0.0148     11.0143    130.1672     19.8483
  1374.3000      8.0397      2.4497     -0.0123     12.1388    126.0255     19.2530
  1374.4000      8.0397      2.4091      0.0162     14.5982    125.0247     19.2424
  1374.5000      8.0345      2.3473     -0.0495     18.3431    123.4638     19.0676
  1374.6000      8.0345      2.2888     -0.0688     21.8899    122.6042     18.5369
  1374.7000      8.0345      2.2468     -0.0241     24.4394    122.0079     18.2738
  1374.8000      8.0114      2.2089     -0.0273     26.7347    120.6532     18.6155
  1374.9000      8.0114      2.1721     -0.0427     28.9611    119.6687     19.1331
  1375.0000      8.0412      2.1547      0.0145     30.0154    119.8878     19.3805
  1375.1000      8.0412      2.1640      0.0264     29.4573    119.8495     19.4989
  1375.2000      8.0412      2.1919      0.0328     27.7655    118.2229     20.0068
  1375.3000      8.0291      2.2254      0.0917     25.7346    114.1552     20.9651
  1375.4000      8.0291      2.2544      0.0977     23.9738    109.7966     21.7705
  1375.5000      8.0398      2.2914      0.0780     21.7316    108.4707     22.0249
  1375.6000      8.0398      2.3563      0.1064     17.8015    110.4502     21.8070
  1375.7000      8.0398      2.4408      0.1363     12.6806    114.4108     21.5683
  1375.8000      8.0461      2.5052      0.1813      8.7788    119.0289     21.7847
  1375.9000      8.0461      2.5223      0.0937      7.7415    121.5459     22.4340
  1376.0000      8.0377      2.5099      0.0960      8.4896    120.7971     23.1151
  1376.1000      8.0377      2.4984      0.0212      9.1898    121.9547     23.5898
  1376.2000      8.0377      2.5019      0.0092      8.9767    123.1806     23.8645
  1376.3000      7.9779      2.5132      0.0745      8.2933    119.5888     23.8650
  1376.4000      7.9779      2.5231      0.0010      7.6885    118.5947     23.7084
  1376.5000      7.9708      2.5335     -0.0075      7.0630    123.4877     23.6108
  1376.6000      7.9708      2.5407      0.0579      6.6260    126.4335     23.6448
  1376.7000      7.9708      2.5418      0.0256      6.5594    124.3807     23.8187
  1376.8000      7.9887      2.5409      0.0050      6.6145    119.1797     23.8213
  1376.9000      7.9887      2.5459     -0.0131      6.3085    111.6713     23.4553
  1377.0000      8.0504      2.5612      0.0531      5.3815    105.3110     23.2830
  1377.1000      8.0504      2.5717      0.0456      4.7470    103.2836     23.4788
  1377.2000      8.0504      2.5653      0.0339      5.1350    103.2769     23.5760
  1377.3000      8.0565      2.5556      0.0482      5.7187    104.1994     23.7400
  1377.4000      8.0565      2.5519      0.0273      5.9455    107.7042     24.2176
  1377.5000      8.0503      2.5443      0.0362      6.4054    112.1673     24.6043
  1377.6000      8.0503      2.5295      0.0221      7.3008    116.3483     24.7337
  1377.7000      8.0503      2.5228      0.0103      7.7106    120.7570     24.6753
  1377.8000      8.0383      2.5372      0.0191      6.8390    122.8351     24.3318
  1377.9000      8.0383      2.5548      0.0764      5.7726    124.6443     23.8711
  1378.0000      8.0300      2.5507      0.0286      6.0160    129.7401     23.7414
  1378.1000      8.0300      2.5380     -0.0087      6.7872    134.0046     23.7910
  1378.2000      8.0300      2.5429      0.0174      6.4880    129.8748     23.4342
  1378.3000      8.0332      2.5655      0.0230      5.1216    120.3703     22.7519
  1378.4000      8.0332      2.5886      0.0350      3.7223    116.2199     22.5260
  1378.5000      8.0353      2.5959      0.0395      3.2787    116.7778     23.0500
  1378.6000      8.0353      2.5855      0.0055      3.9107    114.4578     23.6831
  1378.7000      8.0353      2.5689      0.0181      4.9169    112.1637     23.8577
  1378.8000      8.0457      2.5507      0.0566      6.0175    116.8658     23.6347
  1378.9000      8.0457      2.5349     -0.0045      6.9729    126.1296     23.1730
  1379.0000      8.0331      2.5338     -0.0120      7.0405    133.7144     22.6292
  1379.1000      8.0331      2.5391      0.0636      6.7205    135.8473     22.3698
  1379.2000      8.0331      2.5282     -0.0107      7.3825    131.8452     22.5545
  1379.3000      7.9975      2.5026      0.0012      8.9338    125.5508     22.7849
  1379.4000      7.9975      2.4808     -0.0183     10.2549    121.1142     22.6534
  1379.5000      7.9800      2.4776     -0.0423     10.4498    118.7548     22.2250
  1379.6000      7.9800      2.4902      0.0368      9.6850    118.3865     22.0146
  1379.7000      7.9800      2.5053      0.0077      8.7701    119.8988     22.2826
  1379.8000      7.9825      2.5173      0.0394      8.0399    123.1401     22.6964
  1379.9000      7.9825      2.5259      0.0584      7.5212    125.5304     23.0890
  1380.0000      7.9897      2.5365      0.0144      6.8761    124.4555     23.5592
  1380.1000      7.9897      2.5499      0.1088      6.0690    121.7095     23.9993
  1380.2000      7.9897      2.5519      0.0569      5.9439    120.7337     24.2309
  1380.3000      8.0121      2.5459      0.0266      6.3072    120.9843     24.3501
  1380.4000      8.0121      2.5448      0.0501      6.3742    122.0608     24.4581
  1380.5000      8.0073      2.5466      0.0298      6.2651    125.8137     24.5474
  1380.6000      8.0073      2.5485      0.0058      6.1539    130.2573     24.5460
  1380.7000      8.0073      2.5481      0.0642      6.1745    132.2214     24.5693
  1380.8000      7.9600      2.5392      0.0778      6.7149    130.3633     24.7511
  1380.9000      7.9600      2.5254      0.0087      7.5544    125.7444     25.1219
  1381.0000      7.9517      2.5191     -0.0179      7.9344    122.9471     25.4006
  1381.1000      7.9517      2.5244      0.0235      7.6127    128.0847     24.9877
  1381.2000      7.9517      2.5363      0.0410      6.8927    134.8094     24.2146
  1381.3000      7.9485      2.5514      0.0250      5.9769    131.5825     23.8129
  1381.4000      7.9485      2.5614      0.0604      5.3694    123.1408     23.6902
  1381.5000      7.9865      2.5555      0.0347      5.7288    118.8775     23.6102
  1381.6000      7.9865      2.5418     -0.0044      6.5548    118.4708     23.5469
  1381.7000      7.9865      2.5402     -0.0171      6.6533    119.3196     23.5581
  1381.8000      8.0112      2.5501      0.0315      6.0540    120.1979     23.6825
  1381.9000      8.0112      2.5503      0.0020      6.0454    120.0521     23.7172
  1382.0000      8.0005      2.5278      0.0269      7.4070    121.6511     23.5342
  1382.1000      8.0005      2.4921     -0.0540      9.5712    123.3136     23.2450
  1382.2000      8.0005      2.4677     -0.0581     11.0480    122.3512     22.9788
  1382.3000      8.0187      2.4719     -0.0125     10.7946    121.1527     22.8963
