~Version Information
VERS.                      2.0: CWLS Log ASCII Standard - VERSION 2.0
WRAP.                       NO: One line per depth step
~Well Information Block
STRT.FT               550.0000: 
STOP.FT              1500.5000: 
STEP.FT                 0.2500: 
NULL.                -999.2500: 
COMP.          Pioneer Natural Resources: COMPANY
WELL.          Surtees 23-34 Tr: WELL
FLD.           Purgatoire River: FIELD
LOC.           1559' FSL & 1997' FWL: LOCATION
PROV.                 Colorado: PROVINCE
CNTY.               Las Animas: COUNTRY
SRVC.                Patterson: SERVICE COMPANY
DATE.          Tue Jul 26 23:47:42 2005: LOG DATE
UWI.           05 071 08449 00: UNIQUE WELL ID
~Curve Information Block
DEPT.FT            0 000 00 00: Depth
SN.Ohm-m                      : IEL Short Normal
SP.mV                         : IEL Spontaneous Potential
DIR.Ohm-m                     : IEL Induction Resistivity
GR.GAPI                       : Gamma Ray
~Parameter Information Block
~A  Depth        SN          SP         DIR          GR     
# ...
  1220.0000     16.8199    -23.8607     13.1593    142.8535
  1220.2500     16.9182    -24.2550     13.7628    143.0168
  1220.5000     16.9858    -24.7793     14.3132    140.8808
  1220.7500     17.0668    -25.3711     14.7826    138.5495
  1221.0000     17.2217    -25.9763     15.1608    134.2364
  1221.2500     17.4729    -26.5481     15.4544    130.8588
  1221.5000     17.7683    -27.0507     15.6755    124.8695
  1221.7500     18.0743    -27.4650     15.8277    120.1211
  1222.0000     18.3856    -27.7922     15.9057    111.7112
  1222.2500     18.6762    -28.0501     15.9096    105.3566
  1222.5000     18.9184    -28.2581     15.8609     95.6531
  1222.7500     19.1377    -28.4199     15.7988     90.1621
  1223.0000     19.3929    -28.5199     15.7555     85.4343
  1223.2500     19.6612    -28.5369     15.7318     85.0767
  1223.5000     19.8516    -28.4639     15.6952     87.4662
  1223.7500     19.8860    -28.3186     15.6048     89.6960
  1224.0000     19.5948    -28.1385     15.4450     92.8040
  1224.2500     18.7445    -27.9631     15.2385     95.0620
  1224.5000     17.3609    -27.8120     15.0281     99.9710
  1224.7500     15.7906    -27.6785     14.8483    104.5295
  1225.0000     14.4085    -27.5493     14.7116    112.5316
  1225.2500     13.4582    -27.4353     14.6109    117.8477
  1225.5000     13.0591    -27.3759     14.5306    124.8140
  1225.7500     13.1942    -27.4059     14.4578    128.6919
  1226.0000     13.7052    -27.5226     14.3884    133.8324
  1226.2500     14.3480    -27.6900     14.3298    137.2224
  1226.5000     14.9138    -27.8729     14.2993    142.9077
  1226.7500     15.3226    -28.0618     14.3213    147.2085
  1227.0000     15.6386    -28.2708     14.4260    153.4848
  1227.2500     16.0069    -28.5207     14.6456    156.4007
  1227.5000     16.5101    -28.8187     15.0079    157.2288
  1227.7500     17.1166    -29.1466     15.5256    155.3661
  1228.0000     17.8050    -29.4633     16.1868    150.2141
  1228.2500     18.6409    -29.7218     16.9516    146.0107
  1228.5000     19.6861    -29.8920     17.7582    139.0460
  1228.7500     20.9142    -29.9746     18.5385    133.6940
  1229.0000     22.2595    -29.9974     19.2330    123.9279
  1229.2500     23.7335    -29.9972     19.7918    116.3223
  1229.5000     25.4697    -29.9986     20.1625    104.6735
  1229.7500     27.6267    -30.0051     20.2847     97.9724
  1230.0000     30.1758    -30.0067     20.1130     91.0290
  1230.2500     32.8062    -29.9941     19.6564     88.5566
  1230.5000     35.1053    -29.9711     19.0020     87.1348
  1230.7500     36.7887    -29.9565     18.3007     87.1337
  1231.0000     37.7601    -29.9771     17.7414     88.3234
  1231.2500     38.0968    -30.0542     17.5489     90.0198
  1231.5000     38.0531    -30.1936     18.0296     93.5786
  1231.7500     37.9287    -30.3911     19.7214     95.9908
  1232.0000     37.7861    -30.6452     23.8825     98.5239
  1232.2500     37.4135    -30.9644     34.7310     99.1874
  1232.5000     36.6844    -31.3598     81.7703     98.8933
  1232.7500     35.7931    -31.8352 100000.0000     98.3532
  1233.0000     35.0440    -32.3841 100000.0000     98.3717
  1233.2500     34.6002    -32.9935 100000.0000     99.6541
  1233.5000     34.4316    -33.6474 100000.0000    103.4580
  1233.7500     34.3460    -34.3239 100000.0000    106.2528
  1234.0000     34.1776    -34.9905 100000.0000    108.6556
  1234.2500     33.9423    -35.6107 100000.0000    108.4969
  1234.5000     33.7309    -36.1689 100000.0000    106.2272
  1234.7500     33.6097    -36.6955 100000.0000    103.9896
  1235.0000     33.6160    -37.2632 100000.0000    100.0210
  1235.2500     33.7215    -37.9533 100000.0000     96.8974
  1235.5000     33.8313    -38.8306    400.8466     91.4561
  1235.7500     33.8807    -39.9557    168.2909     87.7386
  1236.0000     33.8814    -41.4049    853.4086     83.7166
  1236.2500     33.8331    -43.2654 100000.0000     83.2080
  1236.5000     33.6963    -45.6192 100000.0000     86.3071
  1236.7500     33.5012    -48.5503 100000.0000     89.9601
  1237.0000     33.3683    -52.1681 100000.0000     94.7173
  1237.2500     33.3277    -56.6140 100000.0000     96.0494
  1237.5000     33.1862    -62.0402 100000.0000     95.3300
  1237.7500     32.6976    -68.5861 100000.0000     94.0462
  1238.0000     31.8195    -76.3773 100000.0000     92.3179
  1238.2500     30.6992    -85.5434 100000.0000     91.4162
  1238.5000     29.4531    -96.2244 100000.0000     90.2279
  1238.7500     28.1002   -108.5440      7.8636     89.6706
  1239.0000     26.6570   -122.5451      2.2127     89.5791
  1239.2500     25.0640   -138.1124      1.1153     89.9493
  1239.5000     23.0529   -154.9210      0.6928     90.4258
  1239.7500     20.2708   -172.4359      0.4884     90.1609
  1240.0000     16.5744   -189.9567      0.3846     88.2302
  1240.2500     12.2792   -206.6914      0.3429     85.8003
  1240.5000      8.1730   -221.8547      0.3528     80.6850
  1240.7500      5.0698   -234.8036      0.4217     76.6040
  1241.0000      3.1934   -245.1940      0.5815     70.1458
  1241.2500      2.1751   -253.0512      0.9290     66.0510
  1241.5000      1.6494   -258.6309      1.8236     60.7967
  1241.7500      1.4957   -262.1098      5.7645     57.9210
  1242.0000      1.5819   -263.3378 100000.0000     54.1008
  1242.2500      1.6734   -261.8515 100000.0000     51.6185
  1242.5000      1.6266   -257.1399 100000.0000     48.1248
  1242.7500      1.5034   -248.9932 100000.0000     46.4465
  1243.0000      1.3984   -237.7439 100000.0000     46.1979
  1243.2500      1.2851   -224.2652 100000.0000     48.2251
  1243.5000      1.1319   -209.7054 100000.0000     54.7840
  1243.7500      0.9984   -195.0949 100000.0000     60.7608
  1244.0000      0.9281   -181.0681 100000.0000     69.5645
  1244.2500      0.9027   -167.8508 100000.0000     73.6564
  1244.5000      0.9487   -155.4365 100000.0000     75.2940
  1244.7500      1.1997   -143.7551 100000.0000     73.2971
  1245.0000      2.0136   -132.7408      4.0896     66.9458
  1245.2500      4.2895   -122.3379      1.1052     61.6161
  1245.5000      9.3448   -112.5070      0.4741     53.8351
  1245.7500     17.7540   -103.2459      0.2344     49.5595
  1246.0000     28.2102    -94.6125      0.1314     45.2404
  1246.2500     37.9805    -86.7305      0.0918     44.0069
  1246.5000     44.5648    -79.7454      0.0851     45.1607
  1246.7500     46.8497    -73.7220      0.1041     48.4153
  1247.0000     45.1614    -68.5338      0.1585     57.9551
  1247.2500     40.7719    -63.8470      0.2760     67.7359
  1247.5000     35.2155    -59.2633      0.5163     87.0075
  1247.7500     29.7098    -54.5530      1.0774    101.7176
  1248.0000     24.9973    -49.8004      3.0958    123.1760
  1248.2500     21.3911    -45.3321 100000.0000    135.0626
  1248.5000     18.7884    -41.4803 100000.0000    147.5956
  1248.7500     16.8257    -38.3746 100000.0000    152.7033
  1249.0000     15.1735    -35.9201 100000.0000    156.6903
  1249.2500     13.6739    -33.9387 100000.0000    157.3444
  1249.5000     12.3327    -32.3089 100000.0000    156.0372
  1249.7500     11.2794    -30.9828 100000.0000    154.3406
  1250.0000     10.6382    -29.9273    130.3414    151.6164
  1250.2500     10.4346    -29.0958     22.9618    149.7560
  1250.5000     10.5983    -28.4484     15.1904    146.5892
  1250.7500     10.9216    -27.9622     13.3108    144.4563
  1251.0000     11.1345    -27.6168     13.5093    142.3979
  1251.2500     11.1212    -27.3899     15.4610    142.2285
  1251.5000     10.9069    -27.2697     20.9037    143.2365
  1251.7500     10.5155    -27.2572     41.7794    144.0354
  1252.0000     10.0038    -27.3513 100000.0000    144.6605
  1252.2500      9.5083    -27.5414 100000.0000    144.7080
  1252.5000      9.1328    -27.8145 100000.0000    144.5910
  1252.7500      8.8793    -28.1628 100000.0000    144.5971
  1253.0000      8.7197    -28.5788 100000.0000    145.0374
  1253.2500      8.6402    -29.0462 100000.0000    145.7157
