~Version Information
VERS.                      2.0: CWLS Log ASCII Standard - VERSION 2.0
WRAP.                       NO: One line per depth step
~Well Information Block
STRT.FT               400.0000: 
STOP.FT              1804.7000: 
STEP.FT                 0.1000: 
NULL.                -999.2500: 
COMP.          Pioneer Natural Resources: COMPANY
WELL.           Lynch 43-30 Tr: WELL
FLD.           Purgatoire River: FIELD
LOC.           1431' FSL & 296' FEL--: LOCATION
PROV.                 Colorado: PROVINCE
CNTY.               Las Animas: COUNTRY
SRVC.                Patterson: SERVICE COMPANY
DATE.          Thu Jul 28 10:43:37 2005: LOG DATE
UWI.           05 071 08447 00: UNIQUE WELL ID
~Curve Information Block
DEPT.FT            0 000 00 00: Depth
DCAL.in                       : CDL Caliper
RHOB.g/cc                     : CDL Bulk Density
RHOC.g/cc                     : CDL Density Correction
DPOR.pu                       : CDL Density Porosity
NPOR.pu                       : Neutron Porosity
GR.GAPI                       : Gamma Ray
~Parameter Information Block
~A  Depth       DCAL        RHOB        RHOC        DPOR        NPOR         GR     
# ...
   496.0000      8.0811      2.5746      0.0751      4.5672     28.7443    138.8378
   496.1000      8.0811      2.5468      0.0325      6.2546     28.1310    139.2070
   496.2000      8.0811      2.5244      0.0384      7.6139     27.3508    144.5737
   496.3000      8.0819      2.5189      0.0366      7.9483     26.3969    145.0483
   496.4000      8.0819      2.5266      0.0429      7.4773     25.6349    136.5685
   496.5000      8.0813      2.5367      0.0552      6.8688     25.2494    127.9000
   496.6000      8.0813      2.5349      0.0662      6.9741     25.1030    126.5021
   496.7000      8.0813      2.5204      0.0440      7.8561     25.0313    130.0472
   496.8000      8.0793      2.5055      0.0546      8.7582     24.7412    131.8331
   496.9000      8.0793      2.4954      0.0480      9.3724     24.2515    131.9079
   497.0000      8.0783      2.4857      0.0587      9.9567     24.0993    134.1058
   497.1000      8.0783      2.4755      0.0475     10.5738     24.4693    136.9135
   497.2000      8.0783      2.4752      0.0483     10.5960     24.6936    134.8936
   497.3000      8.0783      2.4959      0.0511      9.3418     24.3967    126.6492
   497.4000      8.0783      2.5292      0.0821      7.3208     23.9952    122.3308
   497.5000      8.0791      2.5496      0.0936      6.0845     23.8865    130.4981
   497.6000      8.0791      2.5491      0.0772      6.1136     24.2220    142.7912
   497.7000      8.0791      2.5486      0.0642      6.1484     24.8358    146.5953
   497.8000      8.0791      2.5612      0.0856      5.3816     25.3129    141.2012
   497.9000      8.0791      2.5781      0.0818      4.3546     25.5364    134.6912
   498.0000      8.0803      2.5928      0.0814      3.4697     25.6008    134.6965
   498.1000      8.0803      2.6060      0.0860      2.6662     25.5438    141.8294
   498.2000      8.0803      2.6172      0.0811      1.9855     25.4540    148.0035
   498.3000      8.0815      2.6226      0.0866      1.6635     25.4833    146.0494
   498.4000      8.0815      2.6157      0.0772      2.0792     25.9184    138.7321
   498.5000      8.0806      2.5949      0.0694      3.3374     26.6760    132.3420
   498.6000      8.0806      2.5727      0.0459      4.6851     27.3610    127.7976
   498.7000      8.0806      2.5727      0.0295      4.6833     27.9301    125.5640
   498.8000      8.0789      2.6007      0.0621      2.9852     28.6550    126.5620
   498.9000      8.0789      2.6330      0.0644      1.0308     29.4208    127.6244
   499.0000      8.0778      2.6461      0.0755      0.2366     29.6337    129.9317
   499.1000      8.0778      2.6372      0.0552      0.7748     29.2548    135.7181
   499.2000      8.0778      2.6208      0.0473      1.7709     29.0785    138.5694
   499.3000      8.0784      2.6116      0.0357      2.3247     29.3312    133.0260
   499.4000      8.0784      2.6123      0.0454      2.2878     29.6772    121.6994
   499.5000      8.0803      2.6175      0.0350      1.9704     30.0291    113.2363
   499.6000      8.0803      2.6234      0.0435      1.6113     30.1013    115.6731
   499.7000      8.0803      2.6247      0.0406      1.5360     29.7288    124.9866
   499.8000      8.0812      2.6157      0.0384      2.0763     29.1008    130.3569
   499.9000      8.0812      2.5979      0.0318      3.1601     28.7127    129.6906
   500.0000      8.0806      2.5829      0.0103      4.0687     28.8909    127.7174
   500.1000      8.0806      2.5810      0.0279      4.1809     29.1354    128.3896
   500.2000      8.0806      2.5875      0.0248      3.7896     28.9717    133.7656
   500.3000      8.0801      2.5926      0.0358      3.4779     28.6970    139.0717
   500.4000      8.0801      2.5892      0.0359      3.6846     28.4177    138.1475
   500.5000      8.0776      2.5744      0.0375      4.5806     27.8697    133.8488
   500.6000      8.0776      2.5552      0.0231      5.7436     27.3811    131.2959
   500.7000      8.0776      2.5418      0.0277      6.5591     27.3587    131.0975
   500.8000      8.0696      2.5322      0.0379      7.1388     27.5008    131.2598
   500.9000      8.0696      2.5214      0.0319      7.7963     27.5293    131.9843
   501.0000      8.0570      2.5179      0.0278      8.0037     27.4954    135.2519
   501.1000      8.0570      2.5308      0.0427      7.2225     27.4510    140.0207
   501.2000      8.0570      2.5489      0.0657      6.1296     27.4140    143.0037
   501.3000      8.0495      2.5539      0.0672      5.8242     27.4831    143.7109
   501.4000      8.0495      2.5442      0.0602      6.4096     27.6828    144.9739
   501.5000      8.0493      2.5316      0.0617      7.1742     27.6242    145.6254
   501.6000      8.0493      2.5303      0.0498      7.2563     27.1725    144.0648
   501.7000      8.0493      2.5475      0.0632      6.2134     27.0648    145.9505
   501.8000      8.0474      2.5692      0.0877      4.8989     27.6708    154.1116
   501.9000      8.0474      2.5739      0.0806      4.6146     28.4920    161.1507
   502.0000      8.0403      2.5594      0.0734      5.4939     28.8902    158.4178
   502.1000      8.0403      2.5364      0.0639      6.8824     28.4796    150.2977
   502.2000      8.0403      2.5139      0.0624      8.2475     27.5755    146.3924
   502.3000      8.0322      2.4990      0.0453      9.1535     27.1084    145.8188
   502.4000      8.0322      2.4924      0.0696      9.5537     27.3942    146.5132
   502.5000      8.0279      2.4865      0.0598      9.9119     27.6092    151.0755
   502.6000      8.0279      2.4803      0.0667     10.2863     27.0472    153.5862
   502.7000      8.0279      2.4778      0.0758     10.4342     26.0031    149.2247
   502.8000      8.0294      2.4820      0.0764     10.1824     25.2379    146.6916
   502.9000      8.0294      2.4926      0.0982      9.5421     25.1140    148.5697
   503.0000      8.0353      2.5024      0.1073      8.9440     25.3999    146.8832
   503.1000      8.0353      2.5073      0.1145      8.6464     25.4985    140.6150
   503.2000      8.0353      2.5128      0.1152      8.3178     25.0793    136.0620
   503.3000      8.0398      2.5244      0.1267      7.6127     24.6941    132.7544
   503.4000      8.0398      2.5383      0.1400      6.7682     24.9902    128.1386
   503.5000      8.0387      2.5472      0.1378      6.2324     25.6967    125.5663
   503.6000      8.0387      2.5475      0.1472      6.2138     26.2151    125.8489
   503.7000      8.0387      2.5397      0.1330      6.6869     26.3598    125.7912
   503.8000      8.0340      2.5274      0.1353      7.4276     26.0127    125.0487
   503.9000      8.0340      2.5135      0.1229      8.2739     25.3294    126.8087
   504.0000      8.0290      2.5010      0.1215      9.0308     25.1242    130.4495
   504.1000      8.0290      2.4969      0.1053      9.2763     25.6478    131.4684
   504.2000      8.0290      2.5040      0.1191      8.8497     26.1447    130.5291
   504.3000      8.0265      2.5138      0.1213      8.2572     26.2999    129.7730
   504.4000      8.0265      2.5233      0.1113      7.6783     26.2930    129.8381
   504.5000      8.0258      2.5394      0.1161      6.7047     26.1353    133.4530
   504.6000      8.0258      2.5585      0.1291      5.5428     26.0247    138.2079
   504.7000      8.0258      2.5682      0.1259      4.9587     25.8863    136.0209
   504.8000      8.0263      2.5657      0.1182      5.1109     25.6458    128.9731
   504.9000      8.0263      2.5612      0.1038      5.3817     25.5462    125.8420
   505.0000      8.0270      2.5645      0.1060      5.1813     25.6278    125.9762
   505.1000      8.0270      2.5758      0.0980      4.4994     25.7439    123.9799
   505.2000      8.0270      2.5869      0.1090      3.8267     25.8221    118.7589
   505.3000      8.0273      2.5911      0.0936      3.5724     25.9705    113.0272
   505.4000      8.0273      2.5956      0.0836      3.2966     26.0762    112.4306
   505.5000      8.0286      2.6116      0.0806      2.3275     25.9510    117.8117
