~Version Information
VERS.                      2.0: CWLS Log ASCII Standard - VERSION 2.0
WRAP.                       NO: One line per depth step
~Well Information Block
STRT.FT                -8.5000: 
STOP.FT              1945.2500: 
STEP.FT                 0.2500: 
NULL.                -999.2500: 
COMP.          Pioneer Natural Resources: COMPANY
WELL.          Flying Horse 12-11 Tr: WELL
FLD.           Purgatorie River: FIELD
LOC.           2459' FNL & 410' FWL: LOCATION
STAT.                       CO: PROVINCE
CNTY.               Las Animas: COUNTY
CTRY.        USA : Country
SECT. 11 : Section
TOWN. 32S : Township
RANG. 66W : Range
SRVC.          Patterson Wireline: SERVICE COMPANY
DATE.          Thu Sep 08 15:44:22 2005: LOG DATE
API.           05 071 08485 00: UNIQUE WELL ID
~Curve Information Block
DEPT.FT            0 000 00 00: Depth
CCL.                          : Casing Collar Locator
TT3.usec                      : CBL 3' Travel Time
AMP3.mV                       : CBL 3' Amplitude
GR.GAPI                       : Gamma Ray
~Parameter Information Block
~A  Depth       CCL         TT3         AMP3         GR     
# ...
  1633.0000      0.0000    745.6323     20.7152    123.1247
  1633.2500      0.0000    723.1182     20.2139    123.9240
  1633.5000      0.0000    714.5876     19.1909    124.6737
  1633.7500      0.0000    726.5752     17.8247    125.7551
  1634.0000      0.0000    752.2326     16.4190    126.4962
  1634.2500      0.0000    777.9753     15.2373    125.7570
  1634.5000      0.0000    794.9893     14.3826    122.9887
  1634.7500      0.0000    802.6736     13.8124    118.9290
  1635.0000      0.0000    804.2612     13.4390    115.5845
  1635.2500      0.0000    802.7628     13.2109    115.4743
  1635.5000      0.0000    800.3142     13.1228    120.1929
  1635.7500      0.0000    798.1722     13.1883    128.9194
  1636.0000      0.0000    795.5809     13.4306    138.2742
  1636.2500      0.0000    788.6940     13.8951    144.3259
  1636.5000      0.0000    772.1330     14.6313    145.3027
  1636.7500      0.0000    744.6323     15.6109    142.3602
  1637.0000      0.0000    714.4572     16.6570    137.7235
  1637.2500      0.0000    696.1317     17.4920    132.4615
  1637.5000      0.0000    698.0015     17.8963    126.2790
  1637.7500      0.0000    714.2502     17.8355    119.0904
  1638.0000      0.0000    731.7657     17.4414    112.2548
  1638.2500      0.0000    742.6044     16.8886    107.9694
  1638.5000      0.0000    747.0278     16.3038    107.5743
  1638.7500      0.0000    747.4189     15.7700    110.6383
  1639.0000      0.0000    743.8450     15.3639    115.5687
  1639.2500      0.0000    735.5341     15.1431    120.7857
  1639.5000      0.0000    723.9480     15.0946    125.4390
  1639.7500      0.0000    713.0797     15.1229    129.4475
  1640.0000      0.0000    706.8279     15.1079    132.8622
  1640.2500      0.0000    706.1134     14.9804    135.0052
  1640.5000      0.0000    708.7477     14.7485    134.5715
  1640.7500      0.0000    711.8969     14.4656    131.0188
  1641.0000      0.0000    714.3209     14.1813    125.6750
  1641.2500      0.0000    716.5154     13.9221    121.1096
  1641.5000      0.0000    719.5192     13.6987    119.4783
  1641.7500      0.0000    723.9313     13.5166    121.3989
  1642.0000      0.0000    729.8188     13.3797    125.9177
  1642.2500      0.0000    737.1091     13.2915    131.2436
  1642.5000      0.0000    745.5939     13.2550    135.6333
  1642.7500      0.0000    754.4016     13.2682    137.6040
  1643.0000      0.0000    761.7292     13.3212    135.7993
  1643.2500      0.0000    765.2861     13.4022    129.6423
  1643.5000      0.0000    763.2064     13.5003    120.2891
  1643.7500      0.0000    755.2443     13.6006    110.4715
  1644.0000      0.0000    743.5839     13.6807    103.3431
  1644.2500      0.0000    731.9266     13.7209    101.2172
  1644.5000      0.0000    723.1119     13.7207    104.4077
  1644.7500      0.0000    717.6251     13.7035    110.7952
  1645.0000      0.0000    714.3860     13.7068    116.9760
  1645.2500      0.0000    712.6842     13.7627    120.2800
  1645.5000      0.0000    713.1688     13.8801    119.7906
  1645.7500      0.0000    716.7091     14.0383    115.8448
  1646.0000      0.0000    722.2414     14.2003    109.1809
  1646.2500      0.0000    726.5687     14.3378    100.6935
  1646.5000      0.0000    727.0854     14.4466     91.5798
  1646.7500      0.0000    724.1496     14.5414     83.1397
  1647.0000      0.0000    720.1376     14.6405     76.1902
  1647.2500      0.0000    716.8569     14.7578     70.8349
  1647.5000      0.0000    714.4390     14.8993     66.8562
  1647.7500      0.0000    712.1153     15.0570     64.1580
  1648.0000      0.0000    709.4498     15.2059     62.8206
  1648.2500      0.0000    706.9951     15.3111     62.8990
  1648.5000      0.0000    705.9220     15.3441     64.2739
  1648.7500      0.0000    706.8593     15.2933     66.8027
  1649.0000      0.0000    709.1865     15.1658     70.5003
  1649.2500      0.0000    711.6449     14.9889     75.1574
  1649.5000      0.0000    713.4072     14.8055     79.7815
  1649.7500      0.0000    714.4000     14.6599     83.0908
  1650.0000      0.0000    714.9139     14.5767     84.7915
  1650.2500      0.0000    715.2924     14.5516     85.8363
  1650.5000      0.0000    716.0381     14.5576     87.1557
  1650.7500      0.0000    718.0878     14.5540     88.5411
  1651.0000      0.0000    722.7715     14.4954     89.0520
  1651.2500      0.0000    730.9130     14.3447     88.2720
  1651.5000      0.0000    741.3798     14.0951     86.8813
  1651.7500      0.0000    750.7648     13.7835     86.0176
  1652.0000      0.0000    755.3873     13.4854     86.1657
  1652.2500      0.0000    753.9573     13.2858     86.6200
  1652.5000      0.0000    748.2585     13.2377     86.0481
  1652.7500      0.0000    741.5939     13.3304     83.6500
  1653.0000      0.0000    736.3920     13.4950     79.7734
  1653.2500      0.0000    732.4045     13.6507     75.4818
  1653.5000      0.0000    727.2336     13.7502     71.8100
  1653.7500      0.0000    719.3209     13.7848     69.4665
  1654.0000      0.0000    710.0448     13.7592     68.8113
  1654.2500      0.0000    702.2392     13.6853     69.6739
  1654.5000      0.0000    697.4244     13.6012     71.2657
  1654.7500      0.0000    695.5588     13.5711     72.7777
  1655.0000      0.0000    696.9041     13.6473     74.2828
  1655.2500      0.0000    702.2946     13.8249     76.8043
  1655.5000      0.0000    710.8193     14.0356     81.2720
  1655.7500      0.0000    718.7661     14.1837     87.2733
  1656.0000      0.0000    722.5159     14.2073     92.8305
  1656.2500      0.0000    721.8178     14.1246     95.7750
  1656.5000      0.0000    719.2106     14.0205     95.7346
  1656.7500      0.0000    717.0642     13.9776     94.5944
  1657.0000      0.0000    716.0667     14.0225     94.7673
  1657.2500      0.0000    715.8805     14.1380     97.2790
  1657.5000      0.0000    716.2662     14.3017    101.7200
  1657.7500      0.0000    717.6617     14.4934    107.3459
  1658.0000      0.0000    721.0256     14.6750    113.4602
  1658.2500      0.0000    726.9500     14.7921    119.0051
  1658.5000      0.0000    734.5418     14.8137    122.6552
  1658.7500      0.0000    741.3160     14.7605    123.6762
  1659.0000      0.0000    744.7301     14.6781    122.5451
  1659.2500      0.0000    744.3757     14.5869    120.7913
  1659.5000      0.0000    742.8806     14.4692    120.3864
  1659.7500      0.0000    744.1801     14.2970    122.8471
  1660.0000      0.0000    749.8430     14.0568    128.3208
  1660.2500      0.0000    756.7643     13.7562    135.4659
  1660.5000      0.0000    759.2429     13.4240    142.2796
  1660.7500      0.0000    753.9272     13.1005    147.0013
  1661.0000      0.0000    742.5742     12.8197    148.7062
  1661.2500      0.0000    729.9669     12.6005    147.7151
  1661.5000      0.0000    719.6650     12.4534    145.2287
  1661.7500      0.0000    712.0027     12.3907    142.0835
  1662.0000      0.0000    705.5433     12.4261    138.2976
  1662.2500      0.0000    699.7282     12.5618    134.1280
  1662.5000      0.0000    695.8463     12.7706    130.6616
  1662.7500      0.0000    695.5416     12.9892    128.6935
  1663.0000      0.0000    698.7330     13.1438    127.5756
  1663.2500      0.0000    703.4367     13.1910    125.7510
  1663.5000      0.0000    707.5013     13.1367    122.2589
  1663.7500      0.0000    710.0959     13.0234    117.5686
  1664.0000      0.0000    711.7164     12.9062    113.2494
  1664.2500      0.0000    713.4744     12.8298    110.8991
  1664.5000      0.0000    716.5815     12.8117    111.0461
  1664.7500      0.0000    721.7775     12.8441    112.9177
  1665.0000      0.0000    728.3335     12.9103    115.3362
  1665.2500      0.0000    733.6129     12.9925    117.8248
  1665.5000      0.0000    734.6226     13.0648    120.8048
  1665.7500      0.0000    730.6624     13.0857    124.7679
  1666.0000      0.0000    724.0625     13.0064    129.2570
  1666.2500      0.0000    718.1343     12.7908    132.7188
