~Version Information
VERS.                      2.0: CWLS Log ASCII Standard - VERSION 2.0
WRAP.                       NO: One line per depth step
~Well Information Block
STRT.FT               360.0000: 
STOP.FT              1349.5000: 
STEP.FT                 0.1000: 
NULL.                -999.2500: 
COMP.          Pioneer Natural Resources: COMPANY
WELL.          Challenger 31-29: WELL
FLD.           Purgatoire River: FIELD
LOC.           51' FNL & 1923' FEL: LOCATION
STAT.                 Colorado: State
CNTY.               Las Animas: COUNTY
CTRY. USA : Country
SECT. 29 : Section
TOWN. 33S : Township
RANG. 65W : Range
SRVC.                Patterson: SERVICE COMPANY
DATE.          Thu Sep 15 13:35:50 2005: LOG DATE
API.           05 071 08514 00: UNIQUE WELL ID
~Curve Information Block
DEPT.FT            0 000 00 00: Depth
DCAL.in                       : CDL Caliper
RHOB.g/cc                     : CDL Bulk Density
RHOC.g/cc                     : CDL Density Correction
DPOR.pu                       : CDL Density Porosity
GR.GAPI                       : Gamma Ray
NPOR.pu                       : Neutron Porosity
~Parameter Information Block
~A  Depth       DCAL        RHOB        RHOC        DPOR         GR         NPOR    
# ...
   494.4000      8.0046      2.5525      0.0649      5.9095     84.1883     18.0929
   494.5000      8.0015      2.5530      0.0680      5.8800     77.4399     17.0560
   494.6000      8.0015      2.5511      0.0294      5.9962     76.1225     16.2168
   494.7000      8.0015      2.5557      0.0477      5.7168     80.0843     16.0693
   494.8000      7.9991      2.5675      0.0907      4.9999     80.5736     16.4475
   494.9000      7.9991      2.5809      0.0789      4.1884     75.2874     16.7253
   495.0000      8.0215      2.5932      0.1646      3.4407     69.4595     16.5566
   495.1000      8.0215      2.5996      0.1503      3.0552     64.8361     16.3909
   495.2000      8.0215      2.5906      0.1386      3.5979     60.8789     16.9013
   495.3000      8.0302      2.5702      0.0758      4.8344     58.3315     17.6887
   495.4000      8.0302      2.5574      0.1020      5.6108     55.8842     17.7551
   495.5000      8.0229      2.5610      0.0559      5.3932     52.5483     17.2902
   495.6000      8.0229      2.5723      0.1297      4.7113     49.3936     17.0643
   495.7000      8.0229      2.5735      0.1200      4.6364     47.7886     17.0617
   495.8000      8.0072      2.5620      0.0811      5.3361     47.2214     17.0698
   495.9000      8.0072      2.5513      0.0855      5.9799     46.6153     17.2930
   496.0000      8.0132      2.5524      0.0745      5.9179     46.4118     17.7343
   496.1000      8.0132      2.5646      0.1016      5.1728     46.1946     18.0093
   496.2000      8.0132      2.5738      0.1336      4.6179     44.8499     18.2689
   496.3000      8.0124      2.5701      0.0637      4.8433     43.5522     18.7306
   496.4000      8.0124      2.5623      0.0877      5.3159     45.1056     19.1079
   496.5000      8.0182      2.5611      0.0631      5.3867     48.9349     19.6888
   496.6000      8.0182      2.5682      0.0847      4.9551     52.1065     20.6188
   496.7000      8.0182      2.5748      0.0540      4.5601     54.8765     21.2220
   496.8000      8.0419      2.5708      0.0611      4.8004     59.1743     20.9317
   496.9000      8.0419      2.5641      0.0184      5.2090     63.6227     19.9644
   497.0000      8.0330      2.5691      0.0608      4.9048     67.2436     19.3680
   497.1000      8.0330      2.5800      0.0771      4.2425     70.9516     19.7293
   497.2000      8.0330      2.5875      0.0673      3.7853     73.9157     20.6000
   497.3000      8.0290      2.5965      0.0554      3.2399     76.2234     21.2573
   497.4000      8.0290      2.6063      0.0924      2.6515     78.4344     21.3136
   497.5000      8.0381      2.6004      0.1221      3.0064     79.9910     21.2511
   497.6000      8.0381      2.5773      0.0280      4.4034     81.6102     21.4893
   497.7000      8.0381      2.5588      0.0386      5.5270     84.1693     21.9558
   497.8000      8.0368      2.5546      0.0736      5.7829     86.6019     22.7708
   497.9000      8.0368      2.5596      0.0683      5.4783     88.4511     24.0298
   498.0000      8.0302      2.5559      0.1786      5.7054     94.1633     25.5758
   498.1000      8.0302      2.5194      0.0978      7.9157    107.7681     26.6572
   498.2000      8.0302      2.4565      0.0606     11.7300    123.3207     26.3385
   498.3000      8.0244      2.3942      0.0552     15.5026    133.2680     25.2008
   498.4000      8.0244      2.3508      0.0743     18.1362    137.0651     24.7689
   498.5000      8.0276      2.3271      0.1276     19.5688    135.6468     25.5854
   498.6000      8.0276      2.3124      0.1093     20.4601    131.2639     26.9695
   498.7000      8.0276      2.3084      0.0614     20.7060    131.1561     27.8923
   498.8000      8.0214      2.3410      0.0197     18.7268    138.5022     28.0135
   498.9000      8.0214      2.4254      0.1903     13.6108    146.8393     27.8579
   499.0000      8.0209      2.5367      0.3188      6.8660    150.3799     27.7187
   499.1000      8.0209      2.6366      0.3725      0.8121    148.9744     27.3358
   499.2000      8.0209      2.6995      0.4229     -3.0009    147.6414     26.8573
   499.3000      8.1021      2.7190      0.3816     -4.1793    152.7000     26.5966
   499.4000      8.1021      2.7110      0.2966     -3.6997    163.0521     26.4755
   499.5000      8.0230      2.6906      0.3281     -2.4583    167.6172     26.5006
   499.6000      8.0230      2.6508      0.2781     -0.0488    160.9293     26.9058
   499.7000      8.0230      2.5938      0.1613      3.4079    153.5845     27.4916
   499.8000      8.0179      2.5421      0.1132      6.5416    149.9717     27.5996
   499.9000      8.0179      2.5061      0.1444      8.7229    147.9440     26.9997
   500.0000      8.0993      2.4835      0.0569     10.0936    150.1150     26.1666
   500.1000      8.0993      2.4827      0.0710     10.1386    155.6661     25.4402
   500.2000      8.0993      2.4970      0.1579      9.2698    160.9548     24.5248
   500.3000      8.1121      2.4988      0.1349      9.1620    163.5792     23.5401
   500.4000      8.1121      2.4846      0.0894     10.0269    165.1115     23.1502
   500.5000      8.1201      2.4686      0.1142     10.9968    166.1237     23.1079
   500.6000      8.1201      2.4473      0.1310     12.2833    161.3743     22.8631
   500.7000      8.1201      2.4132      0.0929     14.3513    151.9979     22.5698
   500.8000      8.1840      2.3784      0.1238     16.4624    148.5883     22.1514
   500.9000      8.1840      2.3623      0.1218     17.4383    153.0350     21.6506
   501.0000      8.1959      2.3663      0.1873     17.1966    154.8540     21.5975
   501.1000      8.1959      2.3736      0.1937     16.7513    149.7074     21.7052
   501.2000      8.1959      2.3806      0.1461     16.3263    146.3720     21.5009
   501.3000      8.2079      2.3962      0.1756     15.3804    151.7874     21.4042
   501.4000      8.2079      2.4180      0.2116     14.0635    160.1397     21.8961
   501.5000      8.2271      2.4372      0.2023     12.8947    163.3297     22.9368
   501.6000      8.2271      2.4451      0.2533     12.4183    163.2701     23.5300
   501.7000      8.2271      2.4328      0.2299     13.1651    163.8639     22.4785
   501.8000      8.2850      2.4061      0.1651     14.7834    162.2678     20.6742
   501.9000      8.2850      2.3855      0.0915     16.0292    159.9553     19.8198
   502.0000      8.2942      2.3800      0.0897     16.3634    159.7117     19.4266
   502.1000      8.2942      2.3706      0.0870     16.9359    157.7552     18.4387
   502.2000      8.2942      2.3236      0.0879     19.7826    154.0614     17.3327
   502.3000      8.2278      2.2220      0.0951     25.9405    152.5661     16.5352
   502.4000      8.2278      2.0830      0.0107     34.3635    150.7399     15.7832
   502.5000      8.2682      1.9343     -0.0077     43.3744    144.9895     14.9005
   502.6000      8.2682      1.7862     -0.0193     52.3516    138.2059     13.9971
   502.7000      8.2682      1.6413     -0.0257     61.1344    132.5256     13.2740
   502.8000      8.3357      1.5087     -0.0967     69.1703    127.7899     12.9613
   502.9000      8.3357      1.4043     -0.0883     75.4954    123.9398     13.3825
   503.0000      8.3593      1.3492     -0.0749     78.8355    119.7366     14.5077
   503.1000      8.3593      1.3798     -0.0577     76.9793    113.0910     15.6457
   503.2000      8.3593      1.5210      0.1451     68.4269    105.3508     16.3316
   503.3000      8.3871      1.7341      0.2770     55.5092    100.4035     16.7785
   503.4000      8.3871      1.9494      0.4078     42.4634     96.8765     17.3424
   503.5000      8.4344      2.1300      0.4540     31.5171     92.6473     18.4502
   503.6000      8.4344      2.2749      0.4818     22.7309     87.6422     20.2659
   503.7000      8.4344      2.3926      0.4680     15.6016     83.9748     22.4415
   503.8000      8.4452      2.4789      0.5173     10.3712     87.5367     24.5966
   503.9000      8.4452      2.5189      0.4440      7.9463     95.7956     26.2811
