~Version Information
VERS.                      2.0: CWLS Log ASCII Standard - VERSION 2.0
WRAP.                       NO: One line per depth step
~Well Information Block
STRT.FT               650.0000: 
STOP.FT              2053.7000: 
STEP.FT                 0.1000: 
NULL.                -999.2500: 
COMP.          Pioneer Natural Resources: COMPANY
WELL.           Alabaster 11-8: WELL
FLD.           Purgatoire River: FIELD
LOC.           1249' FNL & 215' FWL--: LOCATION
PROV.                 Colorado: PROVINCE
CNTY.               Las Animas: COUNTRY
SRVC.                Patterson: SERVICE COMPANY
DATE.          Thu Jan 19 09:16:54 2006: LOG DATE
UWI.           05 071 08642 00: UNIQUE WELL ID
~Curve Information Block
DEPT.FT            0 000 00 00: Depth
DCAL.in                       : CDL Caliper
RHOB.g/cc                     : CDL Bulk Density
RHOC.g/cc                     : CDL Density Correction
DPOR.pu                       : CDL Density Porosity
NPOR.pu                       : Neutron Porosity
GR.GAPI                       : Gamma Ray
~Parameter Information Block
~A  Depth       DCAL        RHOB        RHOC        DPOR        NPOR         GR     
# ...
  2022.8000      7.8576      2.5745      0.0237      4.5754     14.6360   -999.2500
  2022.9000      7.8576      2.5441     -0.0028      6.4196     14.8708   -999.2500
  2023.0000      7.8602      2.5419      0.0358      6.5495     15.8109   -999.2500
  2023.1000      7.8602      2.5574      0.0577      5.6133     16.8769   -999.2500
  2023.2000      7.8602      2.5724      0.0334      4.7032     17.5918   -999.2500
  2023.3000      7.8629      2.5851      0.0251      3.9330     18.1635   -999.2500
  2023.4000      7.8629      2.5939      0.0543      3.4004     18.5027   -999.2500
  2023.5000      7.8620      2.5987      0.0103      3.1069     18.2680   -999.2500
  2023.6000      7.8620      2.6104      0.0411      2.3978     17.7853   -999.2500
  2023.7000      7.8620      2.6231      0.0804      1.6280     17.5026   -999.2500
  2023.8000      7.8606      2.6234      0.0360      1.6116     17.1744   -999.2500
  2023.9000      7.8606      2.6182      0.0666      1.9284     17.0024   -999.2500
  2024.0000      7.8616      2.6180      0.0094      1.9412     17.5247   -999.2500
  2024.1000      7.8616      2.6247      0.0516      1.5322     18.3703   -999.2500
  2024.2000      7.8616      2.6269      0.1142      1.3997     18.7547   -999.2500
  2024.3000      7.8625      2.6154      0.0611      2.0945     18.4092   -999.2500
  2024.4000      7.8625      2.6047      0.0125      2.7435     17.9714   -999.2500
  2024.5000      7.8608      2.6055      0.0157      2.6940     18.1480   -999.2500
  2024.6000      7.8608      2.6023      0.0935      2.8885     18.6630   -999.2500
  2024.7000      7.8608      2.5849     -0.0025      3.9434     19.0677   -999.2500
  2024.8000      7.8570      2.5728     -0.0070      4.6810     19.6491   -999.2500
  2024.9000      7.8570      2.5781      0.0162      4.3558     20.5165   -999.2500
  2025.0000      7.8527      2.5908      0.0107      3.5881     21.0160   -999.2500
  2025.1000      7.8527      2.6012      0.0639      2.9604     21.0207   -999.2500
  2025.2000      7.8527      2.6069      0.0285      2.6130     21.1516   -999.2500
  2025.3000      7.8500      2.6094      0.0863      2.4579     21.5884   -999.2500
  2025.4000      7.8500      2.6059      0.0587      2.6716     21.7560   -999.2500
  2025.5000      7.8521      2.5983      0.0558      3.1321     21.2198   -999.2500
  2025.6000      7.8521      2.5966      0.0434      3.2380     20.2552   -999.2500
  2025.7000      7.8521      2.6041      0.0605      2.7844     19.1055   -999.2500
  2025.8000      7.8529      2.6139      0.0864      2.1909     18.0011   -999.2500
  2025.9000      7.8529      2.6235      0.0461      1.6085     17.3365   -999.2500
  2026.0000      7.8465      2.6412      0.0615      0.5352     17.2969   -999.2500
  2026.1000      7.8465      2.6625      0.0962     -0.7560     17.5015   -999.2500
  2026.2000      7.8465      2.6655      0.1008     -0.9400     17.8838   -999.2500
  2026.3000      7.8392      2.6413      0.0627      0.5275     18.9480   -999.2500
  2026.4000      7.8392      2.6103      0.0153      2.4059     20.2468   -999.2500
  2026.5000      7.8405      2.5950      0.0660      3.3350     20.7167   -999.2500
  2026.6000      7.8405      2.5902      0.0585      3.6233     20.5537   -999.2500
  2026.7000      7.8405      2.5836      0.0300      4.0260     20.7878   -999.2500
  2026.8000      7.8465      2.5790      0.0129      4.3026     22.1370   -999.2500
  2026.9000      7.8465      2.5855      0.0184      3.9065     25.9247   -999.2500
  2027.0000      7.8453      2.5962      0.0736      3.2578     34.6765   -999.2500
  2027.1000      7.8453      2.5921      0.0999      3.5118     46.6177   -999.2500
  2027.2000      7.8453      2.5709      0.0562      4.7912     54.6577   -999.2500
  2027.3000      7.8375      2.5555      0.0258      5.7280     57.4567   -999.2500
  2027.4000      7.8375      2.5660      0.0345      5.0880     57.9980   -999.2500
  2027.5000      7.8324      2.5950      0.0494      3.3317     58.0551   -999.2500
  2027.6000      7.8324      2.6146      0.1022      2.1459     58.0584   -999.2500
  2027.7000      7.8324      2.6073      0.0785      2.5853   -999.2500   -999.2500
  2027.8000      7.8305      2.5810      0.0565      4.1827   -999.2500   -999.2500
  2027.9000      7.8305      2.5540      0.0344      5.8161   -999.2500   -999.2500
  2028.0000      7.8310      2.5345      0.0315      7.0028   -999.2500   -999.2500
  2028.1000      7.8310      2.5207      0.0391      7.8390   -999.2500   -999.2500
  2028.2000      7.8310      2.5169      0.0166      8.0648   -999.2500   -999.2500
  2028.3000      7.8391      2.5304      0.0238      7.2493   -999.2500   -999.2500
  2028.4000      7.8391      2.5567      0.0219      5.6537   -999.2500   -999.2500
  2028.5000      7.8516      2.5798      0.0702      4.2564   -999.2500   -999.2500
  2028.6000      7.8516      2.5829      0.0754      4.0651   -999.2500   -999.2500
  2028.7000      7.8516      2.5716      0.0504      4.7502   -999.2500   -999.2500
  2028.8000      7.8566      2.5680      0.0241      4.9693   -999.2500   -999.2500
  2028.9000      7.8566      2.5743      0.1074      4.5880   -999.2500   -999.2500
  2029.0000      7.8510      2.5756      0.0420      4.5097   -999.2500   -999.2500
  2029.1000      7.8510      2.5707      0.0744      4.8062   -999.2500   -999.2500
  2029.2000      7.8510      2.5624      0.0389      5.3110   -999.2500   -999.2500
  2029.3000      7.8400      2.5519      0.0285      5.9445   -999.2500   -999.2500
  2029.4000      7.8400      2.5455      0.0268      6.3322   -999.2500   -999.2500
  2029.5000      7.8309      2.5447      0.0302      6.3802   -999.2500   -999.2500
  2029.6000      7.8309      2.5472      0.0471      6.2300   -999.2500   -999.2500
  2029.7000      7.8309      2.5548      0.0043      5.7677   -999.2500   -999.2500
  2029.8000      7.8283      2.5684      0.0210      4.9482   -999.2500   -999.2500
  2029.9000      7.8283      2.5788      0.0511      4.3127   -999.2500   -999.2500
  2030.0000      7.8303      2.5812      0.0241      4.1694   -999.2500   -999.2500
  2030.1000      7.8303      2.5895     -0.0079      3.6670   -999.2500   -999.2500
  2030.2000      7.8303      2.6035      0.0590      2.8169   -999.2500   -999.2500
  2030.3000      7.8313      2.5977      0.0593      3.1692   -999.2500   -999.2500
  2030.4000      7.8313      2.5785     -0.0137      4.3323   -999.2500   -999.2500
  2030.5000      7.8289      2.5759      0.0364      4.4909   -999.2500   -999.2500
  2030.6000      7.8289      2.5846      0.0735      3.9641   -999.2500   -999.2500
  2030.7000      7.8289      2.5876      0.0374      3.7828   -999.2500   -999.2500
  2030.8000      7.8277      2.5949      0.0382      3.3400   -999.2500   -999.2500
  2030.9000      7.8277      2.6161      0.0550      2.0523   -999.2500   -999.2500
  2031.0000      7.8282      2.6417      0.0646      0.5015   -999.2500   -999.2500
  2031.1000      7.8282      2.6545      0.0933     -0.2757   -999.2500   -999.2500
  2031.2000      7.8282      2.6406      0.0815      0.5707   -999.2500   -999.2500
  2031.3000      7.8282      2.6077      0.0229      2.5646   -999.2500   -999.2500
  2031.4000      7.8282      2.5871      0.0211      3.8125   -999.2500   -999.2500
  2031.5000      7.8287      2.5968      0.0320      3.2273   -999.2500   -999.2500
  2031.6000      7.8287      2.6196      0.0753      1.8442   -999.2500   -999.2500
  2031.7000      7.8287      2.6299      0.0661      1.2156   -999.2500   -999.2500
  2031.8000      7.8280      2.6245      0.0653      1.5477   -999.2500   -999.2500
  2031.9000      7.8280      2.6125      0.0609      2.2700   -999.2500   -999.2500
  2032.0000      7.8274      2.6001      0.0337      3.0248   -999.2500   -999.2500
  2032.1000      7.8274      2.6005     -0.0034      2.9983   -999.2500   -999.2500
  2032.2000      7.8274      2.6231      0.0578      1.6278   -999.2500   -999.2500
  2032.3000      7.8283      2.6458      0.1025      0.2562   -999.2500   -999.2500
