~Version Information
VERS.                      2.0: CWLS Log ASCII Standard - VERSION 2.0
WRAP.                       NO: One line per depth step
~Well Information Block
STRT.FT                -9.5000: 
STOP.FT              1401.5000: 
STEP.FT                 0.2500: 
NULL.                -999.2500: 
COMP.          Pioneer Natural Resources: COMPANY
WELL.             John K 12-28: WELL
FLD.           Purgatorie River: FIELD
LOC.           1476' FNL & 465' FWL--: LOCATION
CNTY.               Las Animas: COUNTY
SRVC.          Patterson Wireline: SERVICE COMPANY
DATE.          Fri Apr 28 08:36:46 2006: LOG DATE
UWI.           05 071 08723 00: UNIQUE WELL ID
STAT.                       CO: STATE
~Curve Information Block
DEPT.FT            0 000 00 00: Depth
CCL.                          : Casing Collar Locator
TT3.usec                      : CBL 3' Travel Time
AMP3.mV                       : CBL 3' Amplitude
GR.GAPI                       : Gamma Ray
~Parameter Information Block
~A  Depth       CCL         TT3         AMP3         GR     
# ...
   995.5000      0.0000    710.2205      4.7731    134.6996
   995.7500      0.0000    692.4617      4.7842    133.8829
   996.0000      0.0000    672.2042      4.7703    132.6192
   996.2500      0.0000    649.7900      4.7300    130.4568
   996.5000      0.0000    624.3278      4.6698    127.7927
   996.7500      0.0000    593.5215      4.6047    124.8898
   997.0000      0.0000    556.3038      4.5513    121.7950
   997.2500      0.0000    516.2473      4.5202    119.2093
   997.5000      0.0000    480.6225      4.5126    118.2604
   997.7500      0.0000    455.2973      4.5223    119.2015
   998.0000      0.0000    441.1538      4.5402    121.1574
   998.2500      0.0000    435.0862      4.5542    123.3550
   998.5000      0.0000    433.1839      4.5514    125.8933
   998.7500      0.0000    432.8314      4.5255    128.8421
   999.0000      0.0000    432.9214      4.4847    131.1071
   999.2500      0.0000    433.1472      4.4457    130.7299
   999.5000      0.0000    433.3369      4.4190    126.1489
   999.7500      0.0000    433.4276      4.4012    117.1201
  1000.0000      0.0000    434.0900      4.3834    104.8440
  1000.2500      0.0000    437.7023      4.3636     91.4022
  1000.5000      0.0000    448.6193      4.3468     78.9656
  1000.7500      0.0000    471.0480      4.3367     69.3195
  1001.0000      0.0000    504.0194      4.3316     63.5519
  1001.2500      0.0000    537.3856      4.3295     61.5909
  1001.5000      0.0000    555.4020      4.3328     62.2691
  1001.7500      0.0000    548.0886      4.3455     64.4291
  1002.0000      0.0000    520.0356      4.3673     67.9093
  1002.2500      0.0000    486.9083      4.3942     73.1465
  1002.5000      0.0000    463.5452      4.4221     80.0963
  1002.7500      0.0000    455.6194      4.4512     87.8672
  1003.0000      0.0000    459.5919      4.4864     95.0829
  1003.2500      0.0000    466.8745      4.5332    100.2031
  1003.5000      0.0000    468.7055      4.5896    101.8549
  1003.7500      0.0000    460.6925      4.6437     99.3706
  1004.0000      0.0000    444.5167      4.6798     93.1158
  1004.2500      0.0000    425.3236      4.6912     84.3687
  1004.5000      0.0000    407.7870      4.6838     75.1203
  1004.7500      0.0000    394.4230      4.6693     67.7083
  1005.0000      0.0000    385.9335      4.6551     63.8858
  1005.2500      0.0000    381.9904      4.6420     63.8553
  1005.5000      0.0000    381.9588      4.6285     66.3026
  1005.7500      0.0000    385.1969      4.6172     69.3346
  1006.0000      0.0000    390.6759      4.6163     71.4206
  1006.2500      0.0000    396.8000      4.6356     72.0263
  1006.5000      0.0000    402.1490      4.6780     71.9162
  1006.7500      0.0000    406.3656      4.7372     72.7608
  1007.0000      0.0000    410.4198      4.8021     76.0928
  1007.2500      0.0000    416.6610      4.8611     82.3930
  1007.5000      0.0000    428.8735      4.9036     90.8319
  1007.7500      0.0000    451.0396      4.9220     99.7378
  1008.0000      0.0000    483.3443      4.9145    107.6655
  1008.2500      0.0000    517.7656      4.8878    114.0967
  1008.5000      0.0000    539.7142      4.8518    118.8515
  1008.7500      0.0000    538.2014      4.8115    121.3720
  1009.0000      0.0000    515.5638      4.7644    121.4864
  1009.2500      0.0000    485.1783      4.7065    120.3236
  1009.5000      0.0000    459.4703      4.6415    119.3965
  1009.7500      0.0000    442.0995      4.5810    119.1958
  1010.0000      0.0000    430.7843      4.5355    119.4016
  1010.2500      0.0000    423.5350      4.5063    119.7475
  1010.5000      0.0000    420.1963      4.4868    119.9608
  1010.7500      0.0000    420.2118      4.4707    119.5634
  1011.0000      0.0000    421.7733      4.4566    118.3497
  1011.2500      0.0000    423.4833      4.4454    116.6482
  1011.5000      0.0000    425.5160      4.4352    114.9614
  1011.7500      0.0000    428.6133      4.4216    113.7893
  1012.0000      0.0000    432.5846      4.4036    113.6996
  1012.2500      0.0000    436.2626      4.3849    114.9106
  1012.5000      0.0000    438.5205      4.3702    116.6734
  1012.7500      0.0000    438.9695      4.3597    117.5879
  1013.0000      0.0000    437.8981      4.3496    116.8558
  1013.2500      0.0000    435.8398      4.3368    114.9413
  1013.5000      0.0000    433.2301      4.3212    112.5612
  1013.7500      0.0000    430.6904      4.3046    109.3943
  1014.0000      0.0000    429.9967      4.2882    104.7114
  1014.2500      0.0000    434.9741      4.2720     99.2535
  1014.5000      0.0000    450.8875      4.2573     95.4522
  1014.7500      0.0000    481.6003      4.2498     95.3551
  1015.0000      0.0000    525.7928      4.2586     98.7138
  1015.2500      0.0000    575.6770      4.2914    103.2734
  1015.5000      0.0000    620.3424      4.3467    106.7310
  1015.7500      0.0000    651.0693      4.4149    108.4547
  1016.0000      0.0000    664.4958      4.4855    109.7261
  1016.2500      0.0000    662.8417      4.5534    112.5525
  1016.5000      0.0000    651.2953      4.6168    117.9489
  1016.7500      0.0000    632.9337      4.6726    124.9008
  1017.0000      0.0000    606.1922      4.7125    130.9650
  1017.2500      0.0000    570.4742      4.7148    134.1118
  1017.5000      0.0000    534.0819      4.6454    133.8658
  1017.7500      0.0000    511.3905      4.4882    130.7880
  1018.0000      0.0000    509.4386      4.2838    125.7776
  1018.2500      0.0000    520.9832      4.1199    120.1919
  1018.5000      0.0000    533.6732      4.0651    115.5492
  1018.7500      0.0000    543.0949      4.1160    112.4554
  1019.0000      0.0000    553.6447      4.2176    110.4744
  1019.2500      0.0000    569.2305      4.3298    109.3356
  1019.5000      0.0000    586.9248      4.4680    109.3832
  1019.7500      0.0000    599.3924      4.6668    110.4381
  1020.0000      0.0000    601.7904      4.9068    111.0568
  1020.2500      0.0000    595.4166      5.1006    109.5750
  1020.5000     -2.0000    584.4119      5.1723    105.6223
  1020.7500      0.0000    572.0922      5.1274    100.3445
  1021.0000      0.0000    563.2028      5.0291     95.3288
  1021.2500      0.0000    564.7480      4.9273     91.4892
  1021.5000      0.0000    578.1616      4.8298     88.7784
  1021.7500      0.0000    592.9152      4.7213     86.6334
  1022.0000      0.0000    593.5234      4.5893     84.5179
  1022.2500      0.0000    574.7644      4.4469     82.1559
  1022.5000      0.0000    549.2594      4.3377     79.5941
  1022.7500      0.0000    538.6461      4.3050     77.1908
  1023.0000      0.0000    555.7243      4.3511     75.3348
  1023.2500      0.0000    594.7179      4.4374     74.0825
  1023.5000      0.0000    638.2852      4.5204     73.2838
  1023.7500      0.0000    671.8972      4.5802     73.1549
  1024.0000      0.0000    691.0637      4.6190     74.6268
  1024.2500      0.0000    698.5474      4.6461     79.0299
  1024.5000      0.0000    698.9075      4.6683     87.1908
  1024.7500      0.0000    695.9589      4.6875     98.6256
  1025.0000      0.0000    692.6185      4.7016    111.7049
  1025.2500      0.0000    690.6537      4.7066    124.7022
  1025.5000      0.0000    689.8752      4.7021    136.4402
  1025.7500      0.0000    688.0020      4.6953    146.0597
  1026.0000      0.0000    682.0870      4.6981    152.9545
  1026.2500      0.0000    671.3664      4.7184    157.2668
  1026.5000      0.0000    659.4783      4.7539    159.8716
  1026.7500      0.0000    652.7905      4.7963    161.4187
  1027.0000      0.0000    654.9545      4.8373    161.5762
  1027.2500      0.0000    663.4333      4.8701    159.5375
  1027.5000      0.0000    672.2554      4.8870    155.2379
  1027.7500      0.0000    677.5100      4.8814    149.7869
  1028.0000      0.0000    679.4382      4.8531    144.7710
  1028.2500      0.0000    680.1581      4.8096    141.4117
  1028.5000      0.0000    680.7263      4.7632    140.1481
  1028.7500      0.0000    680.3905      4.7262    140.5187
