~Version Information
VERS.                      2.0: CWLS Log ASCII Standard - VERSION 2.0
WRAP.                       NO: One line per depth step
~Well Information Block
STRT.FT                 0.0000: 
STOP.FT              1238.2500: 
STEP.FT                 0.2500: 
NULL.                -999.2500: 
COMP.          Pioneer Natural Resources: COMPANY
WELL.                 Ray 34-6: WELL
FLD.           Purgatoire River: FIELD
LOC.           684' FSL & 2254' FEL: LOCATION
CNTY.               Las Animas: COUNTY
SRVC.                         : SERVICE COMPANY
DATE.          Fri Jun 23 09:23:24 2006: LOG DATE
UWI.           05 071 08695 00: UNIQUE WELL ID
STAT.                       CO: STATE
~Curve Information Block
DEPT.FT            0 000 00 00: Depth
GR.GAPI                       : Gamma Ray
CCL.                          : Casing Collar Locator
TT3.usec                      : CBL 3' Travel Time
AMP3.mV                       : CBL 3' Amplitude
~Parameter Information Block
~A  Depth        GR         CCL         TT3         AMP3    
     0.0000     55.5041      2.0000   1203.0000      1.1429
     0.2500     48.7038      2.0000   1203.0000      1.1988
     0.5000     43.9641     -2.0000   1203.0000      1.2525
     0.7500     40.6728      2.0000   1203.0000      1.2838
     1.0000     37.5232      0.0000   1203.0000      1.2844
     1.2500     34.3328      0.0000   1203.0000      1.2593
     1.5000     32.4911      0.0000   1203.0000      1.2229
     1.7500     33.5755      0.0000   1203.0000      1.1938
     2.0000     37.6683      0.0000   1203.0000      1.1860
     2.2500     43.1957     -1.2149   1203.0000      1.2001
     2.5000     48.2977      0.0000   1203.0000      1.2204
     2.7500     52.0889      0.0000   1203.0000      1.2248
     3.0000     54.7509      0.0000   1203.0000      1.2029
     3.2500     56.9084      0.0000   1203.0000      1.1664
     3.5000     59.0684      0.0000   1203.0000      1.1422
     3.7500     61.2966      0.0000   1203.0000      1.1493
     4.0000     63.1840      0.0000   1203.0000      1.1821
     4.2500     64.2563      0.0000   1202.9650      1.2185
     4.5000     64.5437      0.0000   1202.7419      1.2440
     4.7500     64.6333      0.0000   1201.6183      1.2792
     5.0000     65.0560      0.0000   1197.1917      1.4158
     5.2500     65.6743      0.0000   1183.6388      1.8787
     5.5000     65.7302      0.0000   1151.2048      3.0832
     5.7500     64.4486      0.0000   1090.0999      5.5414
     6.0000     61.6776      0.0000    998.0927      9.5073
     6.2500     58.1973      0.0000    884.1431     14.5739
     6.5000     55.4104      0.0000    762.8065     19.7046
     6.7500     54.5214      0.0000    646.4806     23.8297
     7.0000     55.8626      0.0000    544.2244     26.4574
     7.2500     58.8917      0.0000    463.3703     27.7365
     7.5000     62.7645      0.0000    407.4987     28.0956
     7.7500     66.8671      0.0000    374.2170     27.9413
     8.0000     70.9409      0.0000    357.4538     27.5791
     8.2500     74.9116      0.0000    351.4955     27.2055
     8.5000     78.5719      0.0000    352.5891     26.8962
     8.7500     81.3690      0.0000    358.1424     26.6428
     9.0000     82.7863      0.0000    365.7207     26.4274
     9.2500     83.0653      0.0000    373.0236     26.2575
     9.5000     83.1454      0.0000    378.5948     26.1534
     9.7500     83.6393      0.0000    382.1802     26.1328
    10.0000     84.2054      0.0000    384.2576     26.2019
    10.2500     84.0839      0.0000    385.3913     26.3392
    10.5000     83.0025      0.0000    385.9860     26.5013
    10.7500     81.5462      0.0000    386.3489     26.6504
    11.0000     80.8279      0.0000    386.7729     26.7484
    11.2500     81.7608      0.0000    387.5997     26.7177
    11.5000     84.3858      0.0000    389.3208     26.4671
    11.7500     87.5765      0.0000    392.5873     25.9989
    12.0000     89.4130      0.0000    398.0549     25.4543
    12.2500     88.3108      0.0000    406.4128     24.9928
    12.5000     84.0779      0.0000    419.4957     24.6072
    12.7500     77.8187      0.0000    441.3655     24.0880
    13.0000     70.8943      0.0000    476.3786     23.2007
    13.2500     64.2042      0.0000    524.6444     21.9125
    13.5000     58.3241      0.0000    580.5515     20.4564
    13.7500     53.8065      0.0000    636.0306     19.1840
    14.0000     51.1133      0.0000    683.0967     18.3384
    14.2500     50.3908      0.0000    714.5162     17.9423
    14.5000     51.4038     -1.1066    726.4806     17.8567
    14.7500     53.7263     -2.0000    721.5858     17.9041
    15.0000     57.1469     -1.1386    707.5266     17.9535
    15.2500     61.8976      0.0000    693.8847     17.9699
    15.5000     68.2047      0.0000    688.7192     18.0614
    15.7500     75.4961      0.0000    694.0413     18.4925
    16.0000     82.3658      0.0000    705.1067     19.5574
    16.2500     87.5386      0.0000    717.4385     21.3114
    16.5000     90.6863      0.0000    733.0952     23.3919
    16.7500     92.2132      0.0000    757.8930     25.1842
    17.0000     92.5269      0.0000    795.5493     26.2437
    17.2500     91.7132      0.0000    845.7024     26.5642
    17.5000     89.8185      0.0000    904.5460     26.4588
    17.7500     87.3005      0.0000    965.8881     26.2500
    18.0000     85.1779      0.0000   1022.3195     26.0924
    18.2500     84.6770      0.0000   1066.4537     26.0003
    18.5000     86.5083      0.0000   1093.2712     25.9598
    18.7500     90.2041      0.0000   1102.7048     25.9972
    19.0000     94.2236      0.0000   1098.1768     26.1581
    19.2500     97.0982      0.0000   1081.6165     26.4274
    19.5000     98.5997      0.0000   1052.3986     26.6918
    19.7500     99.5441      0.0000   1012.7405     26.8263
    20.0000    100.4266      0.0000    970.4473     26.8313
    20.2500    100.6625      0.0000    933.9598     26.8439
    20.5000     99.3709      0.0000    906.7833     26.9781
    20.7500     96.6428      0.0000    887.6425     27.1933
    21.0000     93.7727      0.0000    874.0671     27.3595
    21.2500     92.2424      0.0000    864.5280     27.4047
    21.5000     92.5077      0.0000    858.1475     27.3554
    21.7500     93.7240      0.0000    853.9158     27.2821
    22.0000     94.5356      0.0000    850.6194     27.2737
    22.2500     93.9791      0.0000    846.6608     27.4315
    22.5000     91.7781      0.0000    838.9510     27.8143
    22.7500     88.2332      0.0000    823.0989     28.3804
    23.0000     84.0354      0.0000    797.4598     29.0024
    23.2500     79.9902      0.0000    767.3461     29.5403
    23.5000     76.7803      0.0000    742.5579     29.9167
    23.7500     74.9755      0.0000    729.2245     30.1579
    24.0000     74.9202      0.0000    725.8737     30.3599
    24.2500     76.2242      0.0000    726.5402     30.5925
    24.5000     77.4096      0.0000    724.6511     30.8384
    24.7500     76.4656      0.0000    717.0554     31.0251
    25.0000     72.1584      0.0000    709.9283     31.0823
    25.2500     65.0558      0.0000    717.3573     30.9623
    25.5000     57.2892      0.0000    747.7490     30.6476
    25.7500     51.1138      0.0000    793.3232     30.1812
    26.0000     47.4635      0.0000    835.4058     29.6826
    26.2500     45.8118      0.0000    856.7681     29.3149
    26.5000     45.2236      0.0000    849.2508     29.2191
    26.7500     45.2698      0.0000    815.9728     29.4245
    27.0000     46.0907      0.0000    767.7172     29.7522
    27.2500     47.9349      0.0000    715.0544     29.8069
    27.5000     50.5963      0.0000    665.8771     29.1978
    27.7500     53.2101      0.0000    629.8499     27.8936
    28.0000     54.7076      0.0000    617.7886     26.3231
    28.2500     54.4664      0.0000    633.9488     25.0076
    28.5000     52.4739      0.0000    672.4144     24.1241
    28.7500     49.2502      0.0000    719.8623     23.5274
    29.0000     45.9560      0.0000    760.2215     23.0887
    29.2500     44.3262      0.0000    781.1039     22.8422
    29.5000     45.8619      0.0000    779.7266     22.8590
    29.7500     50.4876      2.0000    762.8643     23.1318
    30.0000     55.9248      2.0000    739.7516     23.5750
    30.2500     59.0218      0.0000    712.2250     24.1003
    30.5000     58.2490      0.0000    671.3715     24.7403
    30.7500     54.8598      0.0000    608.0480     25.7353
    31.0000     51.5702      0.0000    527.3706     27.4150
    31.2500     50.2357      0.0000    447.8906     29.8947
    31.5000     50.6601      0.0000    385.9012     32.8949
    31.7500     51.2168      0.0000    345.2226     35.8770
    32.0000     50.3199      0.0000    321.0783     38.3414
    32.2500     47.4085      0.0000    307.7076     40.0271
    32.5000     43.0777      0.0000    301.0536     40.9276
    32.7500     38.7390      0.0000    298.2637     41.1959
    33.0000     35.8983      0.0000    297.3437     41.0416
    33.2500     35.1956      0.0000    297.1667     40.6689
