~Version Information
VERS.                      2.0: CWLS Log ASCII Standard - VERSION 2.0
WRAP.                       NO: One line per depth step
~Well Information Block
STRT.FT               670.0000: 
STOP.FT              2110.0000: 
STEP.FT                 0.2500: 
NULL.                -999.2500: 
COMP.          Petrogulf Corporation: COMPANY
WELL.           Montoya 12-44R: WELL
FLD.           Purgatorie River: FIELD
LOC.           713' FSL & 798' FEL: LOCATION
PROV.                 Colorado: PROVINCE
CNTY.               Las Animas: COUNTRY
SRVC.                Patterson: SERVICE COMPANY
DATE.          Sun Oct 02 01:06:45 2005: LOG DATE
UWI.           05-071-08538               : UNIQUE WELL ID
~Curve Information Block
DEPT.FT            0 000 00 00: Depth
SP.mV                         : DIL Spontaneous Potential
RILD.Ohm-m                    : DIL Deep Resistivity
RILM.Ohm-m                    : DIL Medium Resistivity
RLL3.Ohm-m                    : DIL Shallow Resistivity
GR.GAPI                       : Gamma Ray
~Parameter Information Block
~A  Depth        SP         RILD        RILM        RLL3         GR     
   670.0000   2000.0000      8.8531   -999.2500   2000.0000     42.8799
   670.2500   2000.0000      8.8747   -999.2500   2000.0000     42.9392
   670.5000   2000.0000      8.8704   -999.2500   2000.0000     43.0259
   670.7500   2000.0000      8.8421   -999.2500   2000.0000     43.0323
   671.0000   2000.0000      8.7916   -999.2500   2000.0000     42.7694
   671.2500   2000.0000      8.7214   -999.2500   2000.0000     42.4517
   671.5000   2000.0000      8.6383   -999.2500   2000.0000     42.8047
   671.7500   2000.0000      8.5546   -999.2500   2000.0000     44.7046
   672.0000   2000.0000      8.4866   -999.2500   2000.0000     51.3564
   672.2500   2000.0000      8.4503   -999.2500   2000.0000     57.8627
   672.5000   2000.0000      8.4558   -999.2500   2000.0000     67.8407
   672.7500   2000.0000      8.5039   -999.2500   2000.0000     72.7417
   673.0000   2000.0000      8.5855   -999.2500   2000.0000     75.9045
   673.2500   2000.0000      8.6845   -999.2500   2000.0000     75.5628
   673.5000   2000.0000      8.7832 100000.0000   2000.0000     73.0701
   673.7500   2000.0000      8.8667 100000.0000   2000.0000     71.0395
   674.0000   2000.0000      8.9256 100000.0000   2000.0000     68.3384
   674.2500   2000.0000      8.9547 100000.0000   2000.0000     66.8075
   674.5000   2000.0000      8.9519 100000.0000   2000.0000     64.3874
   674.7500   2000.0000      8.9183 100000.0000   2000.0000     62.2732
   675.0000   2000.0000      8.8617 100000.0000   2000.0000     58.0066
   675.2500   2000.0000      8.7968 100000.0000   2000.0000     54.6970
   675.5000   2000.0000      8.7421 100000.0000   2000.0000     50.2230
   675.7500   2000.0000      8.7124 100000.0000   2000.0000     48.2633
   676.0000   2000.0000      8.7117 100000.0000   2000.0000     47.2168
   676.2500   2000.0000      8.7311 100000.0000   2000.0000     47.4120
   676.5000   2000.0000      8.7522 100000.0000   2000.0000     47.9048
   676.7500   2000.0000      8.7564 100000.0000   2000.0000     47.7828
   677.0000   2000.0000      8.7354 100000.0000   2000.0000     46.6408
   677.2500   2000.0000      8.6960 100000.0000   2000.0000     45.5450
   677.5000   2000.0000      8.6556 100000.0000   2000.0000     44.2374
   677.7500   2000.0000      8.6316 100000.0000   2000.0000     43.8944
   678.0000   2000.0000      8.6324 100000.0000   2000.0000     44.1061
   678.2500   2000.0000      8.6527 100000.0000   2000.0000     44.5590
   678.5000   2000.0000      8.6771 100000.0000   2000.0000     45.8035
   678.7500   2000.0000      8.6889 100000.0000   2000.0000     47.3054
   679.0000   2000.0000      8.6791 100000.0000   2000.0000     50.6229
   679.2500   2000.0000      8.6508 100000.0000   2000.0000     52.9160
   679.5000   2000.0000      8.6171 100000.0000   2000.0000     54.6755
   679.7500   2000.0000      8.5949 100000.0000   2000.0000     53.9404
   680.0000   2000.0000      8.5982 100000.0000   2000.0000     50.1312
   680.2500   2000.0000      8.6359 100000.0000   2000.0000     46.8286
   680.5000   2000.0000      8.7104 100000.0000   2000.0000     43.1598
   680.7500   2000.0000      8.8164 100000.0000   2000.0000     42.4914
   681.0000   2000.0000      8.9391 100000.0000   2000.0000     43.8641
   681.2500   2000.0000      9.0529 100000.0000   2000.0000     45.3827
   681.5000   2000.0000      9.1257 100000.0000   2000.0000     47.0005
   681.7500   2000.0000      9.1311 100000.0000   2000.0000     47.3631
   682.0000   2000.0000      9.0626 100000.0000   2000.0000     47.2566
   682.2500   2000.0000      8.9404 100000.0000   2000.0000     47.0345
   682.5000   2000.0000      8.8028 100000.0000   2000.0000     46.5453
   682.7500   2000.0000      8.6891 100000.0000   2000.0000     46.0514
   683.0000   2000.0000      8.6258 100000.0000   2000.0000     45.1437
   683.2500   2000.0000      8.6209 100000.0000   2000.0000     44.6072
   683.5000   2000.0000      8.6657 100000.0000   2000.0000     44.2796
   683.7500   2000.0000      8.7422 100000.0000   2000.0000     44.5367
   684.0000   2000.0000      8.8307 100000.0000   2000.0000     45.6254
   684.2500   2000.0000      8.9174 100000.0000   2000.0000     46.6226
   684.5000   2000.0000      8.9952 100000.0000   2000.0000     48.0248
   684.7500   2000.0000      9.0601 100000.0000   2000.0000     48.6774
   685.0000   2000.0000      9.1055 100000.0000   2000.0000     49.1996
   685.2500   2000.0000      9.1199 100000.0000   2000.0000     49.4007
   685.5000   2000.0000      9.0901 100000.0000   2000.0000     49.8012
   685.7500   2000.0000      9.0069 100000.0000   2000.0000     50.2083
   686.0000   2000.0000      8.8712 100000.0000   2000.0000     50.8074
   686.2500   2000.0000      8.6975 100000.0000   2000.0000     50.9372
   686.5000   2000.0000      8.5174 100000.0000   2000.0000     50.4332
   686.7500   2000.0000      8.3777 100000.0000   2000.0000     49.6262
   687.0000   2000.0000      8.3319 100000.0000   2000.0000     47.7759
   687.2500   2000.0000      8.4237 100000.0000   2000.0000     46.2038
   687.5000   2000.0000      8.6686 100000.0000   2000.0000     43.7617
   687.7500   2000.0000      9.0399 100000.0000   2000.0000     42.3813
   688.0000   2000.0000      9.4646 100000.0000   2000.0000     40.8381
   688.2500   2000.0000      9.8439 100000.0000   2000.0000     40.0386
   688.5000   2000.0000     10.0957 100000.0000   2000.0000     39.1243
   688.7500   2000.0000     10.1983 100000.0000   2000.0000     38.8723
   689.0000   2000.0000     10.2021 100000.0000   2000.0000     39.2376
   689.2500   2000.0000     10.2107 100000.0000   2000.0000     39.8566
   689.5000   2000.0000     10.3475 100000.0000   2000.0000     41.0710
   689.7500   2000.0000     10.7184 100000.0000   2000.0000     42.0541
   690.0000   2000.0000     11.3598 100000.0000   2000.0000     43.6483
   690.2500   2000.0000     12.1562 100000.0000   2000.0000     44.4406
   690.5000   2000.0000     12.7672 100000.0000   2000.0000     44.6830
   690.7500   2000.0000     12.7622 100000.0000   2000.0000     44.3727
   691.0000   2000.0000     12.0261 100000.0000   2000.0000     44.1533
   691.2500   2000.0000     10.9049 100000.0000   2000.0000     44.5622
   691.5000   2000.0000      9.8359 100000.0000   2000.0000     45.8505
   691.7500   2000.0000      9.0554 100000.0000   2000.0000     46.9189
   692.0000   2000.0000      8.6304 100000.0000   2000.0000     48.9927
   692.2500   2000.0000      8.5905 100000.0000   2000.0000     51.0449
   692.5000   2000.0000      9.0375 100000.0000   2000.0000     55.4125
   692.7500   2000.0000     10.2470 100000.0000   2000.0000     58.9701
   693.0000   2000.0000     12.8231 100000.0000   2000.0000     64.4536
   693.2500   2000.0000     17.8386 100000.0000   2000.0000     67.5826
   693.5000   2000.0000     25.3521 100000.0000   2000.0000     70.4239
   693.7500   2000.0000     27.5492 100000.0000   2000.0000     70.8516
   694.0000   2000.0000     19.5152 100000.0000   2000.0000     70.3093
   694.2500   2000.0000     12.1460 100000.0000   2000.0000     70.5055
   694.5000   2000.0000      8.2935 100000.0000   2000.0000     73.9497
   694.7500   2000.0000      6.5028 100000.0000   2000.0000     78.8641
   695.0000   2000.0000      5.7846 100000.0000   2000.0000     89.1469
   695.2500   2000.0000      5.6801 100000.0000   2000.0000     96.7242
   695.5000   2000.0000      5.9343 100000.0000   2000.0000    107.4842
   695.7500   2000.0000      6.2585 100000.0000   2000.0000    113.9830
   696.0000   2000.0000      6.2113 100000.0000   2000.0000    123.0784
   696.2500   2000.0000      5.4966 100000.0000   2000.0000    128.6347
   696.5000   2000.0000      4.4135 100000.0000   2000.0000    134.7674
   696.7500   2000.0000      3.4750 100000.0000   2000.0000    136.2416
   697.0000   2000.0000      2.8965 100000.0000   2000.0000    133.6319
   697.2500   2000.0000      2.6810 100000.0000   2000.0000    129.0378
   697.5000   2000.0000      2.8220 100000.0000   2000.0000    119.3181
   697.7500   2000.0000      3.4143     32.6857   2000.0000    112.0272
