~Version Information
VERS.                      2.0: CWLS Log ASCII Standard - VERSION 2.0
WRAP.                       NO: One line per depth step
~Well Information Block
STRT.FT                 0.0000: 
STOP.FT              1201.0000: 
STEP.FT                 0.2500: 
NULL.                -999.2500: 
COMP.          Pioneer Natural Resources: COMPANY
WELL.             Margaux 11-1: WELL
FLD.           Purgatoire River: FIELD
LOC.           1154' FNL & 472' FWL --------: LOCATION
PROV.                 Colorado: PROVINCE
CNTY.               Las Animas: COUNTRY
SRVC.                         : SERVICE COMPANY
DATE.          Thu Jan 05 11:16:55 2006: LOG DATE
UWI.                          : UNIQUE WELL ID
~Curve Information Block
DEPT.FT            0 000 00 00: Depth
CCL.                          : Casing Collar Locator
TT3.usec                      : CBL 3' Travel Time
AMP3.mV                       : CBL 3' Amplitude
AMP5.mV                       : CBL 5' Amplitude
GR.GAPI                       : Gamma Ray
~Parameter Information Block
~A  Depth       CCL         TT3         AMP3        AMP5         GR     
# ...
  1008.0000      0.0000    391.9566      8.3646      1.1631     68.1067
  1008.2500      0.0000    387.6202      8.3765      1.2005     70.4755
  1008.5000      0.0000    383.9349      8.3938      1.2359     74.2063
  1008.7500      0.0000    380.8335      8.4043      1.2708     78.1597
  1009.0000      0.0000    377.8512      8.4084      1.2789     80.6251
  1009.2500      0.0000    375.1526      8.4126      1.2607     80.6553
  1009.5000      0.0000    373.7133      8.4139      1.2507     78.3011
  1009.7500      0.0000    374.6541      8.3992      1.2578     74.1112
  1010.0000      0.0000    378.5339      8.3593      1.2417     69.0106
  1010.2500      0.0000    384.9172      8.2969      1.1712     64.2935
  1010.5000      0.0000    392.3840      8.2180      1.0738     61.0160
  1010.7500      0.0000    399.4852      8.1251      1.0106     59.4316
  1011.0000      0.0000    406.4898      8.0242      1.0165     59.2369
  1011.2500      0.0000    416.9109      7.9289      1.0687     59.9803
  1011.5000      0.0000    437.2975      7.8465      1.1095     60.9688
  1011.7500      0.0000    473.7539      7.7676      1.1080     61.3892
  1012.0000      0.0000    526.0140      7.6854      1.1040     60.9903
  1012.2500      0.0000    584.5922      7.6207      1.1701     60.3121
  1012.5000      0.0000    635.9969      7.6151      1.3187     60.0278
  1012.7500      0.0000    671.8211      7.6920      1.4724     60.5320
  1013.0000      0.0000    692.2357      7.8318      1.5483     62.2185
  1013.2500      0.0000    701.9666      7.9852      1.5489     65.4494
  1013.5000      0.0000    705.3523      8.1056      1.5398     69.9335
  1013.7500      0.0000    705.0762      8.1726      1.5565     74.6359
  1014.0000      0.0000    703.0985      8.1886      1.5775     78.6667
  1014.2500      0.0000    701.0681      8.1589      1.5820     82.0306
  1014.5000      0.0000    699.9161      8.0788      1.5815     85.3152
  1014.7500      0.0000    699.8328      7.9485      1.5788     88.7802
  1015.0000      0.0000    700.7068      7.7994      1.5428     91.9690
  1015.2500      0.0000    702.0440      7.6877      1.4552     94.2342
  1015.5000      0.0000    702.2024      7.6520      1.3553     95.4602
  1015.7500      0.0000    698.0267      7.6880      1.3053     96.2302
  1016.0000      0.0000    685.3948      7.7714      1.3272     97.3992
  1016.2500      0.0000    660.5639      7.8905      1.3957     99.4167
  1016.5000      0.0000    622.3272      8.0458      1.4727    101.8785
  1016.7500      0.0000    574.1837      8.2326      1.5335    103.7832
  1017.0000      0.0000    524.2159      8.4377      1.5741    104.2446
  1017.2500      0.0000    481.1917      8.6448      1.6037    102.9492
  1017.5000      0.0000    449.5062      8.8346      1.6168    100.1563
  1017.7500      0.0000    427.8077      8.9912      1.5842     96.5243
  1018.0000      0.0000    412.4937      9.1103      1.4979     92.9707
  1018.2500      0.0000    402.2842      9.1964      1.4085     90.4487
  1018.5000      0.0000    399.9441      9.2517      1.3819     89.4418
  1018.7500      0.0000    410.2362      9.2795      1.4226     89.4584
  1019.0000      0.0000    434.9340      9.2964      1.4749     89.2797
  1019.2500      0.0000    467.5966      9.3277      1.5044     87.9068
  1019.5000      0.0000    493.9589      9.3887      1.5383     85.2130
  1019.7500      0.0000    501.4455      9.4762      1.6081     81.8342
  1020.0000      0.0000    490.5554      9.5770      1.6897     78.7068
  1020.2500      0.0000    475.8655      9.6776      1.7377     76.6566
  1020.5000      0.0000    474.8133      9.7618      1.7529     76.0837
  1020.7500      0.0000    494.8421      9.8097      1.7710     76.8382
  1021.0000      0.0000    528.5466      9.8068      1.7968     78.3684
  1021.2500      0.0000    558.2941      9.7520      1.7963     79.9676
  1021.5000      0.0000    566.7765      9.6538      1.7477     81.0010
  1021.7500      0.0000    547.6862      9.5219      1.6634     81.2532
  1022.0000      0.0000    509.4532      9.3656      1.5712     81.1948
  1022.2500      0.0000    468.5005      9.1954      1.5009     81.5231
  1022.5000      0.0000    437.6591      9.0225      1.4707     82.1871
  1022.7500      0.0000    420.1000      8.8566      1.4650     82.2137
  1023.0000      0.0000    412.0975      8.7053      1.4408     80.6863
  1023.2500      0.0000    408.8043      8.5668      1.3696     77.4643
  1023.5000      0.0000    407.2578      8.4273      1.2650     72.8285
  1023.7500      0.0000    406.2943      8.2744      1.1679     67.0140
  1024.0000      0.0000    405.5839      8.1140      1.1144     60.5180
  1024.2500      0.0000    405.0282      7.9659      1.1133     54.6270
  1024.5000      0.0000    404.5423      7.8457      1.1441     51.1404
  1024.7500      0.0000    404.0789      7.7568      1.1711     51.1912
  1025.0000      0.0000    403.7198      7.6984      1.1638     54.1790
  1025.2500      0.0000    403.9576      7.6734      1.1231     57.9180
  1025.5000      0.0000    406.3045      7.6830      1.0880     60.1357
  1025.7500      0.0000    414.0437      7.7185      1.0937     60.1220
  1026.0000      0.0000    431.8792      7.7659      1.1275     58.9161
  1026.2500      0.0000    462.5032      7.8174      1.1489     57.8965
  1026.5000      0.0000    501.3540      7.8716      1.1414     57.5891
  1026.7500      0.0000    536.3846      7.9283      1.1214     57.9399
  1027.0000      0.0000    557.0364      7.9928      1.1193     59.0007
  1027.2500      0.0000    563.7968      8.0757      1.1728     60.7031
  1027.5000      0.0000    566.2214      8.1792      1.3037     62.3352
  1027.7500      0.0000    572.5648      8.2865      1.4719     62.9016
  1028.0000      0.0000    584.0908      8.3751      1.5847     62.0077
  1028.2500      0.0000    597.1790      8.4343      1.5805     60.0917
  1028.5000      0.0000    607.1079      8.4656      1.4880     57.9694
  1028.7500      0.0000    611.1714      8.4700      1.3885     56.4023
  1029.0000      0.0000    611.1823      8.4451      1.3384     55.8159
  1029.2500      0.0000    612.2466      8.3930      1.3395     56.0342
  1029.5000      0.0000    617.6416      8.3195      1.3595     56.4210
  1029.7500      0.0000    625.9268      8.2297      1.3565     56.4964
  1030.0000      0.0000    633.4769      8.1311      1.3028     56.2824
  1030.2500      0.0000    638.2017      8.0414      1.2129     56.0394
  1030.5000      0.0000    640.3105      7.9819      1.1394     56.0070
  1030.7500      0.0000    640.8573      7.9600      1.1234     56.4444
  1031.0000      0.0000    640.3784      7.9629      1.1579     57.4872
  1031.2500      0.0000    638.1690      7.9686      1.2031     58.7122
  1031.5000      0.0000    631.8363      7.9597      1.2275     59.1213
  1031.7500      0.0000    617.6342      7.9312      1.2291     57.9266
  1032.0000      0.0000    592.9589      7.8906      1.2216     55.3584
  1032.2500      0.0000    560.2040      7.8517      1.2129     52.6386
  1032.5000      0.0000    527.1785      7.8248      1.1997     51.1794
  1032.7500      0.0000    501.6707      7.8062      1.1776     51.5106
  1033.0000      0.0000    486.1724      7.7696      1.1487     52.7111
  1033.2500      0.0000    479.5983      7.6691      1.1158     53.2158
  1033.5000      0.0000    481.7585      7.4610      1.0816     52.4743
  1033.7500      0.0000    493.0405      7.1360      1.0542     51.4394
  1034.0000      0.0000    511.4536      6.7357      1.0462     51.2901
  1034.2500      0.0000    533.4135      6.3293      1.0653     52.2188
  1034.5000      0.0000    557.1528      5.9651      1.1106     53.6139
  1034.7500      0.0000    583.2229      5.6442      1.1723     54.7257
  1035.0000      0.0000    611.5607      5.3577      1.2310     54.8716
  1035.2500      0.0000    639.5745      5.1456      1.2625     53.6769
  1035.5000      0.0000    663.3513      5.0829      1.2510     51.6651
  1035.7500      0.0000    680.3043      5.1874      1.1999     50.4056
