~Version Information
VERS.                      2.0: CWLS Log ASCII Standard - VERSION 2.0
WRAP.                       NO: One line per depth step
~Well Information Block
STRT.FT                 0.0000: 
STOP.FT              1201.0000: 
STEP.FT                 0.2500: 
NULL.                -999.2500: 
COMP.          Pioneer Natural Resources: COMPANY
WELL.             Margaux 11-1: WELL
FLD.           Purgatoire River: FIELD
LOC.           1154' FNL & 472' FWL --------: LOCATION
PROV.                 Colorado: PROVINCE
CNTY.               Las Animas: COUNTRY
SRVC.                         : SERVICE COMPANY
DATE.          Thu Jan 05 11:16:55 2006: LOG DATE
UWI.                          : UNIQUE WELL ID
~Curve Information Block
DEPT.FT            0 000 00 00: Depth
CCL.                          : Casing Collar Locator
TT3.usec                      : CBL 3' Travel Time
AMP3.mV                       : CBL 3' Amplitude
AMP5.mV                       : CBL 5' Amplitude
GR.GAPI                       : Gamma Ray
~Parameter Information Block
~A  Depth       CCL         TT3         AMP3        AMP5         GR     
# ...
   616.0000      0.0000    703.9797      7.2127      1.4938    145.4241
   616.2500      0.0000    708.8580      7.0186      1.4840    140.1700
   616.5000      0.0000    707.9398      6.7898      1.4252    132.8782
   616.7500      0.0000    705.7765      6.5718      1.3726    126.5690
   617.0000      0.0000    709.5332      6.3748      1.3566    123.8038
   617.2500      0.0000    721.4981      6.1602      1.3514    124.9086
   617.5000      0.0000    735.1573      5.9142      1.3214    127.4560
   617.7500      0.0000    738.9282      5.6939      1.2640    128.0620
   618.0000      0.0000    725.1938      5.5664      1.1984    125.1522
   618.2500      0.0000    697.0440      5.5362      1.1426    120.2367
   618.5000      2.0000    666.7195      5.5536      1.1074    116.8586
   618.7500      0.0000    648.0978      5.5662      1.0959    118.2682
   619.0000      0.0000    649.7746      5.5529      1.1062    125.3476
   619.2500      0.0000    671.2408      5.5314      1.1431    136.1235
   619.5000      0.0000    702.1640      5.5407      1.2111    147.3732
   619.7500      0.0000    727.1226      5.6035      1.2917    156.7807
   620.0000      0.0000    734.6408      5.7137      1.3503    163.3581
   620.2500      0.0000    722.6575      5.8787      1.3671    166.3250
   620.5000      0.0000    696.2330      6.1365      1.3395    164.7707
   620.7500      0.0000    662.9578      6.4895      1.2601    158.8428
   621.0000      0.0000    631.1930      6.8494      1.1268    150.6671
   621.2500      0.0000    609.1754      7.0920      0.9731    143.4709
   621.5000      0.0000    602.5805      7.1557      0.8586    139.5895
   621.7500      0.0000    612.5519      7.0751      0.8242    139.1910
   622.0000      0.0000    635.8111      6.9443      0.8724    140.5980
   622.2500      0.0000    665.5834      6.8588      0.9747    141.7218
   622.5000      0.0000    693.1365      6.8646      1.0744    141.4120
   622.7500      0.0000    711.3355      6.9403      1.1112    139.7168
   623.0000      0.0000    718.6212      7.0310      1.0768    137.2743
   623.2500      0.0000    718.7990      7.1039      1.0307    134.8197
   623.5000      0.0000    716.0664      7.1623      1.0326    133.0684
   623.7500      0.0000    711.2446      7.2092      1.0746    132.5175
   624.0000      0.0000    703.4181      7.2132      1.1073    133.2895
   624.2500      0.0000    693.5007      7.1144      1.1139    135.4769
   624.5000      0.0000    684.5901      6.8637      1.1231    139.5345
   624.7500      0.0000    679.8110      6.4579      1.1585    145.8143
   625.0000      0.0000    681.2629      5.9473      1.2061    153.5063
   625.2500      0.0000    690.4869      5.4176      1.2338    160.3288
   625.5000      0.0000    708.2811      4.9590      1.2176    163.7043
   625.7500      0.0000    733.3134      4.6360      1.1541    162.5383
   626.0000      0.0000    761.5361      4.4662      1.0653    157.8913
   626.2500      0.0000    787.8228      4.4263      0.9804    151.8368
   626.5000      0.0000    808.4178      4.4820      0.9077    145.7002
   626.7500      0.0000    821.5676      4.6116      0.8403    139.6680
   627.0000      0.0000    826.5664      4.8012      0.7888    134.0830
   627.2500      0.0000    823.6194      5.0381      0.7908    130.5796
   627.5000      0.0000    814.0932      5.3249      0.8815    131.4377
   627.7500      0.0000    799.2778      5.6937      1.0564    137.7574
   628.0000      0.0000    779.7437      6.1873      1.2564    148.2831
   628.2500      0.0000    757.3779      6.8103      1.4005    159.8760
   628.5000      0.0000    736.5571      7.4978      1.4481    169.0758
   628.7500      0.0000    721.5646      8.1347      1.4191    173.5461
   629.0000      0.0000    713.7460      8.6156      1.3565    172.8636
   629.2500      0.0000    711.9597      8.8982      1.2915    168.7504
   629.5000      0.0000    714.4169      9.0111      1.2465    164.2826
   629.7500      0.0000    719.1702      9.0147      1.2357    161.6777
   630.0000      0.0000    723.8696      8.9608      1.2564    160.2536
   630.2500      0.0000    726.2040      8.8845      1.2951    157.1187
   630.5000      0.0000    724.8704      8.8174      1.3369    150.3749
   630.7500      0.0000    719.8928      8.7880      1.3624    141.3007
   631.0000      0.0000    712.0903      8.8078      1.3600    132.9459
   631.2500      0.0000    702.6780      8.8633      1.3530    126.8919
   631.5000      0.0000    693.4363      8.9262      1.3908    122.0076
   631.7500      0.0000    686.6090      8.9743      1.4938    116.3682
   632.0000      0.0000    684.0443      9.0007      1.6246    109.6808
   632.2500      0.0000    686.1949      9.0102      1.7353    103.4629
   632.5000      0.0000    691.5897      9.0139      1.8278     99.5370
   632.7500      0.0000    697.1413      9.0268      1.9403     98.8586
   633.0000      0.0000    699.6661      9.0614      2.0776    101.1780
   633.2500      0.0000    698.0637      9.1184      2.1832    105.1047
   633.5000      0.0000    694.1797      9.1823      2.1835    108.7263
   633.7500      0.0000    691.1802      9.2250      2.0483    110.9519
   634.0000      0.0000    690.9188      9.2159      1.8158    112.6052
   634.2500      0.0000    692.9663      9.1365      1.5723    115.7596
   634.5000      0.0000    695.9170      8.9951      1.4014    121.4444
   634.7500      0.0000    699.0406      8.8256      1.3425    128.1820
   635.0000      0.0000    702.4908      8.6696      1.3880    133.3019
   635.2500      0.0000    706.3878      8.5542      1.5024    135.5623
   635.5000      0.0000    710.2581      8.4841      1.6354    135.8918
   635.7500      0.0000    713.4982      8.4449      1.7449    135.7286
   636.0000      0.0000    716.0590      8.4111      1.8242    135.5313
   636.2500      0.0000    718.2457      8.3601      1.8899    135.1334
   636.5000      0.0000    719.3763      8.2864      1.9424    134.6296
   636.7500      0.0000    716.4725      8.2001      1.9577    134.0524
   637.0000      0.0000    705.2415      8.1137      1.9101    132.6927
   637.2500      0.0000    684.1373      8.0339      1.7879    129.6369
   637.5000      0.0000    658.1143      7.9620      1.6011    124.7697
   637.7500      0.0000    637.2448      7.8950      1.3935    118.5822
   638.0000      0.0000    630.5887      7.8262      1.2276    111.2815
   638.2500      0.0000    640.5825      7.7520      1.1437    102.8642
   638.5000      0.0000    661.5055      7.6780      1.1396     94.1301
   638.7500      0.0000    681.9484      7.6171      1.1850     87.2530
   639.0000      0.0000    690.4199      7.5795      1.2426     85.1180
   639.2500      0.0000    682.0225      7.5663      1.2958     89.5792
   639.5000      0.0000    661.6232      7.5702      1.3709     99.6064
   639.7500      0.0000    640.7323      7.5819      1.5106    111.0688
   640.0000      0.0000    630.8235      7.5976      1.7096    119.1302
   640.2500      0.0000    637.6780      7.6221      1.8956    121.5227
   640.5000      0.0000    658.8467      7.6603      1.9848    119.4250
   640.7500      0.0000    685.1405      7.7054      1.9448    115.3073
   641.0000      0.0000    706.2640      7.7385      1.8102    110.7693
   641.2500      0.0000    716.9861      7.7395      1.6585    106.6017
   641.5000      0.0000    718.4769      7.6973      1.5642    103.6927
   641.7500      0.0000    714.5020      7.6163      1.5527    102.7911
   642.0000      0.0000    707.7148      7.5154      1.5853    103.7949
   642.2500      0.0000    699.4508      7.4195      1.5908    106.0119
   642.5000      0.0000    691.4163      7.3476      1.5193    108.9549
   642.7500      0.0000    686.1813      7.3071      1.3822    112.5178
   643.0000      0.0000    685.8776      7.2958      1.2487    116.5604
   643.2500      0.0000    690.7094      7.3044      1.1989    120.5548
   643.5000      0.0000    698.8411      7.3197      1.2731    123.5764
   643.7500      0.0000    707.6677      7.3331      1.4500    124.7418
