~Version Information
VERS.                      2.0: CWLS Log ASCII Standard - VERSION 2.0
WRAP.                       NO: One line per depth step
~Well Information Block
STRT.FT                -8.0000: 
STOP.FT               918.7500: 
STEP.FT                 0.2500: 
NULL.                -999.2500: 
COMP.          Pioneer Natural Resources: COMPANY
WELL.          Sculpin 32-30 Tr: WELL
FLD.           Purgatorie River: FIELD
LOC.           1600' FNL & 1857' FEL--: LOCATION
CNTY.               Las Animas: COUNTY
SRVC.          Patterson Wireline: SERVICE COMPANY
DATE.          Thu Aug 03 08:40:45 2006: LOG DATE
UWI.           05 071 08706 00: UNIQUE WELL ID
STAT.                       CO: STATE
~Curve Information Block
DEPT.FT            0 000 00 00: Depth
CCL.                          : Casing Collar Locator
TT3.usec                      : CBL 3' Travel Time
AMP3.mV                       : CBL 3' Amplitude
GR.GAPI                       : Gamma Ray
~Parameter Information Block
~A  Depth       CCL         TT3         AMP3         GR     
# ...
   293.5000      0.0000    654.0930      3.3754     94.4505
   293.7500      0.0000    647.7846      3.2996     93.4805
   294.0000      0.0000    637.8245      3.2899     94.6586
   294.2500      0.0000    627.6443      3.3372     97.9915
   294.5000      0.0000    620.5688      3.4099    101.9042
   294.7500      0.0000    619.6689      3.4715    104.3043
   295.0000      0.0000    627.1381      3.5003    104.0375
   295.2500      0.0000    643.6317      3.4958    101.5915
   295.5000      0.0000    668.0452      3.4722     98.6288
   295.7500      0.0000    697.3851      3.4454     96.7651
   296.0000      0.0000    726.3661      3.4239     96.4428
   296.2500      0.0000    747.9377      3.4092     96.7841
   296.5000      0.0000    756.1061      3.3982     96.7309
   296.7500      0.0000    748.9213      3.3855     96.3935
   297.0000      0.0000    728.5146      3.3656     96.9360
   297.2500      0.0000    699.4854      3.3387     99.0049
   297.5000      0.0000    668.3007      3.3173    101.8399
   297.7500      0.0000    642.3293      3.3305    104.1071
   298.0000      0.0000    627.0496      3.4243    104.9528
   298.2500      0.0000    623.7898      3.6481    103.9937
   298.5000      0.0000    630.0401      4.0122    100.8856
   298.7500      0.0000    641.3724      4.4435     95.3647
   299.0000      0.0000    653.9001      4.8116     87.6656
   299.2500      0.0000    666.7741      5.0312     78.7780
   299.5000      0.0000    682.8404      5.1240     70.3198
   299.7500      0.0000    705.4409      5.1641     64.0684
   300.0000      0.0000    732.9922      5.1888     61.2857
   300.2500     -2.0000    756.9738      5.1844     62.2223
   300.5000      2.0000    767.3334      5.1362     66.1477
   300.7500      0.0000    761.5651      5.0657     71.7903
   301.0000      0.0000    747.8696      5.0186     77.9639
   301.2500      0.0000    737.9422      5.0149     84.1446
   301.5000      0.0000    736.6769      5.0071     90.5446
   301.7500      0.0000    739.9373      4.9087     97.3098
   302.0000      0.0000    741.8480      4.6849    103.5108
   302.2500      0.0000    741.8090      4.3980    107.2891
   302.5000      0.0000    743.3133      4.1467    107.3904
   302.7500      0.0000    748.0573      3.9810    104.4164
   303.0000      0.0000    753.4988      3.8881    100.3133
   303.2500      0.0000    756.2759      3.8327     96.8210
   303.5000      0.0000    757.1129      3.7891     94.6432
   303.7500      0.0000    761.1647      3.7462     93.5908
   304.0000      0.0000    772.2260      3.7022     92.8318
   304.2500      0.0000    786.7494      3.6585     91.1442
   304.5000      0.0000    795.2544      3.6158     87.5861
   304.7500      0.0000    790.4443      3.5743     82.2598
   305.0000      0.0000    773.3577      3.5373     76.4368
   305.2500      0.0000    751.7178      3.5108     71.9008
   305.5000      0.0000    733.4719      3.4985     69.9930
   305.7500      0.0000    722.2677      3.4978     70.9565
   306.0000      0.0000    717.7618      3.5027     73.9028
   306.2500      0.0000    718.4264      3.5113     77.4286
   306.5000      0.0000    723.2596      3.5277     80.5086
   306.7500      0.0000    731.3130      3.5547     82.9964
   307.0000      0.0000    740.4533      3.5878     85.2705
   307.2500      0.0000    747.2592      3.6157     87.4730
   307.5000      0.0000    748.4459      3.6293     89.2808
   307.7500      0.0000    742.8237      3.6280     90.1853
   308.0000      0.0000    731.8029      3.6195     89.6519
   308.2500      0.0000    717.0607      3.6127     87.3380
   308.5000      0.0000    697.5621      3.6107     83.7322
   308.7500      0.0000    670.5460      3.6095     80.3545
   309.0000      0.0000    636.2039      3.6025     78.7361
   309.2500      0.0000    599.2733      3.5869     79.2609
   309.5000      0.0000    564.7554      3.5657     81.3677
   309.7500      0.0000    534.3117      3.5446     84.6250
   310.0000      0.0000    509.1761      3.5284     88.9899
   310.2500      0.0000    495.1194      3.5201     93.9466
   310.5000      0.0000    500.9991      3.5217     97.9842
   310.7500      0.0000    530.7787      3.5342     99.5114
   311.0000      0.0000    578.0741      3.5546     98.3219
   311.2500      0.0000    629.7632      3.5760     95.9132
   311.5000      0.0000    674.3297      3.5912     94.2896
   311.7500      0.0000    706.5377      3.5982     94.4615
   312.0000      0.0000    726.4496      3.6011     95.9084
   312.2500      0.0000    736.4435      3.6087     97.2001
   312.5000      0.0000    738.7018      3.6275     97.2895
   312.7500      0.0000    734.0153      3.6578     96.5991
   313.0000      0.0000    723.1890      3.6929     96.6585
   313.2500      0.0000    710.0323      3.7255     98.2874
   313.5000      0.0000    701.4192      3.7506    100.5068
   313.7500      0.0000    702.1484      3.7667    101.7500
   314.0000      0.0000    709.5812      3.7753    101.6141
   314.2500      0.0000    714.7946      3.7806    100.7948
   314.5000      0.0000    709.6365      3.7873     99.9091
   314.7500      0.0000    692.4716      3.7950     99.2360
   315.0000      0.0000    667.4771      3.7961     99.1255
   315.2500      0.0000    639.5837      3.7802     99.7264
   315.5000      0.0000    610.9331      3.7449    100.5510
   315.7500      0.0000    581.7968      3.7021    100.9399
   316.0000      0.0000    553.4919      3.6768    100.7435
   316.2500      0.0000    529.5587      3.6944    100.1736
   316.5000      0.0000    514.5267      3.7622     99.3368
   316.7500      0.0000    511.5276      3.8593     98.2314
   317.0000      0.0000    520.2362      3.9477     96.8196
   317.2500      0.0000    535.9122      3.9978     94.8352
   317.5000      0.0000    549.2726      4.0048     91.8914
   317.7500      0.0000    548.6509      3.9827     87.9969
   318.0000      0.0000    526.7820      3.9472     83.6724
   318.2500      0.0000    487.7146      3.9057     79.5043
   318.5000      0.0000    444.8935      3.8600     75.8443
   318.7500      0.0000    411.0089      3.8113     73.0426
   319.0000      0.0000    390.3052      3.7631     71.7601
   319.2500      0.0000    379.4884      3.7190     72.7066
   319.5000      0.0000    372.9511      3.6814     75.8519
   319.7500      0.0000    366.5534      3.6516     80.1686
   320.0000      0.0000    358.8014      3.6293     84.5630
   320.2500      0.0000    350.4651      3.6108     88.8511
   320.5000      0.0000    343.2827      3.5914     93.4622
   320.7500      0.0000    338.4389      3.5686     98.4784
   321.0000      0.0000    335.9079      3.5421    103.3478
   321.2500      0.0000    334.8936      3.5101    107.2409
   321.5000      0.0000    334.5845      3.4704    109.3863
   321.7500      0.0000    334.5064      3.4261    109.4121
   322.0000      0.0000    334.4715      3.3881    107.8154
   322.2500      0.0000    334.4204      3.3682    106.0540
   322.5000      0.0000    334.3278      3.3699    105.7280
   322.7500      0.0000    334.1787      3.3864    107.3007
   323.0000      0.0000    333.9785      3.4063    109.6364
   323.2500      0.0000    333.7541      3.4242    111.0676
   323.5000      0.0000    333.5392      3.4438    111.0738
   323.7500      0.0000    333.3583      3.4732    110.7020
   324.0000      0.0000    333.2212      3.5165    111.1644
   324.2500      0.0000    333.1268      3.5706    112.2892
   324.5000      0.0000    333.0691      3.6262    112.5856
   324.7500      0.0000    333.0417      3.6730    110.6076
   325.0000      0.0000    333.0396      3.7042    106.1279
   325.2500      0.0000    333.0574      3.7173    100.2331
   325.5000      0.0000    333.0863      3.7122     94.5277
   325.7500      0.0000    333.1136      3.6885     90.2661
   326.0000      0.0000    333.1268      3.6490     88.1180
   326.2500      0.0000    333.1180      3.6021     88.3586
   326.5000      0.0000    333.0892      3.5601     90.7869
   326.7500      0.0000    333.0505      3.5300     94.3779
