~Version Information
VERS.                      2.0: CWLS Log ASCII Standard - VERSION 2.0
WRAP.                       NO: One line per depth step
~Well Information Block
STRT.FT               710.0000: 
STOP.FT              1983.0000: 
STEP.FT                 0.1000: 
NULL.                -999.2500: 
COMP.          Petrogulf Corporation: COMPANY
WELL.           State 16-23R-X: WELL
FLD.           Purgatorie River: FIELD
LOC.           2381' FSL & 2072' FWL: LOCATION
PROV.                 Colorado: PROVINCE
CNTY.               Las Animas: COUNTRY
SRVC.                Patterson: SERVICE COMPANY
DATE.          Mon Aug 08 07:36:34 2005: LOG DATE
UWI.                          : UNIQUE WELL ID
~Curve Information Block
DEPT.FT            0 000 00 00: Depth
DCAL.in                       : CDL Caliper
RHOB.g/cc                     : CDL Bulk Density
RHOC.g/cc                     : CDL Density Correction
DPOR.pu                       : CDL Density Porosity
GR.GAPI                       : Gamma Ray
NPOR.pu                       : Neutron Porosity
~Parameter Information Block
~A  Depth       DCAL        RHOB        RHOC        DPOR         GR         NPOR    
# ...
  1209.2000      8.3393      2.0014      0.3149     39.3071    124.7968     18.9689
  1209.3000      8.1686      2.0206      0.2145     38.1481    129.1658     20.6294
  1209.4000      8.1686      2.0512      0.1686     36.2900    131.3178     22.3325
  1209.5000      8.1401      2.1007      0.1562     33.2933    131.2016     23.9285
  1209.6000      8.1401      2.1582      0.1424     29.8063    131.4961     24.9755
  1209.7000      8.1401      2.2092      0.1839     26.7137    133.7369     25.3329
  1209.8000      8.1244      2.2418      0.1893     24.7397    136.6537     25.2944
  1209.9000      8.1244      2.2542      0.1526     23.9895    140.1708     25.1518
  1210.0000      8.1330      2.2571      0.1454     23.8113    142.8177     25.0596
  1210.1000      8.1330      2.2635      0.1425     23.4220    141.5449     24.9841
  1210.2000      8.1330      2.2765      0.1606     22.6377    138.8329     24.7676
  1210.3000      8.1203      2.2892      0.1713     21.8681    139.2248     24.3121
  1210.4000      8.1203      2.2927      0.1766     21.6526    140.3054     23.8162
  1210.5000      8.1291      2.2904      0.1499     21.7963    139.8155     23.6347
  1210.6000      8.1291      2.2945      0.1987     21.5441    140.0069     23.7328
  1210.7000      8.1291      2.3091      0.1841     20.6605    140.6462     23.8498
  1210.8000      8.1415      2.3372      0.1375     18.9585    141.3522     23.9946
  1210.9000      8.1415      2.3769      0.1721     16.5542    142.9196     24.3546
  1211.0000      8.1253      2.4131      0.1867     14.3598    143.8500     24.9430
  1211.1000      8.1253      2.4429      0.1548     12.5488    143.9521     25.7984
  1211.2000      8.1253      2.4786      0.1600     10.3880    144.5840     27.0278
  1211.3000      8.0835      2.5171      0.1871      8.0518    146.6907     28.3421
  1211.4000      8.0835      2.5453      0.1852      6.3472    148.9729     29.2821
  1211.5000      7.9830      2.5654      0.1039      5.1282    148.6563     29.7756
  1211.6000      7.9830      2.5864      0.0639      3.8526    146.1346     30.0530
  1211.7000      7.9830      2.6030      0.1107      2.8494    144.1395     30.5041
  1211.8000      7.9965      2.6095      0.0534      2.4525    144.3035     30.9900
  1211.9000      7.9965      2.6169      0.0309      2.0086    147.8051     30.8317
  1212.0000      7.9779      2.6271      0.0490      1.3896    151.7303     29.9954
  1212.1000      7.9779      2.6209      0.0695      1.7634    152.6154     29.0890
  1212.2000      7.9779      2.5929      0.0062      3.4636    152.4263     28.4585
  1212.3000      7.9724      2.5672      0.0079      5.0172    152.0512     28.1271
  1212.4000      7.9724      2.5594      0.0579      5.4918    151.5163     28.0450
  1212.5000      7.9729      2.5576      0.0744      5.6004    154.3648     28.1483
  1212.6000      7.9729      2.5554      0.0156      5.7306    161.3717     28.3308
  1212.7000      7.9729      2.5615      0.0234      5.3665    167.3901     28.2819
  1212.8000      7.9695      2.5703      0.0728      4.8304    168.2044     27.9101
  1212.9000      7.9695      2.5676      0.0734      4.9957    164.7546     27.4635
  1213.0000      7.9732      2.5505      0.0637      6.0275    161.8447     26.8686
  1213.1000      7.9732      2.5210      0.0605      7.8161    162.8914     26.0169
  1213.2000      7.9732      2.4839      0.0381     10.0649    165.7600     25.4551
  1213.3000      7.9851      2.4447      0.0246     12.4449    166.4910     25.3183
  1213.4000      7.9851      2.4051      0.0482     14.8397    164.5086     24.9175
  1213.5000      7.9867      2.3741     -0.0178     16.7226    160.8920     24.1099
  1213.6000      7.9867      2.3616      0.0153     17.4793    155.6891     23.5414
  1213.7000      7.9867      2.3604      0.0658     17.5501    148.9190     23.3825
  1213.8000      8.0044      2.3576      0.0818     17.7197    143.4166     23.1193
  1213.9000      8.0044      2.3549      0.1042     17.8819    140.5941     22.7414
  1214.0000      8.0745      2.3614      0.1613     17.4911    140.7832     22.6509
  1214.1000      8.0745      2.3757      0.1997     16.6255    144.9302     22.8380
  1214.2000      8.0745      2.3859      0.2358     16.0081    150.6703     23.0404
  1214.3000      8.1139      2.3902      0.1349     15.7446    152.3371     23.1344
  1214.4000      8.1139      2.3993      0.1852     15.1920    148.3677     23.1734
  1214.5000      8.0929      2.4080      0.1798     14.6647    143.4001     23.1832
  1214.6000      8.0929      2.4030      0.1571     14.9711    141.8530     23.1451
  1214.7000      8.0929      2.3842      0.1377     16.1096    143.1678     23.1673
  1214.8000      8.0865      2.3598      0.1422     17.5892    142.4372     23.2489
  1214.9000      8.0865      2.3362      0.1124     19.0162    138.2137     23.1529
  1215.0000      8.1038      2.3153      0.0810     20.2819    135.9504     22.7904
  1215.1000      8.1038      2.2986      0.0327     21.2990    138.4518     22.4231
  1215.2000      8.1038      2.2917      0.0473     21.7173    142.7898     22.2980
  1215.3000      8.1214      2.2965      0.0587     21.4271    144.8470     22.3242
  1215.4000      8.1214      2.3020      0.0906     21.0933    141.1860     22.3483
  1215.5000      8.1101      2.2932      0.0487     21.6224    134.1125     22.2715
  1215.6000      8.1101      2.2652      0.0558     23.3241    129.3040     22.1068
  1215.7000      8.1101      2.2209      0.0544     26.0040    129.0304     22.0091
  1215.8000      8.0945      2.1661      0.0364     29.3301    130.4432     22.0348
  1215.9000      8.0945      2.1106     -0.0083     32.6879    130.2666     21.9651
  1216.0000      8.0870      2.0693     -0.0366     35.1954    130.8824     21.5980
  1216.1000      8.0870      2.0464      0.0034     36.5818    133.0888     21.1984
  1216.2000      8.0870      2.0321     -0.0158     37.4477    135.0770     20.8889
  1216.3000      8.0917      2.0153      0.0053     38.4666    136.4524     20.3701
  1216.4000      8.0917      1.9883      0.0404     40.1033    135.4049     19.6855
  1216.5000      8.0864      1.9546      0.0300     42.1427    130.9127     19.2409
  1216.6000      8.0864      1.9300      0.0289     43.6353    125.6621     19.3101
  1216.7000      8.0864      1.9226      0.0399     44.0833    123.1041     19.8183
  1216.8000      8.0969      1.9321      0.0392     43.5117    125.5975     20.6286
  1216.9000      8.0969      1.9679     -0.0268     41.3414    132.8060     21.7266
  1217.0000      8.0875      2.0365      0.0326     37.1836    139.8196     22.9813
  1217.1000      8.0875      2.1163      0.1332     32.3448    142.8893     24.1454
  1217.2000      8.0875      2.1861      0.1552     28.1146    143.2305     25.1686
  1217.3000      8.0761      2.2523      0.1540     24.1048    143.7545     26.2397
  1217.4000      8.0761      2.3252      0.1024     19.6852    145.8105     27.3663
  1217.5000      7.9604      2.3964      0.0763     15.3703    149.4957     28.3600
  1217.6000      7.9604      2.4473      0.0932     12.2850    153.2425     29.1026
  1217.7000      7.9604      2.4734      0.0617     10.7024    154.4561     29.6416
  1217.8000      7.9080      2.4916      0.0128      9.5981    153.0568     30.0699
  1217.9000      7.9080      2.5142      0.0730      8.2308    152.1454     30.3732
  1218.0000      7.9016      2.5327      0.0763      7.1119    154.6691     30.4636
  1218.1000      7.9016      2.5396      0.0237      6.6880    158.7240     30.3405
  1218.2000      7.9016      2.5372      0.0485      6.8386    160.4801     30.2075
  1218.3000      7.9194      2.5293      0.0103      7.3149    159.4016     30.3178
  1218.4000      7.9194      2.5307     -0.0150      7.2274    157.6023     30.5571
  1218.5000      7.9206      2.5498      0.0225      6.0755    155.5209     30.5956
  1218.6000      7.9206      2.5662      0.0719      5.0785    152.9185     30.3717
  1218.7000      7.9206      2.5607      0.0638      5.4120    152.9898     30.1157
