~Version Information
VERS.                      2.0: CWLS Log ASCII Standard - VERSION 2.0
WRAP.                       NO: One line per depth step
~Well Information Block
STRT.FT               310.0000: 
STOP.FT              2298.0000: 
STEP.FT                 0.2500: 
NULL.                -999.2500: 
COMP.          Pioneer Natural Resources: COMPANY
WELL.               Relay 12-7: WELL
FLD.           Purgatoire River: FIELD
LOC.           1999' FNL & 848' FWL: LOCATION
PROV.                 Colorado: PROVINCE
CNTY.               Las Animas: COUNTRY
SRVC.                Patterson: SERVICE COMPANY
DATE.          Fri Dec 16 17:39:57 2005: LOG DATE
UWI.           05 071 08453 00: UNIQUE WELL ID
~Curve Information Block
DEPT.FT            0 000 00 00: Depth
SN.Ohm-m                      : IEL Short Normal
SP.mV                         : IEL Spontaneous Potential
DIR.Ohm-m                     : IEL Induction Resistivity
GR.GAPI                       : Gamma Ray
~Parameter Information Block
~A  Depth        SN          SP         DIR          GR     
# ...
   712.0000   2000.0000   2000.0000     26.3691    131.0856
   712.2500   2000.0000   2000.0000     25.1124    130.0599
   712.5000   2000.0000   2000.0000     23.9577    130.6637
   712.7500   2000.0000   2000.0000     23.0059    133.1693
   713.0000   2000.0000   2000.0000     22.2792    139.7992
   713.2500   2000.0000   2000.0000     21.7404    145.5456
   713.5000   2000.0000   2000.0000     21.3312    154.5191
   713.7500   2000.0000   2000.0000     21.0082    159.2584
   714.0000   2000.0000   2000.0000     20.7591    162.0719
   714.2500   2000.0000   2000.0000     20.5962    160.8172
   714.5000   2000.0000   2000.0000     20.5382    156.3185
   714.7500   2000.0000   2000.0000     20.5986    153.2767
   715.0000   2000.0000   2000.0000     20.7871    149.9179
   715.2500   2000.0000   2000.0000     21.1191    147.6867
   715.5000   2000.0000   2000.0000     21.6235    141.4445
   715.7500   2000.0000   2000.0000     22.3358    134.1130
   716.0000   2000.0000   2000.0000     23.2792    118.9005
   716.2500   2000.0000   2000.0000     24.4505    107.5859
   716.5000   2000.0000   2000.0000     25.8262     91.8781
   716.7500   2000.0000   2000.0000     27.3909     83.3293
   717.0000   2000.0000   2000.0000     29.1617     74.1595
   717.2500   2000.0000   2000.0000     31.1802     70.6778
   717.5000   2000.0000   2000.0000     33.4750     69.4655
   717.7500   2000.0000   2000.0000     36.0322     71.0304
   718.0000   2000.0000   2000.0000     38.8030     75.6815
   718.2500   2000.0000   2000.0000     41.7440     79.3628
   718.5000   2000.0000   2000.0000     44.8525     84.3550
   718.7500   2000.0000   2000.0000     48.1642     86.7777
   719.0000   2000.0000   2000.0000     51.7104     88.4030
   719.2500   2000.0000   2000.0000     55.4530     87.9774
   719.5000   2000.0000   2000.0000     59.2284     85.5685
   719.7500   2000.0000   2000.0000     62.7524     83.5045
   720.0000   2000.0000   2000.0000     65.7131     80.8251
   720.2500   2000.0000   2000.0000     67.9144     79.4499
   720.5000   2000.0000   2000.0000     69.3330     77.4347
   720.7500   2000.0000   2000.0000     70.0669     75.7387
   721.0000   2000.0000   2000.0000     70.2392     72.6683
   721.2500   2000.0000   2000.0000     69.9642     70.7952
   721.5000   2000.0000   2000.0000     69.3964     69.4642
   721.7500   2000.0000   2000.0000     68.8078     69.8651
   722.0000   2000.0000   2000.0000     68.5962     71.7128
   722.2500   2000.0000   2000.0000     69.1722     73.0257
   722.5000   2000.0000   2000.0000     70.7646     74.2154
   722.7500   2000.0000   2000.0000     73.2170     74.3695
   723.0000   2000.0000   2000.0000     75.8866     73.9911
   723.2500   2000.0000   2000.0000     77.8061     73.8599
   723.5000   2000.0000   2000.0000     78.1658     75.1521
   723.7500   2000.0000   2000.0000     76.7772     77.5286
   724.0000   2000.0000   2000.0000     74.0438     82.8079
   724.2500   2000.0000   2000.0000     70.5362     86.3656
   724.5000   2000.0000   2000.0000     66.6683     90.0303
   724.7500   2000.0000   2000.0000     62.6598     91.2053
   725.0000   2000.0000   2000.0000     58.6339     92.2018
   725.2500   2000.0000   2000.0000     54.6846     93.1643
   725.5000   2000.0000   2000.0000     50.8947     95.6151
   725.7500   2000.0000   2000.0000     47.3492     97.7750
   726.0000   2000.0000   2000.0000     44.1380    101.5590
   726.2500   2000.0000   2000.0000     41.3418    104.5915
   726.5000   2000.0000   2000.0000     39.0064    110.1744
   726.7500   2000.0000   2000.0000     37.1315    114.2863
   727.0000   2000.0000   2000.0000     35.6836    119.7122
   727.2500   2000.0000   2000.0000     34.6159    122.1390
   727.5000   2000.0000   2000.0000     33.8853    123.9773
   727.7500   2000.0000   2000.0000     33.4563    124.5838
   728.0000   2000.0000   2000.0000     33.2964    125.3384
   728.2500   2000.0000   2000.0000     33.3614    125.5901
   728.5000   2000.0000   2000.0000     33.5849    124.6547
   728.7500   2000.0000   2000.0000     33.8913    122.6595
   729.0000   2000.0000   2000.0000     34.2398    117.2538
   729.2500   2000.0000   2000.0000     34.6727    112.1663
   729.5000   2000.0000   2000.0000     35.3259    103.0488
   729.7500   2000.0000   2000.0000     36.3857     96.6068
   730.0000   2000.0000   2000.0000     38.0256     87.5158
   730.2500   2000.0000   2000.0000     40.3562     82.3284
   730.5000   2000.0000   2000.0000     43.4048     76.2183
   730.7500   2000.0000   2000.0000     47.1268     73.2828
   731.0000   2000.0000   2000.0000     51.4458     70.6351
   731.2500   2000.0000   2000.0000     56.2962     70.0046
   731.5000   2000.0000   2000.0000     61.6282     70.1457
   731.7500   2000.0000   2000.0000     67.3555     70.3144
   732.0000   2000.0000   2000.0000     73.2766     69.7652
   732.2500   2000.0000   2000.0000     79.0269     68.7266
   732.5000   2000.0000   2000.0000     84.1338     66.3962
   732.7500   2000.0000   2000.0000     88.2028     64.4883
   733.0000   2000.0000   2000.0000     91.1751     61.3332
   733.2500   2000.0000   2000.0000     93.4245     59.2673
   733.5000   2000.0000   2000.0000     95.5357     56.8354
   733.7500   2000.0000   2000.0000     97.8907     56.0132
   734.0000   2000.0000   2000.0000    100.3643     56.1750
   734.2500   2000.0000   2000.0000    102.3983     56.9467
   734.5000   2000.0000   2000.0000    103.4671     58.2125
   734.7500   2000.0000   2000.0000    103.5634     58.7067
   735.0000   2000.0000   2000.0000    103.1827     58.7955
   735.2500   2000.0000   2000.0000    102.8145     58.5856
   735.5000   2000.0000   2000.0000    102.5217     58.1142
   735.7500   2000.0000   2000.0000    101.9164     57.7896
   736.0000   2000.0000   2000.0000    100.4701     57.6593
   736.2500   2000.0000   2000.0000     97.9149     58.1090
   736.5000   2000.0000   2000.0000     94.4532     59.6333
   736.7500   2000.0000   2000.0000     90.6285     60.7837
   737.0000   2000.0000   2000.0000     86.9996     61.6878
   737.2500   2000.0000   2000.0000     83.8891     61.4515
   737.5000   2000.0000   2000.0000     81.3276     60.2217
   737.7500   2000.0000   2000.0000     79.1250     59.3386
   738.0000   2000.0000   2000.0000     76.9671     58.6085
   738.2500   2000.0000   2000.0000     74.5152     58.5761
   738.5000   2000.0000   2000.0000     71.5501     58.8605
   738.7500   2000.0000   2000.0000     68.1046     59.0712
   739.0000   2000.0000   2000.0000     64.4647     59.4626
   739.2500   2000.0000   2000.0000     61.0079     60.0272
   739.5000   2000.0000   2000.0000     58.0207     61.8867
   739.7500   2000.0000   2000.0000     55.6215     64.0505
   740.0000   2000.0000   2000.0000     53.7800     68.7795
   740.2500   2000.0000   2000.0000     52.3759     72.7559
   740.5000   2000.0000   2000.0000     51.2655     79.3998
   740.7500   2000.0000   2000.0000     50.3237     83.8598
   741.0000   2000.0000   2000.0000     49.4524     89.6571
   741.2500   2000.0000   2000.0000     48.5724     92.3218
   741.5000   2000.0000   2000.0000     47.6400     94.0051
   741.7500   2000.0000   2000.0000     46.6859     93.9425
   742.0000   2000.0000   2000.0000     45.8222     93.4311
   742.2500   2000.0000   2000.0000     45.1773     93.3854
   742.5000   2000.0000   2000.0000     44.8035     93.7268
   742.7500   2000.0000   2000.0000     44.6322     93.8517
   743.0000   2000.0000   2000.0000     44.5086     93.2220
   743.2500   2000.0000   2000.0000     44.2790     92.0449
   743.5000   2000.0000   2000.0000     43.8581     89.3299
   743.7500   2000.0000   2000.0000     43.2268     87.2719
   744.0000   2000.0000   2000.0000     42.3857     84.4620
   744.2500   2000.0000   2000.0000     41.3250     83.0840
   744.5000   2000.0000   2000.0000     40.0465     82.6603
   744.7500   2000.0000   2000.0000     38.5991     84.2809
   745.0000   2000.0000   2000.0000     37.0787     90.6078
   745.2500   2000.0000   2000.0000     35.5902     97.2247
