~Version Information
VERS.                      2.0: CWLS Log ASCII Standard - VERSION 2.0
WRAP.                       NO: One line per depth step
~Well Information Block
STRT.FT               620.0000: 
STOP.FT              3067.2500: 
STEP.FT                 0.2500: 
NULL.                -999.2500: 
COMP.          Pioneer Natural Resources: COMPANY
WELL.          Interceptor 43-13 Kv: WELL
FLD.           Purgatoire River: FIELD
LOC.           2073' FSL & 519' FEL--: LOCATION
PROV.                 Colorado: PROVINCE
CNTY.               Las Animas: COUNTRY
SRVC.                Patterson: SERVICE COMPANY
DATE.          Sat Jan 14 19:35:17 2006: LOG DATE
UWI.           05 071 08655 00: UNIQUE WELL ID
~Curve Information Block
DEPT.FT            0 000 00 00: Depth
SN.Ohm-m                      : IEL Short Normal
SP.mV                         : IEL Spontaneous Potential
DIR.Ohm-m                     : IEL Induction Resistivity
GR.GAPI                       : Gamma Ray
~Parameter Information Block
~A  Depth        SN          SP         DIR          GR     
# ...
   787.5000   2000.0000   1977.0000     26.2081     55.1525
   787.7500   2000.0000   1977.0000     26.1990     55.9188
   788.0000   2000.0000   1977.0000     26.2559     57.7964
   788.2500   2000.0000   1977.0000     26.3791     59.6388
   788.5000   2000.0000   1977.0000     26.5580     63.2915
   788.7500   2000.0000   1977.0000     26.7703     65.9640
   789.0000   2000.0000   1977.0000     26.9970     69.2841
   789.2500   2000.0000   1977.0000     27.2416     70.5469
   789.5000   2000.0000   1977.0000     27.5306     70.8554
   789.7500   2000.0000   1977.0000     27.8941     70.2282
   790.0000   2000.0000   1977.0000     28.3393     68.6078
   790.2500   2000.0000   1977.0000     28.8374     67.4256
   790.5000   2000.0000   1977.0000     29.3338     66.0386
   790.7500   2000.0000   1977.0000     29.7746     65.5708
   791.0000   2000.0000   1977.0000     30.1314     65.6732
   791.2500   2000.0000   1977.0000     30.4083     66.2954
   791.5000   2000.0000   1977.0000     30.6285     68.0657
   791.7500   2000.0000   1977.0000     30.8212     69.7971
   792.0000   2000.0000   1977.0000     31.0162     73.2424
   792.2500   2000.0000   1977.0000     31.2441     76.1537
   792.5000   2000.0000   1977.0000     31.5291     81.3931
   792.7500   2000.0000   1977.0000     31.8745     85.1539
   793.0000   2000.0000   1977.0000     32.2502     89.9555
   793.2500   2000.0000   1977.0000     32.6010     91.6451
   793.5000   2000.0000   1977.0000     32.8781     90.6790
   793.7500   2000.0000   1977.0000     33.0759     87.6259
   794.0000   2000.0000   1977.0000     33.2370     80.6438
   794.2500   2000.0000   1977.0000     33.4168     75.6193
   794.5000   2000.0000   1977.0000     33.6372     69.5805
   794.7500   2000.0000   1977.0000     33.8717     67.2411
   795.0000   2000.0000   1977.0000     34.0695     66.2823
   795.2500   2000.0000   1977.0000     34.1927     66.8762
   795.5000   2000.0000   1977.0000     34.2320     68.4907
   795.7500   2000.0000   1977.0000     34.1988     69.3404
   796.0000   2000.0000   1977.0000     34.1113     69.1748
   796.2500   2000.0000   1977.0000     33.9869     67.8211
   796.5000   2000.0000   1977.0000     33.8371     64.5300
   796.7500   2000.0000   1977.0000     33.6631     62.2628
   797.0000   2000.0000   1977.0000     33.4545     59.7697
   797.2500   2000.0000   1977.0000     33.1995     58.8463
   797.5000   2000.0000   1977.0000     32.8991     58.3497
   797.7500   2000.0000   1977.0000     32.5727     58.4987
   798.0000   2000.0000   1977.0000     32.2433     59.3519
   798.2500   2000.0000   1977.0000     31.9139     60.2572
   798.5000   2000.0000   1977.0000     31.5556     61.9158
   798.7500   2000.0000   1977.0000     31.1160     63.0800
   799.0000   2000.0000   1977.0000     30.5402     64.5863
   799.2500   2000.0000   1977.0000     29.7894     65.3270
   799.5000   2000.0000   1977.0000     28.8531     66.6520
   799.7500   2000.0000   1977.0000     27.7550     68.6038
   800.0000   2000.0000   1977.0000     26.5504     74.9735
   800.2500   2000.0000   1977.0000     25.3112     82.0604
   800.5000   2000.0000   1977.0000     24.1026     96.0915
   800.7500   2000.0000   1977.0000     22.9676    106.2012
   801.0000   2000.0000   1977.0000     21.9255    119.2674
   801.2500   2000.0000   1977.0000     20.9824    125.1023
   801.5000   2000.0000   1977.0000     20.1408    128.5685
   801.7500   2000.0000   1977.0000     19.4036    127.7598
   802.0000   2000.0000   1977.0000     18.7710    123.7460
   802.2500   2000.0000   1977.0000     18.2396    120.4897
   802.5000   2000.0000   1977.0000     17.8040    116.2629
   802.7500   2000.0000   1977.0000     17.4610    114.1437
   803.0000   2000.0000   1977.0000     17.2103    111.6634
   803.2500   2000.0000   1977.0000     17.0508    110.1526
   803.5000   2000.0000   1977.0000     16.9762    108.0259
   803.7500   2000.0000   1977.0000     16.9731    107.1279
   804.0000   2000.0000   1977.0000     17.0227    107.5087
   804.2500   2000.0000   1977.0000     17.1023    108.9274
   804.5000   2000.0000   1977.0000     17.1854    111.4323
   804.7500   2000.0000   1977.0000     17.2427    112.3568
   805.0000   2000.0000   1977.0000     17.2476    112.3192
   805.2500   2000.0000   1977.0000     17.1857    112.2066
   805.5000   2000.0000   1977.0000     17.0628    113.5863
   805.7500   2000.0000   1977.0000     16.9041    115.6081
   806.0000   2000.0000   1977.0000     16.7418    118.8707
   806.2500   2000.0000   1977.0000     16.5969    120.4529
   806.5000   2000.0000   1977.0000     16.4670    122.0174
   806.7500   2000.0000   1977.0000     16.3299    122.9478
   807.0000   2000.0000   1977.0000     16.1584    124.1075
   807.2500   2000.0000   1977.0000     15.9363    124.1440
   807.5000   2000.0000   1977.0000     15.6678    122.4496
   807.7500   2000.0000   1977.0000     15.3759    120.5270
   808.0000   2000.0000   1977.0000     15.0940    118.0349
   808.2500   2000.0000   1977.0000     14.8546    117.4649
   808.5000   2000.0000   1977.0000     14.6813    118.6991
   808.7500   2000.0000   1977.0000     14.5840    120.6007
   809.0000   2000.0000   1977.0000     14.5597    124.0565
   809.2500   2000.0000   1977.0000     14.5943    126.2686
   809.5000   2000.0000   1977.0000     14.6661    129.1736
   809.7500   2000.0000   1977.0000     14.7500    130.8591
   810.0000   2000.0000   1977.0000     14.8247    132.7866
   810.2500   2000.0000   1977.0000     14.8794    133.3293
   810.5000   2000.0000   1977.0000     14.9158    132.6462
   810.7500   2000.0000   1977.0000     14.9427    131.3677
   811.0000   2000.0000   1977.0000     14.9685    129.0464
   811.2500   2000.0000   1977.0000     14.9969    127.6644
   811.5000   2000.0000   1977.0000     15.0259    126.0411
   811.7500   2000.0000   1977.0000     15.0525    125.1773
   812.0000   2000.0000   1977.0000     15.0759    124.1582
   812.2500   2000.0000   1977.0000     15.0990    123.6774
   812.5000   2000.0000   1977.0000     15.1263    123.1119
   812.7500   2000.0000   1977.0000     15.1613    122.7424
   813.0000   2000.0000   1977.0000     15.2037    122.3155
   813.2500   2000.0000   1977.0000     15.2512    122.2337
   813.5000   2000.0000   1977.0000     15.3012    122.1988
   813.7500   2000.0000   1977.0000     15.3513    121.9558
   814.0000   2000.0000   1977.0000     15.3974    121.3190
   814.2500   2000.0000   1977.0000     15.4315    121.2123
   814.5000   2000.0000   1977.0000     15.4441    122.3971
   814.7500   2000.0000   1977.0000     15.4298    124.1018
   815.0000   2000.0000   1977.0000     15.3902    127.3209
   815.2500   2000.0000   1977.0000     15.3317    129.4821
   815.5000   2000.0000   1977.0000     15.2614    132.4286
   815.7500   2000.0000   1977.0000     15.1857    134.0944
   816.0000   2000.0000   1977.0000     15.1117    135.7673
   816.2500   2000.0000   1977.0000     15.0484    136.0803
   816.5000   2000.0000   1977.0000     15.0047    135.3549
   816.7500   2000.0000   1977.0000     14.9870    134.3521
   817.0000   2000.0000   1977.0000     14.9980    132.4243
   817.2500   2000.0000   1977.0000     15.0363    130.7807
   817.5000   2000.0000   1977.0000     15.0972    127.5271
   817.7500   2000.0000   1977.0000     15.1743    124.8852
   818.0000   2000.0000   1977.0000     15.2616    120.6111
   818.2500   2000.0000   1977.0000     15.3556    117.7932
   818.5000   2000.0000   1977.0000     15.4543    113.9938
   818.7500   2000.0000   1977.0000     15.5561    112.0151
   819.0000   2000.0000   1977.0000     15.6567    110.3733
   819.2500   2000.0000   1977.0000     15.7481    110.3220
   819.5000   2000.0000   1977.0000     15.8208    111.5478
   819.7500   2000.0000   1977.0000     15.8687    112.7330
   820.0000   2000.0000   1977.0000     15.8921    114.0078
   820.2500   2000.0000   1977.0000     15.8977    114.1880
   820.5000   2000.0000   1977.0000     15.8939    113.7629
   820.7500   2000.0000   1977.0000     15.8859    113.4811
