~Version Information
VERS.                      2.0: CWLS Log ASCII Standard - VERSION 2.0
WRAP.                       NO: One line per depth step
~Well Information Block
STRT.FT                31.2500: 
STOP.FT               700.7500: 
STEP.FT                 0.2500: 
NULL.                -999.2500: 
COMP.          XTO Energy Inc.: COMPANY
WELL.          Golden Eagle 20-14: WELL
FLD.           Purgatrorie River: FIELD
LOC.           587' FSL & 2478' FWL--: LOCATION
STAT.                       CO: State
CNTY.               Las Animas: COUNTY
CTRY. USA : Country
SECT. 20 : Section
TOWN. 33S : Township
RANG. 67W : Range
SRVC.          Patterson Wireline: SERVICE COMPANY
DATE.          Sat Dec 10 15:54:00 2005: LOG DATE
API.           05 071 08614 00: UNIQUE WELL ID
~Curve Information Block
DEPT.FT            0 000 00 00: Depth
CCL.                          : Casing Collar Locator
TT3.usec                      : CBL 3' Travel Time
AMP3.mV                       : CBL 3' Amplitude
GR.GAPI                       : Gamma Ray
~Parameter Information Block
~A  Depth       CCL         TT3         AMP3         GR     
# ...
   399.7500      0.0000    822.0938      5.2031    136.0472
   400.0000      0.0000    834.6517      5.2855    138.0001
   400.2500      0.0000    842.3496      5.4433    140.2575
   400.5000      0.0000    843.8018      5.6150    141.6396
   400.7500      0.0000    840.2634      5.7307    140.3064
   401.0000      0.0000    835.2333      5.7704    135.1506
   401.2500      0.0000    832.3420      5.7796    126.9470
   401.5000      0.0000    832.7302      5.8293    118.7401
   401.7500      0.0000    834.4997      5.9645    114.1903
   402.0000      0.0000    834.6339      6.1873    114.5798
   402.2500      0.0000    830.9370      6.4628    117.7076
   402.5000      0.0000    822.9766      6.7331    120.2776
   402.7500      0.0000    812.6821      6.9378    121.1116
   403.0000      0.0000    803.6309      7.0390    121.7043
   403.2500      0.0000    798.1235      7.0356    124.0189
   403.5000      0.0000    794.9185      6.9673    128.2604
   403.7500      0.0000    791.1199      6.9072    132.7085
   404.0000      0.0000    786.3813      6.9247    135.3256
   404.2500      0.0000    783.9019      7.0323    135.3119
   404.5000      0.0000    786.6201      7.1684    133.1578
   404.7500      0.0000    792.9565      7.2433    129.6597
   405.0000      0.0000    796.6824      7.1979    125.4792
   405.2500      0.0000    791.3395      7.0299    121.6019
   405.5000      0.0000    775.7078      6.7960    119.3900
   405.7500      0.0000    755.8337      6.5924    119.5539
   406.0000      0.0000    741.5202      6.4927    121.2469
   406.2500      0.0000    739.6240      6.4676    122.6504
   406.5000      0.0000    749.5355      6.3884    122.4811
   406.7500      0.0000    764.6776      6.1496    120.7424
   407.0000      0.0000    778.6787      5.7810    118.2616
   407.2500      0.0000    789.9276      5.4061    115.8064
   407.5000      0.0000    799.9772      5.1060    113.4209
   407.7500      0.0000    809.2765      4.8730    110.4057
   408.0000      0.0000    816.5028      4.6847    106.2373
   408.2500      0.0000    821.2173      4.5580    101.7796
   408.5000      2.0000    824.8224      4.5211     99.2829
   408.7500     -2.0000    828.7805      4.5720    100.7122
   409.0000      2.0000    833.4870      4.6793    105.9319
   409.2500      0.0000    838.7817      4.8103    112.7410
   409.5000      0.0000    843.3720      4.9569    118.8389
   409.7500      0.0000    843.0077      5.1306    123.4571
   410.0000      0.0000    831.5766      5.3255    126.8490
   410.2500      0.0000    806.5588      5.4997    128.8566
   410.5000      0.0000    773.2014      5.6044    128.9162
   410.7500      0.0000    741.5538      5.6189    127.1600
   411.0000      0.0000    719.1543      5.5540    124.5498
   411.2500      0.0000    707.0848      5.4397    121.8841
   411.5000      0.0000    701.9940      5.3131    119.2935
   411.7500      0.0000    700.0757      5.2041    116.5797
   412.0000      0.0000    699.0895      5.1261    113.4497
   412.2500      0.0000    698.1895      5.0780    109.4908
   412.5000      0.0000    697.0257      5.0479    104.3978
   412.7500      0.0000    695.2703      5.0172     98.4149
   413.0000      0.0000    692.8688      4.9755     92.4572
   413.2500      0.0000    690.5250      4.9375     87.7033
   413.5000      0.0000    689.4415      4.9385     84.9453
   413.7500      0.0000    690.2466      5.0071     84.1193
   414.0000      0.0000    692.3285      5.1409     84.3787
   414.2500      0.0000    694.4280      5.3074     84.7101
   414.5000      0.0000    695.6795      5.4683     84.4027
   414.7500      0.0000    695.9717      5.5993     82.8562
   415.0000      0.0000    695.6358      5.6945     79.6082
   415.2500      0.0000    695.0613      5.7587     75.1654
   415.5000      0.0000    694.5140      5.8005     71.3119
   415.7500      0.0000    694.1147      5.8274     69.7251
   416.0000      0.0000    693.8826      5.8406     70.3291
   416.2500      0.0000    693.7892      5.8306     71.4330
   416.5000      0.0000    693.7922      5.7861     71.4216
   416.7500      0.0000    693.8579      5.7101     69.9969
   417.0000      0.0000    693.9520      5.6233     67.8859
   417.2500      0.0000    694.0179      5.5498     65.9858
   417.5000      0.0000    693.9913      5.5079     65.1833
   417.7500      0.0000    693.8497      5.5100     66.5137
   418.0000      0.0000    693.6432      5.5554     70.8455
   418.2500      0.0000    693.4687      5.6301     78.4038
   418.5000      0.0000    693.4166      5.7309     88.7176
   418.7500      0.0000    693.5286      5.8825    100.7355
   419.0000      0.0000    693.7841      6.1052    112.8167
   419.2500      0.0000    694.1010      6.3709    122.8890
   419.5000      0.0000    694.3472      6.6067    129.0978
   419.7500      0.0000    694.3815      6.7386    130.7389
   420.0000      0.0000    694.1254      6.7248    128.7810
   420.2500      0.0000    693.6102      6.5679    125.3431
   420.5000      0.0000    692.9557      6.3161    122.3823
   420.7500      0.0000    692.3080      6.0508    120.7340
   421.0000      0.0000    691.7831      5.8627    120.4441
   421.2500      0.0000    691.4336      5.8249    121.7426
   421.5000      0.0000    691.2428      5.9697    125.0591
   421.7500      0.0000    691.1514      6.2769    129.9812
   422.0000      0.0000    691.1072      6.6861    134.7465
   422.2500      0.0000    691.1069      7.1244    137.2877
   422.5000      0.5484    691.1913      7.5265    137.0135
   422.7500      0.6479    691.3890      7.8429    135.5539
   423.0000      0.0000    691.6571      8.0432    135.5759
   423.2500      0.0000    691.8821      8.1209    138.6922
   423.5000      0.0000    691.9534      8.0986    144.2386
   423.7500      0.0000    691.8420      8.0294    149.8729
   424.0000      0.0000    691.6088      7.9773    153.5854
   424.2500      0.0000    691.3526      7.9767    155.2786
   424.5000      0.0000    691.1619      8.0039    156.1762
   424.7500      0.0000    691.0935      7.9926    157.0925
   425.0000      0.0000    691.1494      7.8833    158.1165
   425.2500      0.0000    691.2637      7.6680    159.4527
   425.5000      0.0000    691.3477      7.3923    161.3160
   425.7500      0.0000    691.3609      7.1112    163.1466
   426.0000      0.0000    691.3267      6.8470    163.8962
   426.2500      0.0000    691.2810      6.5917    163.0372
   426.5000      0.0000    691.2299      6.3444    160.7319
   426.7500      0.0000    691.1598      6.1282    157.1542
   427.0000      0.0000    691.0662      5.9706    152.3200
   427.2500      0.0000    690.9588      5.8807    146.9015
   427.5000      0.0000    690.8478      5.8519    142.7230
   427.7500      0.0000    690.7343      5.8754    141.6129
   428.0000      0.0000    690.6107      5.9421    143.5616
   428.2500      0.0000    690.4651      6.0342    146.4406
   428.5000      0.0000    690.2901      6.1192    147.7628
   428.7500      0.0000    690.0952      6.1560    146.5081
   429.0000      0.0000    689.9092      6.1137    143.3416
   429.2500      0.0000    689.7630      5.9946    139.8004
   429.5000      0.0000    689.6651      5.8398    137.6122
   429.7500      0.0000    689.5958      5.7063    137.7852
   430.0000      0.0000    689.4985      5.6361    139.5243
   430.2500      0.0000    689.2490      5.6463    140.5584
   430.5000      0.0000    688.6172      5.7476    139.2378
   430.7500      0.0000    687.3583      5.9607    136.1917
   431.0000      0.0000    685.5332      6.2997    133.8134
   431.2500      0.0000    683.8134      6.7406    134.1708
   431.5000      0.0000    683.2050      7.2231    137.2493
   431.7500      0.0000    684.1857      7.6947    141.0852
   432.0000      0.0000    686.2098      8.1345    143.7089
   432.2500      0.0000    688.2356      8.5223    144.8293
   432.5000      0.0000    689.5909      8.8138    145.4314
   432.7500      0.0000    690.2273      8.9785    146.0671
   433.0000      0.0000    690.4063      9.0491    146.0386
