~Version Information
VERS.                      2.0: CWLS Log ASCII Standard - VERSION 2.0
WRAP.                       NO: One line per depth step
~Well Information Block
STRT.FT                14.0000: 
STOP.FT              1631.0000: 
STEP.FT                 0.1000: 
NULL.                -999.2500: 
COMP.          Pioneer Natural Resources: COMPANY
WELL.            Bluesky 44-17: WELL
FLD.           Purgatorie River: FIELD
LOC.           39' FSL & 288' FEL: LOCATION
STAT.                 Colorado: State
CNTY.               Las Animas: COUNTY
CTRY. USA : Country
SECT. 17 : Section
TOWN. 33S : Township
RANG. 66W : Range
SRVC.                Patterson: SERVICE COMPANY
DATE.          Thu Sep 08 07:30:20 2005: LOG DATE
API. 05-071-08511                         : UNIQUE WELL ID
~Curve Information Block
DEPT.FT            0 000 00 00: Depth
DCAL.in                       : CDL Caliper
RHOB.g/cc                     : CDL Bulk Density
RHOC.g/cc                     : CDL Density Correction
DPOR.pu                       : CDL Density Porosity
GR.GAPI                       : Gamma Ray
NPOR.pu                       : Neutron Porosity
~Parameter Information Block
~A  Depth       DCAL        RHOB        RHOC        DPOR         GR         NPOR    
# ...
   753.2000      7.8400      2.4893      0.0678      9.7414     94.5742     19.5898
   753.3000      7.8444      2.4866      0.0375      9.9058     98.5532     19.3344
   753.4000      7.8444      2.4893      0.0416      9.7399    100.4483     19.2524
   753.5000      7.8404      2.5007      0.0454      9.0503     98.4444     19.3334
   753.6000      7.8404      2.5119      0.0665      8.3707     94.2881     19.3566
   753.7000      7.8404      2.5110      0.0543      8.4242     91.5364     19.3351
   753.8000      7.8390      2.5038      0.0426      8.8586     92.2166     19.3503
   753.9000      7.8390      2.5012      0.1072      9.0209     94.9139     19.4811
   754.0000      7.8741      2.5071      0.0200      8.6619     97.2330     19.8001
   754.1000      7.8741      2.5238      0.0603      7.6511     97.0370     20.0371
   754.2000      7.8741      2.5405      0.0571      6.6344     93.8099     20.0052
   754.3000      7.9073      2.5458      0.0564      6.3124     91.1096     19.9365
   754.4000      7.9073      2.5455      0.0561      6.3361     91.8271     20.0522
   754.5000      7.9156      2.5526      0.0456      5.9009     94.0082     20.3644
   754.6000      7.9156      2.5640      0.0733      5.2140     94.0683     20.6100
   754.7000      7.9156      2.5637      0.0680      5.2315     92.1548     20.6027
   754.8000      7.9016      2.5517      0.0749      5.9554     91.4299     20.4665
   754.9000      7.9016      2.5382      0.0278      6.7733     92.1747     20.3346
   755.0000      7.8844      2.5234      0.0663      7.6713     93.4307     20.2967
   755.1000      7.8844      2.5029      0.0346      8.9179     94.3902     20.3091
   755.2000      7.8844      2.4817      0.0390     10.1982     92.4441     20.1835
   755.3000      7.8900      2.4596      0.0420     11.5384     89.3384     20.0027
   755.4000      7.8900      2.4325      0.0228     13.1826     91.3280     20.0108
   755.5000      7.8360      2.4137     -0.0219     14.3209     99.6846     20.0653
   755.6000      7.8360      2.4157      0.0161     14.1972    108.5947     20.0164
   755.7000      7.8360      2.4317      0.0275     13.2290    113.4905     20.0264
   755.8000      7.8245      2.4517      0.0443     12.0211    115.2721     20.1389
   755.9000      7.8245      2.4730      0.0287     10.7277    116.5121     20.2243
   756.0000      7.8108      2.4941      0.0891      9.4485    116.4520     20.3123
   756.1000      7.8108      2.5122      0.1109      8.3521    114.3539     20.5406
   756.2000      7.8108      2.5280      0.0922      7.3914    114.1432     20.9255
   756.3000      7.8077      2.5390      0.1261      6.7284    118.9139     21.2767
   756.4000      7.8077      2.5326      0.1468      7.1169    124.5823     21.4089
   756.5000      7.8096      2.5077      0.0682      8.6241    126.8672     21.4348
   756.6000      7.8096      2.4777      0.0510     10.4399    126.4621     21.5034
   756.7000      7.8096      2.4490      0.0437     12.1820    124.6187     21.5753
   756.8000      7.8959      2.4274      0.0099     13.4931    123.8328     21.6482
   756.9000      7.8959      2.4239     -0.0053     13.7060    126.8000     21.7577
   757.0000      7.9445      2.4344      0.0279     13.0673    132.8518     21.8875
   757.1000      7.9445      2.4452      0.0071     12.4093    140.2344     21.9533
   757.2000      7.9445      2.4536      0.0210     11.9008    146.0450     21.8102
   757.3000      7.9654      2.4632      0.0250     11.3195    147.6035     21.5443
   757.4000      7.9654      2.4773      0.0682     10.4686    146.4481     21.5812
   757.5000      7.9601      2.4906      0.0946      9.6607    145.4546     22.0912
   757.6000      7.9601      2.4912      0.0856      9.6236    145.5465     22.7173
   757.7000      7.9601      2.4857      0.0040      9.9590    145.3446     23.1010
   757.8000      7.9239      2.4979      0.0076      9.2198    144.3152     23.3258
   757.9000      7.9239      2.5219      0.0683      7.7652    143.5953     23.5098
   758.0000      7.8990      2.5211      0.0605      7.8151    142.0313     23.5360
   758.1000      7.8990      2.4889      0.0171      9.7630    140.4146     23.2303
   758.2000      7.8990      2.4599      0.0173     11.5229    140.6522     22.6608
   758.3000      7.8902      2.4597      0.0274     11.5317    140.4247     22.1380
   758.4000      7.8902      2.4800      0.0394     10.3058    138.6459     21.8516
   758.5000      7.8828      2.4942      0.0564      9.4437    137.5145     21.7542
   758.6000      7.8828      2.4880      0.0548      9.8187    137.4493     21.6690
   758.7000      7.8828      2.4729     -0.0004     10.7317    135.6949     21.4935
   758.8000      7.8867      2.4670      0.0418     11.0924    131.5683     21.2873
   758.9000      7.8867      2.4700      0.0284     10.9083    128.7346     21.1968
   759.0000      7.8923      2.4761      0.0139     10.5416    128.4510     21.3904
   759.1000      7.8923      2.4837      0.0423     10.0774    127.2103     21.8781
   759.2000      7.8923      2.4896      0.0423      9.7194    124.7654     22.3091
   759.3000      7.8907      2.4903      0.0126      9.6817    123.1407     22.3489
   759.4000      7.8907      2.4852      0.0653      9.9890    120.8503     22.1368
   759.5000      7.8842      2.4779      0.0402     10.4296    118.9952     22.0028
   759.6000      7.8842      2.4750      0.0445     10.6052    119.0716     21.9543
   759.7000      7.8842      2.4807      0.0343     10.2592    118.5107     21.8780
   759.8000      7.9042      2.4959      0.0130      9.3417    116.9512     21.9330
   759.9000      7.9042      2.5193      0.0475      7.9223    117.1957     22.3667
   760.0000      7.9017      2.5450      0.0688      6.3607    120.9154     23.1717
   760.1000      7.9017      2.5669      0.0510      5.0344    126.6898     24.0725
   760.2000      7.9017      2.5816      0.0850      4.1429    130.4885     24.7446
   760.3000      7.8844      2.5845      0.0777      3.9694    129.6550     25.1083
   760.4000      7.8844      2.5773      0.0715      4.4090    125.5402     25.3209
   760.5000      7.8880      2.5718     -0.0047      4.7397    122.1270     25.7311
   760.6000      7.8880      2.5773      0.0206      4.4063    122.3438     26.3989
   760.7000      7.8880      2.5967     -0.0384      3.2297    125.5605     26.8682
   760.8000      7.8970      2.6270      0.0333      1.3922    128.9511     26.9681
   760.9000      7.8970      2.6471      0.0449      0.1730    132.6420     26.9205
   761.0000      7.9094      2.6457      0.0161      0.2580    137.5395     26.7734
   761.1000      7.9094      2.6353      0.0616      0.8882    141.3046     26.5949
   761.2000      7.9094      2.6199      0.0724      1.8245    142.0265     26.6356
   761.3000      7.8820      2.5981      0.0458      3.1442    140.2427     26.7982
   761.4000      7.8820      2.5822      0.0295      4.1111    138.8130     26.8005
   761.5000      7.8735      2.5767      0.0515      4.4424    138.7771     26.6611
   761.6000      7.8735      2.5732      0.0475      4.6566    138.5701     26.5040
   761.7000      7.8735      2.5739      0.0286      4.6130    137.4792     26.3038
   761.8000      7.8728      2.5846      0.0556      3.9616    135.6481     26.1574
   761.9000      7.8728      2.5979      0.0826      3.1600    133.6032     26.2478
   762.0000      7.8889      2.6036      0.0817      2.8114    131.8451     26.4688
   762.1000      7.8889      2.6008      0.0715      2.9824    132.2086     26.5776
   762.2000      7.8889      2.5908      0.0827      3.5879    135.5999     26.5130
   762.3000      7.8532      2.5787      0.0378      4.3238    138.7076     26.3916
   762.4000      7.8532      2.5771     -0.0121      4.4154    139.4169     26.3619
   762.5000      7.8464      2.5867      0.0329      3.8390    138.8008     26.4641
   762.6000      7.8464      2.5874      0.0446      3.7944    137.3546     26.6211
   762.7000      7.8464      2.5723      0.0021      4.7085    136.9531     26.5491
