~Version Information
VERS.                      2.0: CWLS Log ASCII Standard - VERSION 2.0
WRAP.                       NO: One line per depth step
~Well Information Block
STRT.FT               245.0000: 
STOP.FT              1006.0000: 
STEP.FT                 0.1000: 
NULL.                -999.2500: 
COMP.          Pioneer Natural Resources: COMPANY
WELL.              Atlas 32-18: WELL
FLD.           Purgatoire River: FIELD
LOC.           1892' FNL & 1456' FEL: LOCATION
PROV.                 Colorado: PROVINCE
CNTY.               Las Animas: COUNTRY
SRVC.                Patterson: SERVICE COMPANY
DATE.          Mon Nov 21 08:58:56 2005: LOG DATE
UWI.           05 071 08556 00: UNIQUE WELL ID
~Curve Information Block
DEPT.FT            0 000 00 00: Depth
DCAL.in                       : CDL Caliper
RHOB.g/cc                     : CDL Bulk Density
RHOC.g/cc                     : CDL Density Correction
DPOR.pu                       : CDL Density Porosity
GR.GAPI                       : Gamma Ray
NPOR.pu                       : Neutron Porosity
~Parameter Information Block
~A  Depth       DCAL        RHOB        RHOC        DPOR         GR         NPOR    
# ...
   696.2000      8.0299      2.5117     -0.0011      8.3824     51.6766     20.6528
   696.3000      8.0191      2.5242      0.0429      7.6269     57.1039     21.4466
   696.4000      8.0191      2.5295      0.0250      7.3046     63.1210     22.2017
   696.5000      8.0236      2.5378      0.0059      6.8024     66.2226     22.8824
   696.6000      8.0236      2.5594      0.0513      5.4925     63.4726     23.2470
   696.7000      8.0236      2.5791      0.0853      4.2949     57.3033     22.8421
   696.8000      7.9982      2.5795      0.0266      4.2747     53.7694     21.7575
   696.9000      7.9982      2.5691      0.0566      4.9009     55.1805     21.0516
   697.0000      7.9777      2.5587      0.0833      5.5316     58.2778     21.3521
   697.1000      7.9777      2.5454      0.0135      6.3393     59.6608     21.6205
   697.2000      7.9777      2.5293      0.0484      7.3155     58.0784     21.1810
   697.3000      7.9781      2.5251     -0.0088      7.5688     52.7786     20.6082
   697.4000      7.9781      2.5391      0.0599      6.7201     46.8548     20.1637
   697.5000      7.9805      2.5412      0.0799      6.5948     45.0397     19.9479
   697.6000      7.9805      2.5101      0.0244      8.4777     46.6622     20.1280
   697.7000      7.9805      2.4682     -0.0295     11.0182     47.9111     20.4221
   697.8000      8.0292      2.4431     -0.0177     12.5382     48.0368     20.6963
   697.9000      8.0292      2.4400     -0.0286     12.7293     47.4387     21.1584
   698.0000      8.0540      2.4563     -0.0040     11.7373     45.8919     21.7688
   698.1000      8.0540      2.4868      0.0708      9.8893     44.2218     22.1249
   698.2000      8.0540      2.5094      0.0858      8.5192     41.6193     21.7414
   698.3000      8.0557      2.5003      0.0907      9.0751     36.0327     20.8259
   698.4000      8.0557      2.4643      0.0010     11.2529     30.3114     20.1636
   698.5000      8.0543      2.4323      0.0227     13.1948     28.8285     19.9963
   698.6000      8.0543      2.4254     -0.0157     13.6141     31.3662     20.0751
   698.7000      8.0543      2.4414      0.0035     12.6410     35.7274     20.2602
   698.8000      8.0611      2.4607      0.0446     11.4732     41.3882     20.0894
   698.9000      8.0611      2.4690      0.0187     10.9692     47.8926     19.4357
   699.0000      8.0583      2.4761      0.0267     10.5417     53.9402     19.1068
   699.1000      8.0583      2.4993      0.0232      9.1321     58.1876     19.7083
   699.2000      8.0583      2.5379      0.0507      6.7957     61.2577     20.9371
   699.3000      8.0592      2.5679      0.0868      4.9757     65.8606     22.0186
   699.4000      8.0592      2.5771      0.0459      4.4197     70.8530     22.4165
   699.5000      8.0461      2.5793      0.0503      4.2878     74.1221     22.0098
   699.6000      8.0461      2.5815      0.0599      4.1494     76.6053     21.4746
   699.7000      8.0461      2.5783      0.0856      4.3460     78.4261     21.7653
   699.8000      8.0389      2.5709      0.0628      4.7920     78.1304     22.6265
   699.9000      8.0389      2.5648      0.0485      5.1636     74.0317     22.8538
   700.0000      8.0071      2.5622      0.0726      5.3232     67.6285     22.3319
   700.1000      8.0071      2.5582      0.0631      5.5613     62.4691     22.2735
   700.2000      8.0071      2.5424      0.0256      6.5200     58.4712     23.1303
   700.3000      7.9913      2.5139      0.0681      8.2496     55.0148     23.9946
   700.4000      7.9913      2.4893     -0.0117      9.7393     53.2757     24.1574
   700.5000      8.0091      2.4857      0.0341      9.9568     51.8264     23.7774
   700.6000      8.0091      2.4984      0.0574      9.1852     49.0810     23.1891
   700.7000      8.0091      2.5133      0.0506      8.2821     47.7866     22.6472
   700.8000      7.9971      2.5256      0.0811      7.5421     48.0282     21.9675
   700.9000      7.9971      2.5395      0.0483      6.6977     47.2563     21.4075
   701.0000      7.9995      2.5528      0.1109      5.8883     45.6376     21.6318
   701.1000      7.9995      2.5524      0.1081      5.9153     44.0313     21.8878
   701.2000      7.9995      2.5393      0.0806      6.7108     43.0201     21.1888
   701.3000      7.9961      2.5263      0.0512      7.4943     42.4489     20.3638
   701.4000      7.9961      2.5202      0.0736      7.8694     40.9583     20.3219
   701.5000      7.9992      2.5215      0.0341      7.7858     38.9487     20.8076
   701.6000      7.9992      2.5310      0.0495      7.2121     37.4250     20.6888
   701.7000      7.9992      2.5391      0.0628      6.7196     36.1915     19.7616
   701.8000      7.9977      2.5310      0.0424      7.2134     37.3353     19.2546
   701.9000      7.9977      2.5123      0.0452      8.3476     42.3290     19.7801
   702.0000      8.0087      2.4970      0.0196      9.2715     48.4587     20.9858
   702.1000      8.0087      2.4798      0.0301     10.3177     50.5591     21.9563
   702.2000      8.0087      2.4593     -0.0368     11.5556     47.3743     22.4923
   702.3000      8.0333      2.4588     -0.0379     11.5907     43.8834     22.9641
   702.4000      8.0333      2.4847      0.0307     10.0180     43.5993     22.8398
   702.5000      8.0518      2.5120      0.0031      8.3630     45.0150     21.8232
   702.6000      8.0518      2.5181      0.0243      7.9928     45.2373     20.4722
   702.7000      8.0518      2.5015      0.0180      8.9989     43.6157     19.6004
   702.8000      8.0598      2.4775     -0.0091     10.4533     42.3066     19.7400
   702.9000      8.0598      2.4644      0.0097     11.2466     43.4393     20.6149
   703.0000      8.0576      2.4708     -0.0050     10.8591     44.4863     21.3678
   703.1000      8.0576      2.4897      0.0072      9.7131     41.6668     21.2902
   703.2000      8.0576      2.4965      0.0544      9.3024     37.9159     21.0659
   703.3000      8.0457      2.4807     -0.0256     10.2634     36.8144     21.2488
   703.4000      8.0457      2.4619      0.0325     11.3970     37.7178     21.3871
   703.5000      8.0152      2.4545     -0.0161     11.8497     39.9376     21.3276
   703.6000      8.0152      2.4617     -0.0143     11.4136     41.8355     21.1158
   703.7000      8.0152      2.4789      0.0371     10.3696     41.6666     21.0033
   703.8000      8.0180      2.4874      0.0447      9.8537     41.4923     21.3877
   703.9000      8.0180      2.4740      0.0233     10.6645     43.4286     21.7936
   704.0000      8.0418      2.4482     -0.0089     12.2276     44.7986     21.4742
   704.1000      8.0418      2.4348     -0.0377     13.0422     43.0646     20.5739
   704.2000      8.0418      2.4480     -0.0075     12.2452     39.6525     19.8605
   704.3000      8.0460      2.4725      0.0548     10.7550     37.1610     19.7250
   704.4000      8.0460      2.4844      0.0455     10.0345     35.5139     19.8095
   704.5000      8.0311      2.4806      0.0439     10.2676     32.8321     19.7996
   704.6000      8.0311      2.4710      0.0492     10.8457     29.8910     19.9632
   704.7000      8.0311      2.4629      0.0060     11.3419     28.4942     20.2874
   704.8000      8.0121      2.4589      0.0482     11.5792     29.2806     20.4148
   704.9000      8.0121      2.4545      0.0339     11.8489     30.8481     20.2777
   705.0000      8.0097      2.4466     -0.0198     12.3279     31.0487     20.2534
   705.1000      8.0097      2.4458     -0.0101     12.3753     31.5600     20.3800
   705.2000      8.0097      2.4604      0.0226     11.4932     34.2098     20.0606
   705.3000      7.9913      2.4782      0.0276     10.4138     35.9125     19.2328
   705.4000      7.9913      2.4794      0.0262     10.3424     34.4715     18.4704
   705.5000      8.0083      2.4652      0.0310     11.2007     32.5739     17.9214
   705.6000      8.0083      2.4619     -0.0061     11.4006     32.9697     17.5874
   705.7000      8.0083      2.4822      0.0453     10.1703     36.2035     17.6138
