~Version Information
VERS.                      2.0: CWLS Log ASCII Standard - VERSION 2.0
WRAP.                       NO: One line per depth step
~Well Information Block
STRT.FT               545.0000: 
STOP.FT              1452.5000: 
STEP.FT                 0.1000: 
NULL.                -999.2500: 
COMP.          Pioneer Natural Resources: COMPANY
WELL.          Parklane 43-34 Tr: WELL
FLD.           Purgatoire River: FIELD
LOC.           1643' FSL & 966' FEL: LOCATION
PROV.                 Colorado: PROVINCE
CNTY.               Las Animas: COUNTRY
SRVC.                Patterson: SERVICE COMPANY
DATE.          Fri Jul 29 07:27:28 2005: LOG DATE
UWI.           05 071 08452 00: UNIQUE WELL ID
~Curve Information Block
DEPT.FT            0 000 00 00: Depth
DCAL.in                       : CDL Caliper
RHOB.g/cc                     : CDL Bulk Density
RHOC.g/cc                     : CDL Density Correction
DPOR.pu                       : CDL Density Porosity
GR.GAPI                       : Gamma Ray
NPOR.pu                       : Neutron Porosity
~Parameter Information Block
~A  Depth       DCAL        RHOB        RHOC        DPOR         GR         NPOR    
# ...
   957.8000      7.9458      2.6045      0.0382      2.7547    127.4135     23.8934
   957.9000      7.9458      2.6124      0.0605      2.2802    123.8283     23.9245
   958.0000      7.9599      2.6303     -0.0078      1.1926    122.3790     23.8747
   958.1000      7.9599      2.6569      0.0865     -0.4171    123.4241     24.1402
   958.2000      7.9599      2.6871      0.0368     -2.2512    125.4264     24.6145
   958.3000      7.9989      2.7139      0.0344     -3.8724    128.5006     24.9152
   958.4000      7.9989      2.7282      0.0577     -4.7415    133.1474     24.8777
   958.5000      8.0273      2.7140      0.1028     -3.8766    136.2141     24.6060
   958.6000      8.0273      2.6624      0.0527     -0.7496    135.5571     23.9308
   958.7000      8.0273      2.5892     -0.0091      3.6872    129.3041     22.7476
   958.8000      8.0339      2.5237     -0.0618      7.6521    118.7951     21.7377
   958.9000      8.0339      2.4853     -0.0812      9.9797    112.8132     21.2699
   959.0000      8.0398      2.4659     -0.0898     11.1552    114.2713     21.0316
   959.1000      8.0398      2.4397     -0.0610     12.7477    118.9548     20.8189
   959.2000      8.0398      2.4178     -0.0890     14.0718    121.7814     20.4588
   959.3000      8.0194      2.4465      0.0419     12.3340    119.0116     19.8700
   959.4000      8.0194      2.5165      0.2659      8.0938    115.5275     19.2907
   959.5000      7.9805      2.5681      0.3422      4.9637    118.9655     18.6973
   959.6000      7.9805      2.5659      0.3484      5.0986    127.4835     18.0793
   959.7000      7.9805      2.5116      0.2562      8.3905    132.9325     17.7484
   959.8000      7.9389      2.4345      0.1360     13.0604    132.8424     17.6429
   959.9000      7.9389      2.3587      0.1349     17.6535    132.5268     17.4695
   960.0000      7.9643      2.2748      0.1227     22.7393    135.8606     17.2264
   960.1000      7.9643      2.1809      0.0304     28.4288    139.5250     17.2304
   960.2000      7.9643      2.1146     -0.0147     32.4466    139.5584     17.6614
   960.3000      7.9914      2.1116      0.0200     32.6326    137.1733     18.5747
   960.4000      7.9914      2.1693      0.0678     29.1324    134.3923     19.8621
   960.5000      8.0614      2.2567      0.1816     23.8344    132.4493     21.0565
   960.6000      8.0614      2.3451      0.1734     18.4816    132.9246     21.9481
   960.7000      8.0614      2.4324      0.2450     13.1854    135.8929     22.8140
   960.8000      8.0801      2.5199      0.3491      7.8860    140.3976     23.6866
   960.9000      8.0801      2.5875      0.3690      3.7880    145.1592     24.3227
   961.0000      8.0821      2.6181      0.3544      1.9319    148.6825     24.7677
   961.1000      8.0821      2.6158      0.2691      2.0732    151.5352     25.1546
   961.2000      8.0821      2.5970      0.0974      3.2125    154.5132     25.5859
   961.3000      8.1643      2.5811      0.0472      4.1747    155.9522     26.1591
   961.4000      8.1643      2.5870      0.0358      3.8159    152.2195     26.6149
   961.5000      8.1126      2.6202      0.0757      1.8056    144.0735     26.8990
   961.6000      8.1126      2.6660      0.1051     -0.9674    139.8143     27.4634
   961.7000      8.1126      2.7128      0.0727     -3.8051    142.0689     28.0794
   961.8000      7.9779      2.7528      0.1701     -6.2299    146.2641     28.2245
   961.9000      7.9779      2.7707      0.1727     -7.3159    150.7350     27.8957
   962.0000      7.9636      2.7594      0.1316     -6.6320    154.8706     27.1459
   962.1000      7.9636      2.7176      0.0599     -4.0939    155.9934     26.3429
   962.2000      7.9636      2.6552      0.0340     -0.3136    153.4701     26.1871
   962.3000      7.9561      2.6008      0.0116      2.9823    150.4629     26.5250
   962.4000      7.9561      2.5691     -0.0150      4.9048    149.6925     26.7117
   962.5000      7.9865      2.5410      0.0304      6.6038    150.1182     26.5773
   962.6000      7.9865      2.5070     -0.0493      8.6651    147.6170     26.1621
   962.7000      7.9865      2.4901     -0.0313      9.6895    141.9314     25.7386
   962.8000      8.0271      2.5053     -0.0142      8.7687    139.3058     25.8043
   962.9000      8.0271      2.5379      0.0186      6.7965    143.5990     26.5138
   963.0000      8.0473      2.5601      0.0814      5.4480    150.5314     27.1969
   963.1000      8.0473      2.5676      0.0563      4.9970    153.4147     27.2177
   963.2000      8.0473      2.5802      0.1478      4.2288    151.5727     26.9509
   963.3000      8.0695      2.5997      0.1980      3.0499    148.4469     26.7520
   963.4000      8.0695      2.6123      0.1934      2.2840    143.5618     26.3322
   963.5000      8.0511      2.6228      0.1630      1.6478    137.5351     25.8614
   963.6000      8.0511      2.6420      0.1595      0.4846    134.3973     25.8076
   963.7000      8.0511      2.6659      0.1983     -0.9662    133.2082     25.8863
   963.8000      7.9012      2.6882      0.1580     -2.3174    129.8620     25.6846
   963.9000      7.9012      2.7018      0.2085     -3.1393    125.2294     25.3435
   964.0000      7.8819      2.6904      0.1993     -2.4487    122.6593     25.0563
   964.1000      7.8819      2.6571      0.1482     -0.4275    120.7402     24.7423
   964.2000      7.8819      2.6306      0.0571      1.1734    115.3579     24.3622
   964.3000      7.8996      2.6203      0.1255      1.8018    106.4036     24.0599
   964.4000      7.8996      2.6137      0.0551      2.1997     97.6468     24.0121
   964.5000      7.9332      2.6145      0.0339      2.1500     93.7269     24.1278
   964.6000      7.9332      2.6203      0.0778      1.8005     95.5470     23.8113
   964.7000      7.9332      2.6037      0.0869      2.8078     98.5512     22.8265
   964.8000      7.9674      2.5627     -0.0016      5.2886     98.3448     21.8492
   964.9000      7.9674      2.5368      0.0272      6.8584     93.1654     21.1747
   965.0000      7.9792      2.5435      0.1119      6.4560     86.6703     20.5115
   965.1000      7.9792      2.5616      0.0911      5.3602     86.0468     19.9292
   965.2000      7.9792      2.5784      0.1014      4.3408     91.5103     19.7634
   965.3000      7.9906      2.6026      0.0969      2.8710     95.1750     19.9285
   965.4000      7.9906      2.6313      0.1590      1.1348     92.1347     19.7819
   965.5000      7.9920      2.6376      0.1882      0.7525     85.0263     19.1099
   965.6000      7.9920      2.6055      0.1815      2.6971     77.6010     18.5352
   965.7000      7.9920      2.5520      0.1085      5.9402     71.5264     18.4480
   965.8000      7.9329      2.5071      0.0972      8.6580     68.6215     18.6313
   965.9000      7.9329      2.4884      0.0519      9.7943     67.8963     18.9039
   966.0000      7.9090      2.4915      0.0597      9.6057     67.2820     19.1186
   966.1000      7.9090      2.4986      0.0780      9.1747     67.6452     19.0798
   966.2000      7.9090      2.4978      0.0407      9.2220     70.8346     18.7482
   966.3000      7.9256      2.4944      0.0582      9.4290     76.5849     18.3494
   966.4000      7.9256      2.5029      0.0653      8.9160     81.5229     18.2008
   966.5000      7.9479      2.5245      0.1316      7.6031     81.8897     18.5896
   966.6000      7.9479      2.5330      0.1618      7.0923     78.6210     19.4139
   966.7000      7.9479      2.5138      0.0541      8.2524     75.0427     19.9773
   966.8000      7.9575      2.5003      0.0074      9.0735     71.7833     20.0724
   966.9000      7.9575      2.5208      0.0626      7.8278     70.1413     20.2735
   967.0000      7.9619      2.5579      0.0918      5.5800     70.7281     20.4685
   967.1000      7.9619      2.5833      0.1498      4.0437     72.2134     20.1581
   967.2000      7.9619      2.5840      0.1420      4.0011     74.5913     19.6070
   967.3000      7.9670      2.5627      0.1242      5.2912     78.5688     19.0854
