~Version Information
 VERS.                                  2.0 : CWLS LAS VERSION
 WRAP.                                   NO : WRAPING MODE
 SWARE .                 MController 2.5.0J : SOFTWARE VERSION
~Well Information
 WELL.YWAM 7-32R : WELL
 COMP.                Petrogulf Corporation : COMPANY
 FLD.                      Purgatoire River : FIELD
 LOC.                 SW/NE Sec 7 T33S R67W : LOCATION
 DATE.9/28/05 : DATE(S) LOGGED
 SRVC.       BLANCO Geological Services LLC : SERVICE COMPANY
 STAT.                                   CO : STATE
 CNTY.                           Las Animas : COUNTY
 CTRY.                                  USA : COUNTRY
 API.                       05-071-08518-00 : API NUMBER
 STRT.FT                               1.00 : START DEPTH
 STOP.FT                            2100.00 : STOP DEPTH
 STEP.FT                               1.00 : DEPTH INCREMENT
 NULL.                                -9999 : NULL VALUE
~Curve information
 DEPTH.FT                                   :
 ROP.MIN/FT                                 :
 GAS.UNITS                                  :
~ASCII Log data
# ...
       801.0         0.33         23.6 
       802.0         0.33         23.6 
       803.0         0.30         23.2 
       804.0         0.35         18.0 
       805.0         0.30         26.5 
       806.0         1.50        128.9 
       807.0         0.40         74.3 
       808.0         0.30         47.6 
       809.0         0.27         39.3 
       810.0         0.28         34.3 
       811.0         0.23         29.6 
       812.0         0.27         24.1 
       813.0         0.30         24.0 
       814.0         8.37        362.1 
       815.0         0.33        114.6 
       816.0         0.42         49.3 
       817.0         0.53         15.6 
       818.0         0.23          8.9 
       819.0         0.37         11.1 
       820.0         0.27         11.2 
       821.0         0.17         10.7 
       822.0         0.17         11.9 
       823.0         0.13         12.8 
       824.0         0.20         14.3 
       825.0         0.23         16.1 
       826.0         0.20         16.8 
       827.0         0.27         18.2 
       828.0         0.28         17.1 
       829.0         0.23         12.6 
       830.0         0.17          9.2 
       831.0         0.17          6.6 
       832.0         0.13          4.9 
       833.0         0.17          4.1 
       834.0         0.13          4.1 
       835.0         0.17          4.8 
       836.0        28.98       7612.6 
       837.0         0.87        440.0 
       838.0         0.33          7.6 
       839.0         0.20          5.7 
       840.0         0.33          5.3 
       841.0         0.40          5.2 
       842.0         0.38          4.8 
       843.0         0.40          4.1 
       844.0         0.37          4.2 
       845.0         0.37          4.7 
       846.0         0.47          4.4 
       847.0         0.43          4.3 
       848.0         0.40          3.8 
       849.0         0.40          3.7 
       850.0         0.38          4.2 
       851.0         0.43          5.2 
       852.0         0.33          5.1 
       853.0         0.33          4.3 
       854.0         0.33          4.1 
       855.0         0.50          3.9 
       856.0         0.33          3.9 
       857.0         0.23          4.2 
       858.0         0.27          4.5 
       859.0         0.28          5.1 
       860.0         0.27          5.3 
       861.0         0.23          4.4 
       862.0         0.17          5.7 
       863.0         0.13          7.3 
       864.0         0.17          9.0 
       865.0         2.07         80.7 
       866.0         0.32         13.6 
       867.0         0.30          7.7 
       868.0         0.33          5.0 
       869.0         0.33          4.5 
       870.0       760.07          8.2 
       871.0         1.78          3.2 
       872.0         0.27          3.1 
       873.0         0.23          3.1 
       874.0         0.33          3.1 
       875.0         0.27          3.2 
       876.0         0.27          3.3 
       877.0         0.27          3.1 
       878.0         0.33          3.2 
       879.0         0.55          3.3 
       880.0         0.37          3.1 
       881.0         0.43          3.2 
       882.0         0.27          3.3 
       883.0         0.73          3.2 
       884.0         0.78          3.3 
       885.0         0.63          3.4 
       886.0         0.40          3.2 
       887.0         0.27          3.2 
       888.0         0.23          3.0 
       889.0         0.20          2.9 
       890.0         0.20          3.0 
       891.0         0.27          3.3 
       892.0         0.23          3.3 
       893.0         0.28          3.4 
       894.0         0.23          3.4 
       895.0         0.27          3.5 
       896.0         0.27          3.6 
       897.0         0.23          3.3 
       898.0         2.28          4.5 
       899.0         0.20          4.2 
       900.0         0.23          4.4 
       901.0         0.27          4.3 
       902.0         0.27          4.6 
       903.0         0.27          4.2 
       904.0         0.30          4.1 
       905.0         0.27          4.3 
       906.0         0.57          4.2 
       907.0         0.38          4.0 
       908.0         0.40          4.1 
       909.0         0.33          4.2 
       910.0         0.33          5.4 
       911.0         0.27         48.2 
       912.0         0.27         66.5 
       913.0         0.23         61.8 
       914.0         0.17         41.0 
       915.0         0.20         26.5 
       916.0         0.27         15.5 
       917.0         0.23          7.7 
       918.0         0.23          4.7 
       919.0         0.20          3.1 
       920.0         0.22          2.1 
       921.0         0.13          2.0 
       922.0         0.27          1.8 
       923.0         0.27          1.9 
       924.0         0.27          1.7 
       925.0         0.20          1.5 
       926.0         0.27          1.8 
       927.0         0.23          2.1 
       928.0         2.32          7.1 
       929.0         0.43          3.3 
       930.0         0.33          3.0 
       931.0         0.33          3.0 
       932.0         0.27          2.8 
       933.0         0.23          3.0 
       934.0         0.28          3.2 
       935.0         0.23          3.3 
       936.0         0.23          3.5 
       937.0         0.27          4.1 
       938.0         0.13          3.3 
       939.0         0.17          3.8 
       940.0         0.20          3.7 
       941.0         0.13          3.5 
       942.0         0.17          3.8 
       943.0         0.20          4.2 
       944.0         0.20          3.9 
       945.0         0.17          3.8 
       946.0         0.13          4.0 
       947.0         0.17          4.1 
       948.0         0.20          4.0 
       949.0         0.28          4.3 
       950.0         0.27          3.9 
       951.0         0.30          4.1 
       952.0         0.20          3.7 
       953.0         0.20          3.8 
       954.0         0.23          3.7 
       955.0         0.17          3.6 
       956.0         0.20          4.4 
       957.0         0.27          5.5 
       958.0         2.32         10.3 
       959.0         0.37          4.2 
       960.0         0.33          4.4 
       961.0         0.13          4.0 
       962.0         0.13          3.9 
       963.0         0.23          4.0 
       964.0         0.17          4.2 
       965.0         0.23          3.9 
       966.0         0.25          3.6 
       967.0         0.23          4.0 
       968.0         0.20          3.7 
       969.0         0.20          3.8 
       970.0         0.20          3.9 
       971.0         0.20          3.6 
       972.0         0.20          3.6 
       973.0         0.20          3.6 
       974.0         0.20          3.4 
       975.0         0.17          3.6 
       976.0         0.20          3.6 
       977.0         0.20          3.6 
       978.0         0.20          3.6 
       979.0         0.23          3.8 
       980.0         0.20          3.9 
       981.0         0.20          3.8 
       982.0         0.22          3.9 
       983.0         0.20          3.8 
       984.0         0.13          3.8 
       985.0         0.20          3.7 
       986.0         0.17          4.0 
       987.0         0.17          4.1 
       988.0         2.72         19.4 
       989.0         0.20          4.9 
       990.0         0.33          4.8 
       991.0         0.37          4.6 
       992.0         0.30          4.4 
       993.0         0.23          4.6 
       994.0         0.17          4.3 
       995.0         0.23          4.2 
       996.0         0.32          4.1 
       997.0         0.20          4.0 
       998.0         0.20          4.0 
       999.0         0.20          4.5 
      1000.0         0.17          3.8 
