~Version Information
VERS.                      2.0: CWLS Log ASCII Standard - VERSION 2.0
WRAP.                       NO: One line per depth step
~Well Information Block
STRT.FT               -16.2500: 
STOP.FT               938.7500: 
STEP.FT                 0.2500: 
NULL.                -999.2500: 
COMP.          XTO Energy Inc.: COMPANY
WELL.          Golden Eagle 20-04: WELL
FLD.           Purgatrorie River: FIELD
LOC.           702' FNL & 487' FWL--: LOCATION
STAT.                       CO: PROVINCE
CNTY.               Las Animas: COUNTY
CTRY. USA : Country
SECT. 20 : Section 
TOWN. 33S : Township
RANG. 67W : Range
SRVC.          Patterson Wireline: SERVICE COMPANY
DATE.          Mon Dec 05 10:32:54 2005: LOG DATE
API.           05 071 08599 00: UNIQUE WELL ID
~Curve Information Block
DEPT.FT            0 000 00 00: Depth
CCL.                          : Casing Collar Locator
TT3.usec                      : CBL 3' Travel Time
AMP3.mV                       : CBL 3' Amplitude
GR.GAPI                       : Gamma Ray
~Parameter Information Block
~A  Depth       CCL         TT3         AMP3         GR     
# ...
   352.2500      0.0000    659.1288      6.2973    116.9723
   352.5000      0.0000    658.3856      6.4054    114.5106
   352.7500      0.0000    657.6847      6.4651    111.4523
   353.0000      0.0000    655.7101      6.4728    108.4307
   353.2500      0.0000    652.7008      6.4405    106.4933
   353.5000      0.0000    649.8178      6.3921    106.5545
   353.7500      0.0000    647.8896      6.3495    108.7570
   354.0000      0.0000    646.9614      6.3204    112.3551
   354.2500      0.0000    646.6724      6.3022    116.1502
   354.5000      0.0000    646.7012      6.2962    119.1024
   354.7500      0.0000    646.8801      6.3117    120.7660
   355.0000      0.0000    647.1097      6.3540    121.3854
   355.2500      0.0000    647.3078      6.4133    121.6718
   355.5000      0.0000    647.4563      6.4710    122.2302
   355.7500      0.0000    647.6398      6.5194    123.1059
   356.0000      0.0000    647.9688      6.5762    123.9698
   356.2500      0.0000    648.4659      6.6737    124.4489
   356.5000      0.0000    649.0558      6.8320    124.1249
   356.7500      0.0000    649.6913      7.0423    122.7888
   357.0000      0.0000    650.5002      7.2762    121.0017
   357.2500      0.0000    651.7707      7.5058    119.8556
   357.5000      0.0000    653.6217      7.7106    119.9978
   357.7500      0.0000    655.3511      7.8783    120.9704
   358.0000      0.0000    655.0916      8.0062    121.2269
   358.2500      0.0000    650.6775      8.1018    118.9380
   358.5000      0.0000    641.3226      8.1787    113.5754
   358.7500      0.0000    628.2117      8.2556    106.6271
   359.0000      0.0000    613.2827      8.3551    100.0329
   359.2500      0.0000    598.1436      8.4912     94.2013
   359.5000      0.0000    584.6426      8.6481     88.1222
   359.7500      0.0000    575.8174      8.7716     81.0969
   360.0000      0.0000    575.2078      8.7957     73.9881
   360.2500      0.0000    584.5408      8.6906     68.9313
   360.5000      0.0000    601.9651      8.4829     67.5816
   360.7500      0.0000    622.8500      8.2117     69.1682
   361.0000      0.0000    642.4269      7.8785     70.5277
   361.2500      0.0000    657.6373      7.4643     68.6401
   361.5000      0.0000    667.0431      6.9812     63.0314
   361.7500      0.0000    670.0372      6.4796     55.5355
   362.0000      2.0000    666.8536      6.0179     48.5124
   362.2500     -2.0000    659.3190      5.6498     43.7869
   362.5000      2.0000    651.1049      5.4275     42.4053
   362.7500      0.0000    646.1114      5.3975     44.4347
   363.0000      0.0000    645.6163      5.5882     48.9846
   363.2500      0.0000    647.4243      5.9853     54.5021
   363.5000      0.0000    648.2360      6.5103     59.0025
   363.7500      0.0000    646.5050      7.0434     60.6710
   364.0000      0.0000    643.3951      7.4928     59.0870
   364.2500      0.0000    642.0470      7.8354     55.8635
   364.5000      0.0000    645.4268      8.0934     53.6247
   364.7500      0.0000    653.5063      8.3080     54.0886
   365.0000      0.0000    662.7939      8.5384     56.9860
   365.2500      0.0000    669.6125      8.8366     60.6969
   365.5000      0.0000    673.3641      9.1976     63.7645
   365.7500      0.0000    675.8508      9.5539     65.6687
   366.0000      0.0000    678.1994      9.8350     66.4967
   366.2500      0.0000    679.3867     10.0221     66.6327
   366.5000      0.0000    677.4056     10.1377     66.9469
   366.7500      0.0000    670.9638     10.2053     68.3888
   367.0000      0.0000    659.9636     10.2390     70.8186
   367.2500      0.0000    645.1293     10.2625     72.8497
   367.5000      0.0000    627.9459     10.3100     73.4206
   367.7500      0.0000    610.9277     10.4022     73.1597
   368.0000      0.0000    597.0591     10.5298     73.6941
   368.2500      0.0000    588.4288     10.6643     75.8824
   368.5000      0.0000    585.6832     10.7760     79.1417
   368.7500      0.0000    588.8495     10.8425     82.1036
   369.0000      0.0000    597.9644     10.8490     83.3773
   369.2500      0.0000    612.3730     10.7906     82.0181
   369.5000      0.0000    629.8692     10.6755     78.0731
   369.7500      0.0000    647.3189     10.5233     73.0298
   370.0000      0.0000    662.2327     10.3555     69.3206
   370.2500      0.0000    673.5130     10.1850     68.6513
   370.5000      0.0000    681.0993     10.0134     70.5886
   370.7500      0.0000    685.5074      9.8364     73.1439
   371.0000      0.0000    687.6212      9.6500     74.8776
   371.2500      0.0000    688.4202      9.4526     75.9712
   371.5000      0.0000    688.6611      9.2466     77.2124
   371.7500      0.0000    688.7514      9.0434     78.6690
   372.0000      0.0000    688.8110      8.8675     79.6382
   372.2500      0.0000    688.6631      8.7485     79.4304
   372.5000      0.0000    687.5615      8.6985     77.9408
   372.7500      0.0000    683.6475      8.6936     75.5669
   373.0000      0.0000    673.7108      8.6812     72.7287
   373.2500      0.0000    654.4268      8.6113     69.6765
   373.5000      0.0000    625.4465      8.4679     66.7567
   373.7500      0.0000    592.0603      8.2751     64.4755
   374.0000      0.0000    564.1985      8.0790     63.1325
   374.2500      0.0000    551.7584      7.9236     62.6603
   374.5000      0.0000    559.6139      7.8349     62.8798
   374.7500      0.0000    585.0822      7.8170     63.6653
   375.0000      0.0000    618.9612      7.8559     64.8720
   375.2500      0.0000    650.2915      7.9275     66.1677
   375.5000      0.0000    672.1611      8.0097     66.8858
   375.7500      0.0000    683.9300      8.0917     66.2546
   376.0000      0.0000    688.7894      8.1775     64.1512
   376.2500      0.0000    690.0126      8.2800     61.5409
   376.5000      0.0000    688.8546      8.4045     59.8322
   376.7500      0.0000    684.0504      8.5352     59.7704
   377.0000      0.0000    672.3228      8.6450     61.0434
   377.2500      0.0000    650.5225      8.7209     62.7905
   377.5000      0.0000    619.3362      8.7776     64.3437
   377.7500      0.0000    585.2895      8.8430     65.6433
   378.0000      0.0000    557.5153      8.9392     67.0864
   378.2500      0.0000    541.2771      9.0718     69.0056
   378.5000      0.0000    534.7612      9.2301     71.3729
   378.7500      0.0000    532.0758      9.3955     73.8838
   379.0000      0.0000    528.8091      9.5529     76.0019
   379.2500      0.0000    525.1631      9.6920     77.0198
   379.5000      0.0000    525.3151      9.7944     76.5775
   379.7500      0.0000    534.4747      9.8320     75.0672
   380.0000      0.0000    555.1025      9.7902     73.1346
   380.2500      0.0000    583.4888      9.6887     70.9586
   380.5000      0.0000    609.4079      9.5709     68.5735
   380.7500      0.0000    621.1879      9.4756     66.7140
   381.0000      0.0000    613.5027      9.4197     66.5719
   381.2500      0.0000    590.9983      9.3980     68.5762
   381.5000      2.0000    564.3414      9.3923     72.0284
   381.7500     -2.0000    542.8891      9.3836     76.1463
   382.0000      0.0000    530.6514      9.3609     80.9146
   382.2500      0.0000    527.8671      9.3212     86.7516
   382.5000      0.0000    534.7498      9.2676     93.8074
   382.7500      0.0000    552.2587      9.2176    101.7276
   383.0000      0.0000    578.4661      9.2024    109.7922
   383.2500      0.0000    605.6774      9.2393    117.1574
   383.5000      0.0000    624.1384      9.2993    122.9583
   383.7500      0.0000    629.8856      9.3135    126.2758
   384.0000      0.0000    627.8848      9.2221    126.5010
   384.2500      0.0000    626.9856      9.0183    123.9641
   384.5000      0.0000    632.6779      8.7490    119.8488
   384.7500      0.0000    644.2026      8.4764    115.3717
   385.0000      0.0000    656.7859      8.2417    111.3611
   385.2500      0.0000    666.0754      8.0539    108.3322
   385.5000      0.0000    671.0173      7.8957    106.3211
