~Version Information
VERS.                      2.0: CWLS Log ASCII Standard - VERSION 2.0
WRAP.                       NO: One line per depth step
~Well Information Block
STRT.FT               233.8000: 
STOP.FT              1692.5000: 
STEP.FT                 0.1000: 
NULL.                -999.2500: 
COMP.          Pioneer Natural Resources: COMPANY
WELL.            Relay 12-7 Tr: WELL
FLD.           Purgatoire River: FIELD
LOC.           2025' FNL & 790' FWL: LOCATION
PROV.                 Colorado: PROVINCE
CNTY.               Las Animas: COUNTRY
SRVC.                Patterson: SERVICE COMPANY
DATE.          Mon Jan 16 13:23:17 2006: LOG DATE
UWI.           05 071 08603 00: UNIQUE WELL ID
~Curve Information Block
DEPT.FT            0 000 00 00: Depth
DCAL.in                       : CDL Caliper
RHOB.g/cc                     : CDL Bulk Density
RHOC.g/cc                     : CDL Density Correction
DPOR.pu                       : CDL Density Porosity
GR.GAPI                       : Gamma Ray
~Parameter Information Block
~A  Depth       DCAL        RHOB        RHOC        DPOR         GR     
# ...
  1297.8000      7.9575      1.5181     -0.1697     68.5999    128.1163
  1297.9000      7.9575      1.4617     -0.1489     72.0156    115.5334
  1298.0000      7.9844      1.4841     -0.0600     70.6596     98.2435
  1298.1000      7.9844      1.5750      0.0726     65.1543     85.1224
  1298.2000      7.9844      1.6911      0.1237     58.1169     78.0099
  1298.3000      8.0882      1.8065      0.0922     51.1190     74.8083
  1298.4000      8.0882      1.9319      0.1158     43.5188     76.6871
  1298.5000      8.3184      2.0712      0.1371     35.0781     82.0147
  1298.6000      8.3184      2.2087      0.2064     26.7453     86.4341
  1298.7000      8.3184      2.3387      0.2216     18.8653     88.6219
  1298.8000      8.3602      2.4616      0.2261     11.4188     89.1801
  1298.9000      8.3602      2.5539      0.2322      5.8240     90.1941
  1299.0000      8.0059      2.6013      0.0966      2.9532     95.4062
  1299.1000      8.0059      2.6220      0.1247      1.6981    101.1903
  1299.2000      8.0059      2.6212      0.1324      1.7478    102.3968
  1299.3000      7.9081      2.5951      0.0832      3.3247    101.3611
  1299.4000      7.9081      2.5633      0.0420      5.2555     97.8235
  1299.5000      7.8364      2.5466      0.0371      6.2660     91.6934
  1299.6000      7.8364      2.5448      0.0271      6.3763     91.0513
  1299.7000      7.8364      2.5433      0.0771      6.4646     97.4989
  1299.8000      7.8978      2.5316      0.0411      7.1784    102.7508
  1299.9000      7.8978      2.5239      0.0417      7.6439    103.0043
  1300.0000      7.8992      2.5376      0.0771      6.8144    102.6293
  1300.1000      7.8992      2.5617      0.0836      5.3545    106.3871
  1300.2000      7.8992      2.5744      0.0912      4.5806    113.9051
  1300.3000      7.9000      2.5639      0.0970      5.2210    121.0274
  1300.4000      7.9000      2.5354      0.0354      6.9481    123.5293
  1300.5000      7.9098      2.5125      0.0031      8.3361    121.2221
  1300.6000      7.9098      2.5003      0.0846      9.0731    120.0404
  1300.7000      7.9098      2.4791      0.0628     10.3586    125.0001
  1300.8000      7.9262      2.4516     -0.0174     12.0257    132.5334
  1300.9000      7.9262      2.4415      0.0554     12.6374    133.0314
  1301.0000      7.9263      2.4568      0.0444     11.7068    124.6301
  1301.1000      7.9263      2.4850      0.0792     10.0026    117.8447
  1301.2000      7.9263      2.5049      0.0584      8.7942    121.0066
  1301.3000      7.9037      2.5091      0.0933      8.5405    129.8314
  1301.4000      7.9037      2.5180      0.0696      8.0010    138.2163
  1301.5000      7.8963      2.5523      0.1224      5.9209    145.4148
  1301.6000      7.8963      2.5941      0.1910      3.3867    151.5344
  1301.7000      7.8963      2.6056      0.2047      2.6899    154.7933
  1301.8000      7.8999      2.5749      0.1742      4.5536    155.1490
  1301.9000      7.8999      2.5272      0.0372      7.4395    154.9793
  1302.0000      7.8642      2.4949      0.0578      9.3983    155.1410
  1302.1000      7.8642      2.4820      0.0113     10.1817    154.5350
  1302.2000      7.8642      2.4630      0.0590     11.3324    153.1270
  1302.3000      7.8471      2.4039      0.0173     14.9139    152.2743
  1302.4000      7.8471      2.3004      0.0123     21.1908    152.8554
  1302.5000      7.8974      2.1763     -0.0390     28.7078    155.0942
  1302.6000      7.8974      2.0495     -0.0659     36.3923    156.1551
  1302.7000      7.8974      1.9327     -0.0893     43.4725    151.3884
  1302.8000      7.9389      1.8509     -0.1040     48.4287    140.9396
  1302.9000      7.9389      1.8200     -0.1147     50.3049    128.7888
  1303.0000      7.9442      1.8284     -0.0476     49.7966    118.5776
  1303.1000      7.9442      1.8647     -0.0143     47.5961    114.4480
  1303.2000      7.9442      1.9416      0.0104     42.9309    118.1547
  1303.3000      7.9750      2.0662      0.1895     35.3798    124.3866
  1303.4000      7.9750      2.2086      0.1955     26.7532    127.1058
  1303.5000      8.1025      2.3238      0.2256     19.7697    125.7296
  1303.6000      8.1025      2.3844      0.1636     16.0986    126.6812
  1303.7000      8.1025      2.3906      0.0844     15.7190    132.7221
  1303.8000      8.0767      2.3558      0.0486     17.8314    135.4299
  1303.9000      8.0767      2.2976      0.0160     21.3572    131.7214
  1304.0000      8.0447      2.2290      0.0069     25.5155    127.9016
  1304.1000      8.0447      2.1576     -0.0641     29.8428    125.3292
  1304.2000      8.0447      2.0982     -0.0637     33.4397    122.4897
  1304.3000      8.0367      2.0607     -0.0883     35.7172    121.6364
  1304.4000      8.0367      2.0450     -0.0567     36.6679    125.0354
  1304.5000      8.0486      2.0505      0.0276     36.3326    131.1785
  1304.6000      8.0486      2.0797      0.0184     34.5625    137.5721
  1304.7000      8.0486      2.1299      0.1625     31.5204    141.9635
  1304.8000      8.0550      2.1832      0.1906     28.2883    141.6130
  1304.9000      8.0550      2.2236      0.2218     25.8409    136.2903
  1305.0000      8.0295      2.2558      0.1708     23.8910    129.0099
  1305.1000      8.0295      2.3003      0.1329     21.1921    123.1844
  1305.2000      8.0295      2.3598      0.1544     17.5876    122.7846
  1305.3000      7.9024      2.4160      0.1414     14.1818    127.9323
  1305.4000      7.9024      2.4647      0.1282     11.2297    133.4913
  1305.5000      7.8594      2.5036      0.1885      8.8698    135.7307
  1305.6000      7.8594      2.5201      0.1376      7.8705    135.4277
  1305.7000      7.8594      2.5233      0.1286      7.6805    136.0472
  1305.8000      7.9476      2.5302      0.1586      7.2592    136.9861
  1305.9000      7.9476      2.5349      0.1248      6.9750    134.9165
  1306.0000      7.9959      2.5239      0.1188      7.6433    131.2699
  1306.1000      7.9959      2.4987      0.0794      9.1707    125.8122
  1306.2000      7.9959      2.4763      0.0189     10.5290    113.4581
  1306.3000      7.9783      2.4698      0.0191     10.9185    104.3235
  1306.4000      7.9783      2.4751      0.0077     10.5970    113.5898
  1306.5000      7.9533      2.4871     -0.0034      9.8734    133.2013
  1306.6000      7.9533      2.5072      0.0239      8.6531    145.0294
  1306.7000      7.9533      2.5284      0.0450      7.3693    143.2701
  1306.8000      7.9411      2.5383      0.0695      6.7725    133.8884
  1306.9000      7.9411      2.5368      0.0436      6.8582    126.5477
  1307.0000      7.9120      2.5369      0.0435      6.8559    128.1901
  1307.1000      7.9120      2.5463      0.0643      6.2868    134.2524
  1307.2000      7.9120      2.5567      0.0470      5.6573    137.2652
  1307.3000      7.8935      2.5587      0.0805      5.5362    138.4983
  1307.4000      7.8935      2.5614      0.0343      5.3712    138.1665
  1307.5000      7.8764      2.5708      0.0950      4.7985    134.6857
  1307.6000      7.8764      2.5729      0.0275      4.6725    132.5565
  1307.7000      7.8764      2.5652      0.0261      5.1374    134.4488
  1307.8000      7.9264      2.5539      0.0485      5.8255    136.5751
  1307.9000      7.9264      2.5395     -0.0110      6.6941    138.2114
  1308.0000      7.9457      2.5320     -0.0171      7.1529    140.3757
  1308.1000      7.9457      2.5405     -0.0000      6.6365    140.6563
  1308.2000      7.9457      2.5551      0.0299      5.7545    137.6810
  1308.3000      7.9573      2.5571      0.0316      5.6321    132.9838
  1308.4000      7.9573      2.5416      0.0453      6.5696    130.5660
  1308.5000      7.9852      2.5206     -0.0079      7.8423    132.3284
  1308.6000      7.9852      2.5061     -0.0004      8.7188    132.3583
  1308.7000      7.9852      2.4953     -0.0071      9.3765    126.7533
  1308.8000      8.0104      2.4810      0.0019     10.2451    120.8281
  1308.9000      8.0104      2.4631     -0.0062     11.3251    119.1168
