~Version Information
VERS.                      2.0: CWLS Log ASCII Standard - VERSION 2.0
WRAP.                       NO: One line per depth step
~Well Information Block
STRT.FT               525.0000: 
STOP.FT              2377.2500: 
STEP.FT                 0.2500: 
NULL.                -999.2500: 
COMP.          Pioneer Natural Resources: COMPANY
WELL.          Sparrowhawk 22-12: WELL
FLD.           Purgatoire River: FIELD
LOC.           2049' FNL & 2060' FWL--: LOCATION
CNTY.               Las Animas: COUNTY
SRVC.                Patterson: SERVICE COMPANY
DATE.          Thu Mar 23 10:52:44 2006: LOG DATE
UWI.           05 071 08484 00: UNIQUE WELL ID
STAT.                 Colorado: STATE
~Curve Information Block
DEPT.FT            0 000 00 00: Depth
SN.Ohm-m                      : IEL Short Normal
SP.mV                         : IEL Spontaneous Potential
DIR.Ohm-m                     : IEL Induction Resistivity
GR.GAPI                       : Gamma Ray
~Parameter Information Block
~A  Depth        SN          SP         DIR          GR     
# ...
  1731.0000     12.2686     78.3477     11.5110    127.8712
  1731.2500     11.7431     78.3245     10.9596    131.2760
  1731.5000     11.2520     78.3001     10.4503    136.1775
  1731.7500     10.8158     78.2748      9.9884    139.8491
  1732.0000     10.4465     78.2514      9.5805    146.3026
  1732.2500     10.1441     78.2333      9.2324    150.7977
  1732.5000      9.9034     78.2235      8.9473    156.2161
  1732.7500      9.7214     78.2229      8.7246    158.0619
  1733.0000      9.5968     78.2286      8.5597    158.0497
  1733.2500      9.5248     78.2343      8.4450    157.0329
  1733.5000      9.4938     78.2305      8.3724    155.7317
  1733.7500      9.4881     78.2069      8.3353    155.4248
  1734.0000      9.4952     78.1553      8.3293    155.3151
  1734.2500      9.5105     78.0736      8.3514    154.9789
  1734.5000      9.5368     77.9701      8.3995    153.6633
  1734.7500      9.5774     77.8660      8.4718    152.3113
  1735.0000      9.6313     77.7949      8.5671    149.9580
  1735.2500      9.6922     77.7974      8.6845    148.4765
  1735.5000      9.7513     77.9108      8.8224    147.0387
  1735.7500      9.7999     78.1568      8.9773    146.9088
  1736.0000      9.8301     78.5305      9.1425    147.8641
  1736.2500      9.8328     78.9969      9.3071    148.7426
  1736.5000      9.7972     79.4957      9.4542    148.9599
  1736.7500      9.7177     79.9560      9.5628    147.4572
  1737.0000      9.6060     80.3147      9.6130    141.9328
  1737.2500      9.4964     80.5325      9.5939    136.6024
  1737.5000      9.4321     80.6028      9.5090    128.8677
  1737.7500      9.4401     80.5491      9.3731    125.7687
  1738.0000      9.5099     80.4155      9.2041    125.9465
  1738.2500      9.5925     80.2524      9.0143    128.8431
  1738.5000      9.6217     80.1045      8.8068    134.7100
  1738.7500      9.5462     80.0024      8.5785    138.0075
  1739.0000      9.3542     79.9610      8.3263    140.7229
  1739.2500      9.0747     79.9814      8.0529    141.2420
  1739.5000      8.7587     80.0556      7.7688    141.2878
  1739.7500      8.4558     80.1712      7.4906    141.6642
  1740.0000      8.1990     80.3149      7.2366    143.8634
  1740.2500      8.0003     80.4749      7.0212    146.5818
  1740.5000      7.8531     80.6414      6.8524    151.7982
  1740.7500      7.7404     80.8066      6.7302    155.2357
  1741.0000      7.6456     80.9641      6.6483    158.8178
  1741.2500      7.5605     81.1086      6.5967    159.3898
  1741.5000      7.4886     81.2352      6.5661    156.7849
  1741.7500      7.4438     81.3400      6.5511    152.8323
  1742.0000      7.4457     81.4203      6.5512    144.7459
  1742.2500      7.5100     81.4753      6.5708    139.0715
  1742.5000      7.6386     81.5059      6.6171    132.2316
  1742.7500      7.8189     81.5143      6.6979    129.4620
  1743.0000      8.0294     81.5035      6.8194    127.6064
  1743.2500      8.2466     81.4770      6.9843    127.1744
  1743.5000      8.4488     81.4383      7.1912    126.8499
  1743.7500      8.6187     81.3907      7.4346    126.7171
  1744.0000      8.7484     81.3380      7.7076    126.6488
  1744.2500      8.8455     81.2841      8.0047    126.6926
  1744.5000      8.9345     81.2336      8.3255    126.8526
  1744.7500      9.0517     81.1909      8.6768    126.8722
  1745.0000      9.2333     81.1601      9.0713    126.4718
  1745.2500      9.5025     81.1441      9.5228    126.0800
  1745.5000      9.8606     81.1445     10.0383    126.1290
  1745.7500     10.2885     81.1621     10.6117    126.6193
  1746.0000     10.7608     81.1967     11.2212    126.3323
  1746.2500     11.2652     81.2486     11.8333    124.1053
  1746.5000     11.8102     81.3183     12.4125    117.0789
  1746.7500     12.4183     81.4072     12.9319    110.9627
  1747.0000     13.1062     81.5170     13.3818    102.6315
  1747.2500     13.8644     81.6492     13.7721     99.2308
  1747.5000     14.6487     81.8047     14.1273     98.5312
  1747.7500     15.3923     81.9823     14.4780    100.3932
  1748.0000     16.0284     82.1788     14.8488    104.0532
  1748.2500     16.5073     82.3885     15.2478    105.6249
  1748.5000     16.8061     82.6033     15.6615    105.6347
  1748.7500     16.9310     82.8134     16.0566    104.1627
  1749.0000     16.9151     83.0086     16.3905    100.4139
  1749.2500     16.8056     83.1798     16.6234     97.5771
  1749.5000     16.6420     83.3197     16.7256     94.4502
  1749.7500     16.4358     83.4248     16.6763     93.8581
  1750.0000     16.1714     83.4948     16.4623     95.1039
  1750.2500     15.8302     83.5326     16.0849     96.6444
  1750.5000     15.4173     83.5425     15.5714     99.2159
  1750.7500     14.9680     83.5290     14.9757    101.4491
  1751.0000     14.5307     83.4950     14.3625    106.7929
  1751.2500     14.1396     83.4410     13.7839    111.8077
  1751.5000     13.7926     83.3659     13.2644    119.8873
  1751.7500     13.4461     83.2675     12.8003    124.1102
  1752.0000     13.0336     83.1442     12.3680    126.8408
  1752.2500     12.5015     82.9965     11.9379    126.3102
  1752.5000     11.8419     82.8276     11.4872    123.7339
  1752.7500     11.1028     82.6431     11.0090    122.0310
  1753.0000     10.3717     82.4501     10.5134    120.8325
  1753.2500      9.7399     82.2563     10.0205    121.3152
  1753.5000      9.2675     82.0691      9.5494    124.1447
  1753.7500      8.9643     81.8947      9.1097    127.1439
  1754.0000      8.7907     81.7385      8.7000    132.2348
  1754.2500      8.6777     81.6046      8.3129    135.4838
  1754.5000      8.5593     81.4966      7.9425    139.8311
  1754.7500      8.4003     81.4170      7.5904    142.3338
  1755.0000      8.2042     81.3672      7.2653    145.1585
  1755.2500      7.9989     81.3471      6.9795    146.1539
  1755.5000      7.8145     81.3547      6.7438    146.2303
  1755.7500      7.6658     81.3862      6.5634    145.5864
  1756.0000      7.5472     81.4363      6.4365    144.1388
  1756.2500      7.4366     81.4989      6.3544    143.0036
  1756.5000      7.3066     81.5683      6.3034    141.0048
  1756.7500      7.1396     81.6397      6.2683    139.4271
  1757.0000      6.9419     81.7096      6.2373    136.5043
  1757.2500      6.7463     81.7758      6.2068    133.8416
  1757.5000      6.6028     81.8368      6.1824    128.1600
  1757.7500      6.5633     81.8915      6.1766    123.5129
  1758.0000      6.6656     81.9387      6.2033    117.1820
  1758.2500      6.9192     81.9776      6.2725    114.5402
  1758.5000      7.2933     82.0081      6.3886    113.0687
  1758.7500      7.7191     82.0316      6.5502    112.7685
  1759.0000      8.1110     82.0512      6.7528    111.6074
  1759.2500      8.4017     82.0715      6.9927    110.0184
  1759.5000      8.5734     82.0981      7.2716    106.8940
  1759.7500      8.6697     82.1362      7.5980    104.9065
  1760.0000      8.7837     82.1894      7.9873    103.1220
  1760.2500      9.0270     82.2580      8.4567    103.0575
  1760.5000      9.4899     82.3391      9.0186    104.2208
  1760.7500     10.1985     82.4271      9.6715    105.1919
  1761.0000     11.0868     82.5151     10.3888    106.1035
  1761.2500     12.0144     82.5975     11.1122    106.2793
  1761.5000     12.8330     82.6720     11.7619    106.3298
  1761.7500     13.4609     82.7400     12.2676    106.7144
  1762.0000     13.9074     82.8066     12.6045    108.7827
  1762.2500     14.2385     82.8788     12.8054    111.3753
  1762.5000     14.5238     82.9637     12.9383    116.3392
  1762.7500     14.8072     83.0665     13.0746    119.4358
  1763.0000     15.1072     83.1898     13.2690    121.7155
  1763.2500     15.4325     83.3334     13.5547    120.3423
  1763.5000     15.8008     83.4945     13.9491    112.5590
  1763.7500     16.2513     83.6685     14.4599    104.1842
  1764.0000     16.8437     83.8496     15.0904     90.4928
  1764.2500     17.6363     84.0310     15.8419     82.9870
