~Version Information
VERS.                      2.0: CWLS Log ASCII Standard - VERSION 2.0
WRAP.                       NO: One line per depth step
~Well Information Block
STRT.FT                -8.7500: 
STOP.FT              1860.5000: 
STEP.FT                 0.2500: 
NULL.                -999.2500: 
COMP.          Pioneer Natural Resources: COMPANY
WELL.          Cortina 23-25 Tr: WELL
FLD.           Purgatorie River: FIELD
LOC.           --2521' FSL & 2345' FWL------: LOCATION
STAT.                       CO: PROVINCE
CNTY.               Las Animas: COUNTY
CTRY. USA : country
SECT. 25 : Section
TOWN. 32S : Township
RANG. 67W : Range
SRVC.          Patterson Wireline: SERVICE COMPANY
DATE.          Thu Sep 29 11:30:45 2005: LOG DATE
API.           05 071 08534 00: UNIQUE WELL ID
~Curve Information Block
DEPT.FT            0 000 00 00: Depth
CCL.                          : Casing Collar Locator
TT3.usec                      : CBL 3' Travel Time
AMP3.mV                       : CBL 3' Amplitude
GR.GAPI                       : Gamma Ray
~Parameter Information Block
~A  Depth       CCL         TT3         AMP3         GR     
# ...
   594.2500      0.0000    361.0194     24.0097     61.0821
   594.5000      0.0000    402.4200     22.6440     57.5760
   594.7500      0.0000    456.5418     20.9750     55.3482
   595.0000      0.0000    509.6078     19.5214     56.4675
   595.2500      0.0000    550.5071     18.7439     62.5903
   595.5000      0.0000    582.2994     18.6462     73.8841
   595.7500      0.0000    618.3464     18.8797     88.2810
   596.0000      0.0000    666.2074     19.1571    101.9651
   596.2500      0.0000    716.9771     19.4100    111.1702
   596.5000      2.0000    749.8761     19.6400    113.9758
   596.7500     -2.0000    745.8636     19.8128    110.8588
   597.0000      0.0000    698.7161     19.8910    104.1856
   597.2500      0.0000    618.5380     19.9023     97.2348
   597.5000      0.0000    528.0490     19.9759     92.7979
   597.7500      0.0000    451.7121     20.3056     91.7965
   598.0000      0.0000    402.5448     21.0078     93.1390
   598.2500      0.0000    377.2962     22.0098     95.1912
   598.5000      0.0000    363.8854     23.1427     97.4280
   598.7500      0.0000    352.7406     24.2857    100.3984
   599.0000      0.0000    341.5692     25.3336    104.0971
   599.2500      0.0000    332.3862     26.1195    106.9676
   599.5000      0.0000    326.7674     26.5045    107.0308
   599.7500      0.0000    324.2667     26.5127    103.8115
   600.0000      0.0000    323.5042     26.3140     98.7741
   600.2500      0.0000    323.4000     26.0994     93.9388
   600.5000      0.0000    323.4403     25.9821     90.2796
   600.7500      0.0000    323.4606     25.9806     87.4296
   601.0000      0.0000    323.4427     26.0470     84.6933
   601.2500      0.0000    323.4066     26.1086     81.9911
   601.5000      0.0000    323.3816     26.1029     79.6027
   601.7500      0.0000    323.3788     26.0085     77.3371
   602.0000      0.0000    323.3845     25.8623     74.5276
   602.2500      0.0000    323.3765     25.7405     70.8525
   602.5000      0.0000    323.3479     25.7045     66.8754
   602.7500      0.0000    323.3109     25.7654     63.7147
   603.0000      0.0000    323.2785     25.8940     62.0912
   603.2500      0.0000    323.2525     26.0457     61.5618
   603.5000      0.0000    323.2314     26.1631     60.9070
   603.7500      0.0000    323.2231     26.1806     59.5368
   604.0000      0.0000    323.2392     26.0533     58.2248
   604.2500      0.0000    323.2801     25.7867     58.2238
   604.5000      0.0000    323.3289     25.4298     59.8890
   604.7500      0.0000    323.3643     25.0405     62.3135
   605.0000      0.0000    323.3795     24.6543     64.0353
   605.2500      0.0000    323.3886     24.2740     64.0461
   605.5000      0.0000    323.4165     23.8779     62.4923
   605.7500      0.0000    323.4813     23.4430     60.6339
   606.0000      0.0000    323.5859     22.9682     59.9401
   606.2500      0.0000    323.7237     22.4797     60.9492
   606.5000      0.0000    323.8919     22.0149     62.9211
   606.7500      0.0000    324.0937     21.6011     64.5911
   607.0000      0.0000    324.3225     21.2521     65.1622
   607.2500      0.0000    324.5454     20.9754     64.6761
   607.5000      0.0000    324.7077     20.7817     63.9094
   607.7500      0.0000    324.7570     20.6892     64.1380
   608.0000      0.0000    324.6686     20.7164     66.6228
   608.2500      0.0000    324.4627     20.8595     71.9279
   608.5000      0.0000    324.2065     21.0778     79.6437
   608.7500      0.0000    323.9886     21.3120     88.7308
   609.0000      0.0000    323.8779     21.5187     97.9680
   609.2500      0.0000    323.9000     21.6849    106.1627
   609.5000      0.0000    324.0427     21.8157    112.3126
   609.7500      0.0000    324.2670     21.9233    115.9383
   610.0000      0.0000    324.5109     22.0273    117.3085
   610.2500      0.0000    324.6987     22.1490    117.1585
   610.5000      0.0000    324.7691     22.2999    116.0469
   610.7500      0.0000    324.7033     22.4767    113.9258
   611.0000      0.0000    324.5304     22.6675    110.4052
   611.2500      0.0000    324.3073     22.8633    105.6425
   611.5000      0.0000    324.0907     23.0642    100.8609
   611.7500      0.0000    323.9194     23.2706     97.5737
   612.0000      0.0000    323.8139     23.4630     96.2574
   612.2500      0.0000    323.7785     23.5944     96.1325
   612.5000      0.0000    323.7981     23.6179     96.3240
   612.7500      0.0000    323.8415     23.5187     96.7580
   613.0000      0.0000    323.8841     23.3138     97.6549
   613.2500      0.0000    323.9326     23.0275     98.7507
   613.5000      0.0000    324.0233     22.6800     99.5582
   613.7500      0.0000    324.1913     22.2975    100.0980
   614.0000      0.0000    324.4391     21.9163    100.9306
   614.2500      0.0000    324.7332     21.5691    102.6512
   614.5000      0.0000    325.0304     21.2676    105.5571
   614.7500      0.0000    325.3017     21.0047    109.4617
   615.0000      0.0000    325.5260     20.7739    113.3671
   615.2500      0.0000    325.6686     20.5892    115.5274
   615.5000      0.0000    325.6833     20.4852    114.4888
   615.7500      0.0000    325.5503     20.4935    110.3202
   616.0000      0.0000    325.3087     20.6159    104.7424
   616.2500      0.0000    325.0382     20.8208    100.0183
   616.5000      0.0000    324.8072     21.0617     97.4570
   616.7500      0.0000    324.6431     21.2952     96.5492
   617.0000      0.0000    324.5439     21.4823     95.6083
   617.2500      0.0000    324.5028     21.5883     93.5192
   617.5000      0.0000    324.5205     21.5951     90.6789
   617.7500      0.0000    324.6055     21.5140     88.2260
   618.0000      0.0000    324.7619     21.3816     87.0979
   618.2500      0.0000    324.9716     21.2388     88.2064
   618.5000      0.0000    325.1905     21.1128     92.6038
   618.7500      0.0000    325.3702     21.0106    100.6534
   619.0000      0.0000    325.4850     20.9226    111.3109
   619.2500      0.0000    325.5379     20.8345    122.5716
   619.5000      0.0000    325.5440     20.7442    132.3741
   619.7500      0.0000    325.5098     20.6719    139.1299
   620.0000      0.0000    325.4253     20.6521    142.0912
   620.2500      0.0000    325.2768     20.7090    141.6167
   620.5000      0.0000    325.0695     20.8357    138.8048
   620.7500      0.0000    324.8673     20.9900    134.6810
   621.0000      0.0000    324.8368     21.1073    129.9867
   621.2500      0.0000    325.5739     21.1285    125.6761
   621.5000      0.0000    328.8513     21.0256    122.9624
   621.7500      0.0000    338.7570     20.8057    122.4064
   622.0000      0.0000    361.8319     20.4928    123.2885
   622.2500      0.0000    404.2029     20.1084    124.3991
   622.5000      0.0000    466.4880     19.6769    125.3126
   622.7500      0.0000    540.9545     19.2473    126.3941
   623.0000      0.0000    613.3961     18.8981    127.5787
   623.2500      0.0000    666.5513     18.7118    127.6430
   623.5000      0.0000    683.6180     18.7422    125.0926
   623.7500      0.0000    655.0329     18.9965    119.8653
   624.0000      0.0000    586.7264     19.4367    113.8640
   624.2500      0.0000    500.5807     19.9933    109.7081
   624.5000      0.0000    422.8145     20.5891    109.0775
   624.7500      0.0000    369.3254     21.1635    111.8615
   625.0000      0.0000    340.7368     21.6764    116.2010
   625.2500      0.0000    328.7681     22.0941    119.3466
   625.5000      0.0000    324.8179     22.3833    119.1128
   625.7500      0.0000    323.8160     22.5277    114.9616
   626.0000      0.0000    323.6845     22.5470    107.9165
   626.2500      0.0000    323.7645     22.4970     99.8016
   626.5000      0.0000    323.8603     22.4494     92.7568
   626.7500      0.0000    323.8940     22.4579     88.9877
   627.0000      0.0000    323.8636     22.5290     90.2562
   627.2500      0.0000    323.8109     22.6187     97.1799
   627.5000      0.0000    323.7885     22.6626    108.7067
