~Version Information
VERS.                      2.0: CWLS Log ASCII Standard - VERSION 2.0
WRAP.                       NO: One line per depth step
~Well Information Block
STRT.FT               875.0000: 
STOP.FT              2947.2000: 
STEP.FT                 0.1000: 
NULL.                -999.2500: 
COMP.          Pioneer Natural Resources: COMPANY
WELL.          Hanginstone 21-27: WELL
FLD.           Purgatoire River: FIELD
LOC.           1186' FNL & 1606' FWL--: LOCATION
PROV.                 Colorado: PROVINCE
CNTY.               Las Animas: COUNTRY
SRVC.                Patterson: SERVICE COMPANY
DATE.          Mon Jan 09 07:31:45 2006: LOG DATE
UWI.           05 071 08632 00: UNIQUE WELL ID
~Curve Information Block
DEPT.FT            0 000 00 00: Depth
DCAL.in                       : CDL Caliper
RHOB.g/cc                     : CDL Bulk Density
RHOC.g/cc                     : CDL Density Correction
DPOR.pu                       : CDL Density Porosity
NPOR.pu                       : Neutron Porosity
GR.GAPI                       : Gamma Ray
~Parameter Information Block
~A  Depth       DCAL        RHOB        RHOC        DPOR        NPOR         GR     
# ...
  2372.6000      7.9566      2.4469     -0.0043     12.3088     26.8913    126.1126
  2372.7000      7.9566      2.4533      0.0181     11.9222     27.3063    128.5566
  2372.8000      7.9602      2.4608      0.0553     11.4663     27.2725    125.6962
  2372.9000      7.9602      2.4593      0.0635     11.5559     26.8588    116.3566
  2373.0000      7.9606      2.4436      0.0643     12.5103     26.5034    111.2747
  2373.1000      7.9606      2.4169      0.0698     14.1282     26.3401    116.0292
  2373.2000      7.9606      2.3909      0.0092     15.7011     26.2913    125.7815
  2373.3000      7.9583      2.3799     -0.0136     16.3721     26.3687    131.0297
  2373.4000      7.9583      2.3822      0.0121     16.2332     26.5300    125.1464
  2373.5000      7.9580      2.3777      0.0282     16.5005     26.6983    112.9120
  2373.6000      7.9580      2.3573      0.0273     17.7410     26.7450    104.5800
  2373.7000      7.9580      2.3304      0.0026     19.3721     26.7531    104.2816
  2373.8000      7.9575      2.3019      0.0001     21.0950     26.9342    110.5171
  2373.9000      7.9575      2.2691      0.0037     23.0850     27.1558    118.7130
  2374.0000      7.9573      2.2342      0.0023     25.2001     27.1626    119.9073
  2374.1000      7.9573      2.2027     -0.0334     27.1082     26.8957    111.8122
  2374.2000      7.9573      2.1762     -0.0097     28.7177     26.4946    105.7628
  2374.3000      7.9588      2.1537      0.0117     30.0810     26.2765    106.8644
  2374.4000      7.9588      2.1423     -0.0076     30.7699     26.4206    106.3238
  2374.5000      7.9597      2.1448      0.0324     30.6167     26.7732    101.7070
  2374.6000      7.9597      2.1531      0.0431     30.1159     26.9880    100.0616
  2374.7000      7.9597      2.1710      0.0398     29.0278     26.9116    101.5902
  2374.8000      7.9586      2.2097      0.0448     26.6870     26.4906     98.1984
  2374.9000      7.9586      2.2635      0.0739     23.4238     25.8328     89.1214
  2375.0000      7.9563      2.3131      0.1357     20.4174     25.4606     83.9173
  2375.1000      7.9563      2.3562      0.1072     17.8083     25.4034     87.2661
  2375.2000      7.9563      2.4152      0.1033     14.2297     25.2061     96.8166
  2375.3000      7.9543      2.4882      0.1810      9.8031     24.8821    107.0830
  2375.4000      7.9543      2.5383      0.1899      6.7671     24.6120    111.1155
  2375.5000      7.9550      2.5474      0.1168      6.2180     24.4229    108.0108
  2375.6000      7.9550      2.5330      0.0549      7.0929     24.1452    102.5050
  2375.7000      7.9550      2.5239      0.0267      7.6395     23.6974     97.8723
  2375.8000      7.9564      2.5401      0.0261      6.6586     23.3897     93.8838
  2375.9000      7.9564      2.5703      0.0832      4.8280     23.5279     91.8385
  2376.0000      7.9549      2.5838      0.0730      4.0109     24.0221     93.7276
  2376.1000      7.9549      2.5748      0.0646      4.5573     24.3503     98.3308
  2376.2000      7.9549      2.5648      0.0402      5.1611     23.9958    104.2322
  2376.3000      7.9539      2.5646      0.0691      5.1742     23.2535    110.1691
  2376.4000      7.9539      2.5680      0.0296      4.9727     22.9427    114.2258
  2376.5000      7.9564      2.5765      0.0271      4.4572     23.1325    116.3753
  2376.6000      7.9564      2.5910      0.0649      3.5778     23.4149    118.4121
  2376.7000      7.9564      2.6003      0.0952      3.0120     23.4979    119.6079
  2376.8000      7.9595      2.6005      0.0562      2.9998     23.2512    118.0688
  2376.9000      7.9595      2.5995      0.0655      3.0627     22.8416    117.5012
  2377.0000      7.9595      2.5974      0.0682      3.1849     22.4146    121.8511
  2377.1000      7.9595      2.5884      0.0343      3.7323     22.0079    126.5607
  2377.2000      7.9595      2.5773      0.0116      4.4055     21.9727    128.3204
  2377.3000      7.9592      2.5765      0.0178      4.4524     22.6609    127.7083
  2377.4000      7.9592      2.5805      0.0536      4.2099     23.7252    122.5829
  2377.5000      7.9606      2.5730      0.0326      4.6648     24.3944    117.0886
  2377.6000      7.9606      2.5578      0.0206      5.5864     24.3991    121.7934
  2377.7000      7.9606      2.5467      0.0368      6.2592     24.2925    135.0440
  2377.8000      7.9607      2.5409      0.0220      6.6122     24.3406    142.0881
  2377.9000      7.9607      2.5392      0.0382      6.7163     24.1175    139.5678
  2378.0000      7.9597      2.5443      0.0207      6.4045     23.5356    135.0947
  2378.1000      7.9597      2.5578      0.0167      5.5882     23.0925    130.9862
  2378.2000      7.9597      2.5700      0.0614      4.8477     23.2833    128.2547
  2378.3000      7.9607      2.5656      0.0381      5.1166     23.7608    127.1003
  2378.4000      7.9607      2.5460      0.0051      6.3006     23.9736    124.6430
  2378.5000      7.9632      2.5284     -0.0012      7.3671     24.0630    122.4615
  2378.6000      7.9632      2.5281     -0.0115      7.3897     24.0304    123.5287
  2378.7000      7.9632      2.5442      0.0343      6.4097     23.7971    128.0738
  2378.8000      7.9648      2.5517      0.0742      5.9579     23.4558    133.9338
  2378.9000      7.9648      2.5357     -0.0053      6.9293     22.9591    134.5245
  2379.0000      7.9646      2.5227     -0.0316      7.7130     22.5318    128.8301
  2379.1000      7.9646      2.5356      0.0047      6.9355     22.7818    124.8584
  2379.2000      7.9646      2.5588      0.0288      5.5300     23.8015    125.3669
  2379.3000      7.9642      2.5733      0.0333      4.6515     24.7284    125.5735
  2379.4000      7.9642      2.5772      0.0518      4.4150     24.8533    127.0287
  2379.5000      7.9637      2.5758      0.0548      4.4950     24.7019    132.2594
  2379.6000      7.9637      2.5813     -0.0006      4.1662     25.1083    133.5269
  2379.7000      7.9637      2.5935      0.0684      3.4225     25.7239    126.9426
  2379.8000      7.9630      2.5922      0.0381      3.5053     25.8008    121.5807
  2379.9000      7.9630      2.5709      0.0372      4.7959     25.3924    124.2299
  2380.0000      7.9616      2.5456      0.0291      6.3254     25.2497    131.9153
  2380.1000      7.9616      2.5344     -0.0040      7.0047     25.7245    138.5743
  2380.2000      7.9616      2.5378      0.0288      6.8024     25.9395    140.0699
  2380.3000      7.9609      2.5442      0.0315      6.4093     25.4313    138.0193
  2380.4000      7.9609      2.5549      0.0275      5.7628     25.0193    136.1695
  2380.5000      7.9626      2.5716      0.0486      4.7520     25.1288    134.3591
  2380.6000      7.9626      2.5841      0.0609      3.9935     25.2726    131.8575
  2380.7000      7.9626      2.5838      0.1053      4.0104     25.0478    128.7814
  2380.8000      7.9671      2.5736      0.0656      4.6329     24.8224    125.0367
  2380.9000      7.9671      2.5610      0.0931      5.3943     24.8970    121.2642
  2381.0000      7.9752      2.5553      0.0579      5.7419     25.0066    121.5763
  2381.1000      7.9752      2.5653      0.1318      5.1347     24.9480    130.1948
  2381.2000      7.9752      2.5840      0.1427      3.9994     24.7488    141.6031
  2381.3000      7.9844      2.6007      0.1470      2.9908     24.6598    145.4370
  2381.4000      7.9844      2.6142      0.1098      2.1685     24.7264    137.3466
  2381.5000      7.9873      2.6262      0.0942      1.4404     24.8230    125.5161
  2381.6000      7.9873      2.6322      0.0914      1.0782     24.9196    123.3791
  2381.7000      7.9873      2.6306      0.0661      1.1746     24.9713    129.0687
  2381.8000      7.9765      2.6237      0.1128      1.5963     25.1410    130.3928
  2381.9000      7.9765      2.6079      0.0783      2.5518     25.5484    124.9711
  2382.0000      7.9534      2.5853      0.0365      3.9229     25.8461    119.6077
  2382.1000      7.9534      2.5578      0.0719      5.5895     25.7694    120.0421
