~Version Information
VERS.                      2.0: CWLS Log ASCII Standard - VERSION 2.0
WRAP.                       NO: One line per depth step
~Well Information Block
STRT.FT               260.0000: 
STOP.FT               713.2000: 
STEP.FT                 0.1000: 
NULL.                -999.2500: 
COMP.          Pioneer Natural Resources: COMPANY
WELL.           Quintessa 23-7: WELL
FLD.           Purgatoire River: FIELD
LOC.           1964' FSL & 2589' FWL--: LOCATION
PROV.                 Colorado: PROVINCE
CNTY.               Las Animas: COUNTRY
SRVC.                Patterson: SERVICE COMPANY
DATE.          Sat Nov 19 09:15:07 2005: LOG DATE
UWI.           05 071 08558 00: UNIQUE WELL ID
~Curve Information Block
DEPT.FT            0 000 00 00: Depth
DCAL.in                       : CDL Caliper
RHOB.g/cc                     : CDL Bulk Density
RHOC.g/cc                     : CDL Density Correction
DPOR.pu                       : CDL Density Porosity
NPOR.pu                       : Neutron Porosity
GR.GAPI                       : Gamma Ray
~Parameter Information Block
~A  Depth       DCAL        RHOB        RHOC        DPOR        NPOR         GR     
# ...
   624.8000      7.9592      2.4069      0.0466     14.7361     23.3388    109.2483
   624.9000      7.9592      2.3941      0.0402     15.5107     23.1044    103.2320
   625.0000      7.9591      2.3865      0.0131     15.9727     22.8038    103.6534
   625.1000      7.9591      2.3939      0.0469     15.5215     22.1673    102.6383
   625.2000      7.9591      2.4065      0.0475     14.7566     21.5167     97.2680
   625.3000      7.9581      2.4088      0.0374     14.6189     21.2300     91.9741
   625.4000      7.9581      2.3985      0.0327     15.2448     21.3105     88.1591
   625.5000      7.9577      2.3825      0.0243     16.2109     21.6320     83.9707
   625.6000      7.9577      2.3653      0.0075     17.2523     22.0554     82.1110
   625.7000      7.9577      2.3530     -0.0064     17.9980     22.3399     84.4981
   625.8000      7.9572      2.3595     -0.0187     17.6045     22.3655     85.5542
   625.9000      7.9572      2.3873      0.0296     15.9203     22.2128     84.3401
   626.0000      7.9531      2.4132      0.0567     14.3518     22.1665     84.8906
   626.1000      7.9531      2.4184      0.0533     14.0357     22.4534     87.5370
   626.2000      7.9531      2.4171      0.0325     14.1138     22.8474     94.4273
   626.3000      7.9449      2.4297      0.0444     13.3516     23.0409    106.2895
   626.4000      7.9449      2.4495      0.0684     12.1537     23.2518    113.6375
   626.5000      7.9396      2.4625      0.0221     11.3640     23.5787    105.7697
   626.6000      7.9396      2.4684      0.0702     11.0088     23.5231     91.4190
   626.7000      7.9396      2.4618      0.0905     11.4053     22.9956     88.5261
   626.8000      7.9375      2.4408      0.0520     12.6776     22.3092     95.5124
   626.9000      7.9375      2.4204      0.0386     13.9129     21.5938     94.6805
   627.0000      7.9358      2.4059      0.0634     14.7932     20.9103     83.9578
   627.1000      7.9358      2.3934      0.0330     15.5516     20.3536     76.4694
   627.2000      7.9358      2.3895      0.0228     15.7890     20.1065     76.1403
   627.3000      7.9342      2.3933      0.0232     15.5587     20.1671     80.3445
   627.4000      7.9342      2.3997     -0.0111     15.1686     20.5499     88.9640
   627.5000      7.9323      2.4149      0.0367     14.2490     21.3130     97.0555
   627.6000      7.9323      2.4351      0.0529     13.0243     22.1816     96.7160
   627.7000      7.9323      2.4465      0.0548     12.3329     22.6699     92.8486
   627.8000      7.9319      2.4446      0.0536     12.4485     22.5857     94.9010
   627.9000      7.9319      2.4364      0.0440     12.9436     21.9771     99.3445
   628.0000      7.9345      2.4308      0.0404     13.2857     21.1513    102.4615
   628.1000      7.9345      2.4282      0.0513     13.4428     20.9458    106.3383
   628.2000      7.9345      2.4256      0.0101     13.6010     21.6949    107.6337
   628.3000      7.9389      2.4245      0.0317     13.6675     22.5830    103.7018
   628.4000      7.9389      2.4295      0.0209     13.3612     22.6774     96.5929
   628.5000      7.9441      2.4428      0.0181     12.5550     21.8232     89.6927
   628.6000      7.9441      2.4530      0.0759     11.9410     20.7901     84.8532
   628.7000      7.9441      2.4488      0.0383     12.1952     20.5548     81.4318
   628.8000      7.9507      2.4408      0.0278     12.6817     20.9969     80.3393
   628.9000      7.9507      2.4360      0.0255     12.9682     21.2055     82.2153
   629.0000      7.9566      2.4209      0.0591     13.8827     21.0806     84.7272
   629.1000      7.9566      2.3976     -0.0144     15.2946     21.1910     85.2413
   629.2000      7.9566      2.3947      0.0082     15.4710     21.5735     84.6536
   629.3000      7.9589      2.4155      0.0367     14.2092     21.9390     86.8042
   629.4000      7.9589      2.4333      0.0593     13.1350     21.9502     93.5994
   629.5000      7.9594      2.4360      0.0361     12.9669     21.5694    102.2073
   629.6000      7.9594      2.4371      0.0321     12.9043     21.4475    106.0372
   629.7000      7.9594      2.4469      0.0327     12.3090     21.9155    101.2886
   629.8000      7.9582      2.4551      0.0597     11.8125     22.3799     91.7377
   629.9000      7.9582      2.4462      0.0482     12.3505     22.4574     85.0962
   630.0000      7.9553      2.4255      0.0090     13.6059     22.3154     85.9254
   630.1000      7.9553      2.4093      0.0262     14.5904     21.8565     89.9455
   630.2000      7.9553      2.4041      0.0094     14.9031     21.2772     91.3494
   630.3000      7.9516      2.4093      0.0180     14.5905     20.8346     92.7994
   630.4000      7.9516      2.4228      0.0190     13.7720     20.2458     95.8087
   630.5000      7.9474      2.4386      0.0295     12.8109     19.8395     95.3290
   630.6000      7.9474      2.4465      0.0249     12.3303     20.1582     91.7254
   630.7000      7.9474      2.4460      0.0473     12.3655     20.8276     91.6318
   630.8000      7.9458      2.4461      0.0405     12.3588     21.3399     94.2146
   630.9000      7.9458      2.4482      0.0543     12.2307     21.5482     94.3958
   631.0000      7.9449      2.4414      0.0501     12.6425     21.4125     92.7414
   631.1000      7.9449      2.4263      0.0058     13.5558     21.1605     91.3734
   631.2000      7.9449      2.4164      0.0210     14.1571     20.8718     92.9238
   631.3000      7.9472      2.4150     -0.0026     14.2451     20.3434     97.6451
   631.4000      7.9472      2.4190      0.0169     14.0005     19.7411    103.3508
   631.5000      7.9539      2.4250      0.0176     13.6389     19.6940    106.3292
   631.6000      7.9539      2.4251      0.0261     13.6332     20.3729    103.0715
   631.7000      7.9539      2.4166      0.0212     14.1469     21.3035     98.5337
   631.8000      7.9595      2.4075      0.0205     14.6951     21.9746     98.9548
   631.9000      7.9595      2.4046      0.0173     14.8753     22.4289    100.8440
   632.0000      7.9622      2.4054      0.0217     14.8265     22.7442     98.5969
   632.1000      7.9622      2.4088      0.0372     14.6194     22.6168     93.8948
   632.2000      7.9622      2.4178      0.0478     14.0726     22.1409     93.2028
   632.3000      7.9629      2.4278      0.0312     13.4666     21.6797    100.6553
   632.4000      7.9629      2.4255      0.0539     13.6034     21.5141    107.3286
   632.5000      7.9609      2.4073      0.0352     14.7121     21.6926    102.6466
   632.6000      7.9609      2.3889      0.0031     15.8222     21.9264     97.3348
   632.7000      7.9609      2.3828      0.0114     16.1941     22.1285    102.4499
   632.8000      7.9570      2.3804      0.0367     16.3420     22.2698    109.0588
   632.9000      7.9570      2.3760      0.0152     16.6040     22.2569    109.4419
   633.0000      7.9528      2.3766      0.0378     16.5725     22.3402    107.5802
   633.1000      7.9528      2.3800      0.0373     16.3651     22.5165    108.5119
   633.2000      7.9528      2.3793      0.0107     16.4073     22.3391    111.4651
   633.3000      7.9461      2.3754      0.0192     16.6441     21.7603    112.8133
   633.4000      7.9461      2.3757      0.0182     16.6257     21.4433    111.0126
   633.5000      7.9405      2.3910      0.0195     15.6967     21.7460    106.3170
   633.6000      7.9405      2.4211      0.0584     13.8736     22.2313     99.0345
   633.7000      7.9405      2.4461      0.1067     12.3571     22.4347     90.9217
   633.8000      7.9418      2.4507      0.0794     12.0785     22.4100     86.5764
   633.9000      7.9418      2.4419      0.0512     12.6108     22.5759     84.6388
   634.0000      7.9463      2.4342      0.0448     13.0764     22.9191     81.9166
   634.1000      7.9463      2.4358      0.0423     12.9817     22.9953     82.1056
   634.2000      7.9463      2.4469      0.0343     12.3074     22.6192     86.1279
   634.3000      7.9532      2.4596      0.0474     11.5395     21.9278     87.6380
