~Version Information
VERS.                      2.0: CWLS Log ASCII Standard - VERSION 2.0
WRAP.                       NO: One line per depth step
~Well Information Block
STRT.FT                -7.7500: 
STOP.FT              1793.5000: 
STEP.FT                 0.2500: 
NULL.                -999.2500: 
COMP.          Pioneer Natural Resources: COMPANY
WELL.           Loews 41-32 Tr: WELL
FLD.           Purgatorie River: FIELD
LOC.           706' FNL & 224' FEL--: LOCATION
CNTY.               Las Animas: COUNTY
SRVC.          Patterson Wireline: SERVICE COMPANY
DATE.          Fri Feb 24 11:31:48 2006: LOG DATE
UWI.           05 071 08690 00: UNIQUE WELL ID
STAT.                       CO: STATE
~Curve Information Block
DEPT.FT            0 000 00 00: Depth
CCL.                          : Casing Collar Locator
TT3.usec                      : CBL 3' Travel Time
AMP3.mV                       : CBL 3' Amplitude
GR.GAPI                       : Gamma Ray
~Parameter Information Block
~A  Depth       CCL         TT3         AMP3         GR     
# ...
   695.7500      0.0000    737.1981     16.4597     65.1425
   696.0000      0.0000    743.0467     16.4610     65.1898
   696.2500      0.0000    756.1518     16.5472     66.6078
   696.5000      0.0000    777.7614     16.6922     69.9580
   696.7500      0.0000    800.1651     16.8519     74.9838
   697.0000      0.0000    804.0482     16.9925     80.5511
   697.2500      0.0000    769.9548     17.1031     84.9505
   697.5000      0.0000    699.5506     17.1860     86.8302
   697.7500      0.0000    623.0229     17.2420     86.4398
   698.0000      0.0000    578.7002     17.2707     85.7302
   698.2500      0.0000    584.5526     17.2763     86.7086
   698.5000      0.0000    631.1371     17.2674     89.7417
   698.7500      0.0000    696.5644     17.2539     93.6548
   699.0000      0.0000    760.6180     17.2443     97.1365
   699.2500      0.0000    807.9313     17.2415     99.6822
   699.5000      0.0000    829.3768     17.2383    101.4129
   699.7500      0.0000    825.8325     17.2253    102.5641
   700.0000      0.0000    807.4660     17.2033    103.4021
   700.2500      0.0000    786.3914     17.1818    104.3703
   700.5000      0.0000    769.5721     17.1677    105.9216
   700.7500      0.0000    757.9438     17.1612    108.0027
   701.0000      0.0000    750.3432     17.1607    109.7880
   701.2500      0.0000    746.6345     17.1619    110.1222
   701.5000      0.0000    747.5302     17.1512    108.4293
   701.7500      0.0000    752.8361     17.1105    105.3047
   702.0000      0.0000    761.0066     17.0375    102.0865
   702.2500      0.0000    770.4858     16.9563     99.7709
   702.5000      0.0000    781.0692     16.9039     98.3975
   702.7500      0.0000    793.0226     16.9089     97.3023
   703.0000      0.0000    804.3469     16.9833     95.7065
   703.2500      0.0000    809.3382     17.1270     93.3746
   703.5000      0.0000    801.5273     17.3333     91.0048
   703.7500      0.0000    780.0361     17.5835     89.5942
   704.0000      0.0000    752.8438     17.8358     89.1496
   704.2500      0.0000    731.3064     18.0309     88.4910
   704.5000      0.0000    721.3641     18.1200     86.5999
   704.7500      0.0000    722.8817     18.0879     83.7723
   705.0000      0.0000    734.7657     17.9474     81.3950
   705.2500      0.0000    754.2153     17.7231     81.0636
   705.5000      0.0000    773.4197     17.4468     83.8134
   705.7500      0.0000    784.1985     17.1569     89.4963
   706.0000      0.0000    785.1395     16.8891     96.8227
   706.2500      0.0000    780.5916     16.6688    104.5021
   706.5000      0.0000    774.4965     16.5117    112.3361
   706.7500      0.0000    767.7239     16.4233    120.8739
   707.0000      0.0000    759.9462     16.3922    130.0589
   707.2500      0.0000    751.7134     16.3908    138.4806
   707.5000      0.0000    744.4735     16.3916    144.0339
   707.7500      0.0000    739.3405     16.3818    145.3271
   708.0000      0.0000    736.3392     16.3638    142.6064
   708.2500      0.0000    734.7950     16.3466    137.6188
   708.5000      0.0000    734.0423     16.3378    132.6286
   708.7500      0.0000    733.7773     16.3382    129.0429
   709.0000      0.0000    734.0759     16.3407    126.7179
   709.2500      0.0000    735.3658     16.3349    124.7464
   709.5000      0.0000    738.3677     16.3164    122.6416
   709.7500      0.0000    743.7276     16.2901    120.4256
   710.0000      0.0000    751.2599     16.2612    118.2536
   710.2500      0.0000    759.4202     16.2265    116.6186
   710.5000      0.0000    765.7678     16.1768    116.5009
   710.7500      0.0000    768.1693     16.1084    118.6489
   711.0000      0.0000    765.7862     16.0271    122.7290
   711.2500      0.0000    759.4047     15.9448    127.5010
   711.5000      0.0000    751.1362     15.8745    131.7668
   711.7500      0.0000    743.4180     15.8293    134.9447
   712.0000      0.0000    737.7376     15.8148    136.8718
   712.2500      0.0000    733.8729     15.8208    137.3137
   712.5000      0.0000    729.7604     15.8281    135.8065
   712.7500      0.0000    721.4516     15.8375    132.0885
   713.0000      0.0000    703.9432     15.8905    126.6228
   713.2500      0.0000    674.7516     16.0525    120.3760
   713.5000      0.0000    638.5875     16.3666    114.0250
   713.7500      0.0000    605.6130     16.8227    107.7757
   714.0000      0.0000    580.3102     17.3686    102.1483
   714.2500      0.0000    553.5179     17.9469     98.3329
   714.5000      0.0000    511.6116     18.5151     97.1454
   714.7500      0.0000    453.7100     19.0403     97.8030
   715.0000      0.0000    394.4276     19.4862     98.2989
   715.2500      0.0000    349.6393     19.8139     97.1783
   715.5000      0.0000    324.2546     20.0001     94.8841
   715.7500      0.0000    313.3507     20.0597     93.3618
   716.0000      0.0000    309.8015     20.0476     94.4472
   716.2500      0.0000    308.9160     20.0267     98.5910
   716.5000      0.0000    308.7332     20.0237    104.7951
   716.7500      0.0000    308.8029     20.0204    111.4168
   717.0000      0.0000    309.4134     19.9860    117.0530
   717.2500      0.0000    311.4913     19.9098    120.9912
   717.5000      0.0000    316.7072     19.8038    123.1572
   717.7500      0.0000    326.7287     19.6861    123.7700
   718.0000      0.0000    341.1402     19.5727    123.1216
   718.2500      0.0000    355.7129     19.4763    121.5736
   718.5000      0.0000    364.1999     19.4001    119.5011
   718.7500      0.0000    363.4180     19.3304    117.1893
   719.0000      0.0000    356.2425     19.2441    114.8157
   719.2500      0.0000    348.8036     19.1288    112.3745
   719.5000      0.0000    345.6108     18.9898    109.5736
   719.7500      0.0000    348.4706     18.8373    105.9262
   720.0000      0.0000    359.5576     18.6750    100.8799
   720.2500      0.0000    383.5365     18.5077     93.9824
   720.5000      0.0000    423.7132     18.3555     85.5977
   720.7500      0.0000    473.7028     18.2567     77.5416
   721.0000      0.0000    514.4706     18.2574     72.1207
   721.2500      0.0000    524.8996     18.3869     70.1658
   721.5000      0.0000    498.2855     18.6339     70.4630
   721.7500      0.0000    447.3851     18.9457     71.0965
   722.0000      0.0000    393.4453     19.2579     70.9359
   722.2500      0.0000    351.9207     19.5288     70.0340
   722.5000      0.0000    327.0042     19.7472     69.1330
   722.7500      0.0000    315.0880     19.9140     68.7944
   723.0000      0.0000    310.6298     20.0238     68.7957
   723.2500      0.0000    309.9543     20.0591     68.3398
   723.5000      0.0000    312.5072     19.9897     66.7572
   723.7500      0.0000    320.7994     19.7733     64.0685
   724.0000      0.0000    338.9477     19.3668     61.1399
   724.2500      0.0000    368.9129     18.7590     59.1792
   724.5000      0.0000    407.0771     17.9975     58.6187
   724.7500      0.0000    447.0197     17.1496     58.5197
   725.0000      0.0000    486.7041     16.2205     57.5002
   725.2500      0.0000    528.9910     15.1717     55.3506
   725.5000      0.0000    573.5685     14.0574     53.3639
   725.7500      0.0000    613.7179     13.0688     52.8527
   726.0000      0.0000    642.8489     12.3844     53.6117
   726.2500      2.0000    659.4602     12.0186     54.1606
   726.5000     -2.0000    664.8666     11.8502     53.4299
   726.7500     -2.0000    660.8430     11.7542     51.9483
   727.0000      0.0000    650.2397     11.6877     51.3108
   727.2500      0.0000    636.8002     11.7025     52.5866
   727.5000      0.0000    622.6185     11.9122     55.2964
   727.7500      0.0000    606.0203     12.4171     57.8623
   728.0000      0.0000    584.0062     13.2174     58.9524
   728.2500      0.0000    559.2839     14.1798     58.3906
   728.5000      0.0000    543.6975     15.0813     56.9819
   728.7500      0.0000    550.5873     15.7133     55.7679
   729.0000      0.0000    582.8550     15.9957     55.4341
