~Version Information
VERS.                      2.0: CWLS Log ASCII Standard - VERSION 2.0
WRAP.                       NO: One line per depth step
~Well Information Block
STRT.FT                31.2500: 
STOP.FT               700.7500: 
STEP.FT                 0.2500: 
NULL.                -999.2500: 
COMP.          XTO Energy Inc.: COMPANY
WELL.          Golden Eagle 20-14: WELL
FLD.           Purgatrorie River: FIELD
LOC.           587' FSL & 2478' FWL--: LOCATION
STAT.                       CO: State
CNTY.               Las Animas: COUNTY
CTRY. USA : Country
SECT. 20 : Section
TOWN. 33S : Township
RANG. 67W : Range
SRVC.          Patterson Wireline: SERVICE COMPANY
DATE.          Sat Dec 10 15:54:00 2005: LOG DATE
API.           05 071 08614 00: UNIQUE WELL ID
~Curve Information Block
DEPT.FT            0 000 00 00: Depth
CCL.                          : Casing Collar Locator
TT3.usec                      : CBL 3' Travel Time
AMP3.mV                       : CBL 3' Amplitude
GR.GAPI                       : Gamma Ray
~Parameter Information Block
~A  Depth       CCL         TT3         AMP3         GR     
# ...
   500.2500      0.0000    690.2208      5.2874     75.5351
   500.5000      0.0000    689.7368      5.2694     76.1348
   500.7500      0.0000    689.3931      5.3897     77.5037
   501.0000      0.0000    689.2050      5.7481     79.9556
   501.2500      0.0000    689.0446      6.2683     82.8257
   501.5000      0.0000    688.8667      6.7501     84.7071
   501.7500      0.0000    688.7264      7.0455     84.6905
   502.0000      0.0000    688.6801      7.1484     83.4656
   502.2500      0.0000    688.7260      7.1316     82.8457
   502.5000      0.0000    688.8188      7.0557     83.8941
   502.7500      0.0000    688.9076      6.9445     85.7401
   503.0000      0.0000    688.9586      6.8083     86.5383
   503.2500      0.0000    688.9646      6.6622     85.3516
   503.5000      0.0000    688.9482      6.5254     82.7456
   503.7500      0.0000    688.9440      6.4107     79.7952
   504.0000      0.0000    688.9649      6.3177     77.1485
   504.2500      0.0000    688.9839      6.2358     75.0714
   504.5000      0.0000    688.9548      6.1524     73.7454
   504.7500      0.0000    688.8505      6.0575     73.1577
   505.0000      0.0000    688.6821      5.9437     73.0025
   505.2500      0.0000    688.4858      5.8087     72.9664
   505.5000      0.0000    688.3004      5.6610     72.9621
   505.7500      0.0000    688.1564      5.5199     72.9115
   506.0000      0.0000    688.0729      5.4078     72.4752
   506.2500      0.0000    688.0474      5.3398     71.3622
   506.5000      0.0000    688.0508      5.3168     70.0200
   506.7500      0.0000    688.0438      5.3279     69.6151
   507.0000      0.0000    688.0093      5.3600     70.9010
   507.2500      0.0000    687.9678      5.4069     73.3793
   507.5000      0.0000    687.9560      5.4677     76.0196
   507.7500      0.0000    687.9888      5.5382     78.3597
   508.0000      0.0000    688.0448      5.6067     80.4140
   508.2500      0.0000    688.0863      5.6607     82.1009
   508.5000      0.0000    688.0937      5.6948     83.5955
   508.7500      0.0000    688.0809      5.7140     85.8589
   509.0000      0.0000    688.0808      5.7291     89.6901
   509.2500      0.0000    688.1187      5.7505     94.1313
   509.5000      0.0000    688.2027      5.7807     96.8538
   509.7500      0.0000    688.3347      5.8109     96.4150
   510.0000      0.0000    688.5194      5.8282     93.3716
   510.2500      0.0000    688.7549      5.8281     89.3737
   510.5000      0.0000    689.0195      5.8181     86.2734
   510.7500      0.0000    689.2736      5.8106     85.8647
   511.0000      0.0000    689.4780      5.8113     88.9291
   511.2500      0.0000    689.6102      5.8147     94.0534
   511.5000      0.0000    689.6688      5.8068     98.2514
   511.7500      0.0000    689.6646      5.7739     99.2754
   512.0000      0.0000    689.6075      5.7118     97.0741
   512.2500      0.0000    689.4993      5.6264     92.9439
   512.5000      0.0000    689.3320      5.5237     87.9767
   512.7500      0.0000    689.0711      5.4040     82.8525
   513.0000      0.0000    688.6161      5.2713     78.6666
   513.2500      0.0000    687.7394      5.1451     77.0525
   513.5000      0.0000    686.1119      5.0543     79.0020
   513.7500      0.0000    683.5508      5.0174     83.6328
   514.0000      0.0000    680.4053      5.0291     88.4418
   514.2500      0.0000    677.6620      5.0673     90.8760
   514.5000      0.0000    676.4724      5.1086     89.6519
   514.7500      0.0000    677.3961      5.1376     84.9321
   515.0000      0.0000    679.9783      5.1457     77.9092
   515.2500      0.0000    683.0383      5.1278     70.3220
   515.5000      0.0000    685.4627      5.0815     63.7695
   515.7500      0.0000    686.8139      5.0095     59.1956
   516.0000      0.0000    687.3007      4.9233     57.0220
   516.2500      0.0000    687.3627      4.8436     57.3068
   516.5000      0.0000    687.3499      4.7916     59.2945
   516.7500      0.0000    687.4315      4.7755     61.2876
   517.0000      0.0000    687.6263      4.7820     61.7787
   517.2500      0.0000    687.8543      4.7852     60.8455
   517.5000      0.0000    688.0038      4.7651     60.1861
   517.7500      0.0000    687.9926      4.7216     61.7745
   518.0000      0.0000    687.8076      4.6731     66.4391
   518.2500      0.0000    687.4993      4.6418     73.5592
   518.5000      0.0000    687.1417      4.6387     81.9264
   518.7500      0.0000    686.7957      4.6617     90.4929
   519.0000      0.0000    686.5054      4.7052     98.1678
   519.2500      0.0000    686.3138      4.7665    103.6522
   519.5000      0.0000    686.2659      4.8427    106.5769
   519.7500      0.0000    686.3808      4.9216    108.6848
   520.0000      0.0000    686.6119      4.9790    112.6953
   520.2500      0.0000    686.8455      4.9895    119.5962
   520.5000      0.0000    686.9319      4.9540    127.5795
   520.7500      0.0000    686.6984      4.9208    133.6065
   521.0000      0.0000    685.9090      4.9634    135.5530
   521.2500      0.0000    684.3176      5.1229    133.3575
   521.5000      0.0000    681.9700      5.3706    129.1821
   521.7500      0.0000    679.4796      5.6331    126.5810
   522.0000      0.0000    677.6360      5.8487    128.6494
   522.2500      0.0000    676.4659      5.9962    136.2649
   522.5000      0.0000    675.0995      6.0815    147.5753
   522.7500      0.0000    673.0938      6.1115    158.7542
   523.0000      0.0000    671.5440      6.0871    165.5228
   523.2500      0.0000    672.1603      6.0240    165.1476
   523.5000      0.0000    675.3183      5.9716    158.2562
   523.7500      0.0000    679.6075      5.9907    148.8724
   524.0000      0.0000    683.2581      6.0990    141.8006
   524.2500      0.0000    685.4990      6.2410    139.4300
   524.5000      0.0000    686.5712      6.3170    141.0322
   524.7500      0.0000    687.0057      6.2444    144.5270
   525.0000      0.0000    687.1486      5.9979    148.0749
   525.2500      0.0000    687.1511      5.6050    150.4959
   525.5000      0.0000    687.1024      5.1176    151.4601
   525.7500      0.0000    687.0761      4.5919    151.3974
   526.0000      0.0000    687.0983      4.0829    150.5700
   526.2500      0.0000    687.1255      3.6426    148.4938
   526.5000      0.0000    687.0671      3.3100    144.7264
   526.7500      0.0000    686.8378      3.0939    139.7617
   527.0000      0.0000    686.4221      2.9694    134.8070
   527.2500      0.0000    685.8755      2.8951    131.0771
   527.5000      0.0000    685.2192      2.8399    129.1582
   527.7500      0.0000    684.3087      2.7948    128.3424
   528.0000      0.0000    682.8872      2.7671    126.6312
   528.2500      0.0000    680.9510      2.7720    122.1524
   528.5000      0.0000    679.1288      2.8328    114.9876
   528.7500      0.0000    678.4402      2.9856    107.4979
   529.0000      0.0000    679.4009      3.2728    102.7532
   529.2500      0.0000    681.4860      3.7170    102.5245
   529.5000      0.0000    683.6501      4.2875    106.3878
   529.7500      0.0000    685.1993      4.8848    112.3837
   530.0000      0.0000    686.0535      5.3692    118.4811
   530.2500      0.0000    686.4505      5.6262    123.6418
   530.5000      0.0000    686.6417      5.6235    127.9322
   530.7500      0.0000    686.7778      5.4096    132.0632
   531.0000      0.0000    686.9041      5.0612    136.7439
   531.2500      0.0000    687.0046      4.6358    141.9513
   531.5000      0.0000    687.0746      4.1688    146.5779
   531.7500      0.0000    687.1616      3.7030    148.9440
   532.0000      0.0000    687.3416      3.2987    147.6597
   532.2500      0.0000    687.6752      3.0029    142.1280
   532.5000      0.0000    688.2303      2.8165    132.7261
   532.7500      0.0000    689.1837      2.7110    120.7762
   533.0000      0.0000    690.7884      2.6702    108.1644
   533.2500      0.0000    692.9967      2.6981     96.8266
   533.5000      0.0000    695.0400      2.7883     88.5200
