~Version Information
VERS.                      2.0: CWLS Log ASCII Standard - VERSION 2.0
WRAP.                       NO: One line per depth step
~Well Information Block
STRT.FT                 0.0000: 
STOP.FT              1906.7500: 
STEP.FT                 0.2500: 
NULL.                -999.2500: 
COMP.          Petrogulf Corporation: COMPANY
WELL.             Kraft 17-23R: WELL
FLD.           Purgatorie River: FIELD
LOC.           1509' FSL & 1673' FWL: LOCATION
STAT.                 Colorado: State
CNTY.               Las Animas: COUNTY
CTRY. USA : Country
SECT. 17 : Section
TOWN. 33S : Township
RANG. 67W : Range
SRVC.                Patterson: SERVICE COMPANY
DATE.          Fri Jan 06 08:59:54 2006: LOG DATE
API. 05-071-08560                         : UNIQUE WELL ID
~Curve Information Block
DEPT.FT            0 000 00 00: Depth
CCL.                          : Casing Collar Locator
TT3.usec                      : CBL 3' Travel Time
AMP3.mV                       : CBL 3' Amplitude
AMP3.mV                       : CBL 3' Amplitude
GR.GAPI                       : Gamma Ray
AMP3.mV                       : CBL 3' Amplitude
~Parameter Information Block
~A  Depth       CCL         TT3         AMP3        AMP3         GR        .AMP3    
# ...
  1752.0000      0.0000    732.2189      2.4905      2.4905    123.0800      2.4905
  1752.2500      0.0000    734.8386      2.6258      2.6258    125.3389      2.6258
  1752.5000      0.0000    737.5316      2.7526      2.7526    126.6439      2.7526
  1752.7500      0.0000    747.1851      2.8347      2.8347    126.7237      2.8347
  1753.0000      0.0000    759.2964      2.8464      2.8464    125.4186      2.8464
  1753.2500      0.0000    764.5946      2.7837      2.7837    123.3544      2.7837
  1753.5000      0.0000    758.5341      2.6829      2.6829    121.9982      2.6829
  1753.7500      0.0000    742.9633      2.6263      2.6263    122.5025      2.6263
  1754.0000      0.0000    722.0080      2.6943      2.6943    124.5950      2.6943
  1754.2500      0.0000    699.9240      2.9222      2.9222    126.9120      2.9222
  1754.5000      0.0000    683.0391      3.2861      3.2861    128.3587      3.2861
  1754.7500      0.0000    678.8583      3.7043      3.7043    128.9591      3.7043
  1755.0000      0.0000    689.9564      4.1011      4.1011    129.4137      4.1011
  1755.2500      0.0000    709.0429      4.4451      4.4451    130.0410      4.4451
  1755.5000      0.0000    721.6680      4.6874      4.6874    130.1469      4.6874
  1755.7500      0.0000    717.1381      4.7510      4.7510    128.3341      4.7510
  1756.0000      0.0000    699.3704      4.6270      4.6270    123.5898      4.6270
  1756.2500      0.0000    683.8531      4.4225      4.4225    116.3273      4.4225
  1756.5000      0.0000    681.3621      4.2607      4.2607    108.3337      4.2607
  1756.7500      0.0000    689.7869      4.1763      4.1763    101.6897      4.1763
  1757.0000      0.0000    700.6690      4.1631      4.1631     97.8639      4.1631
  1757.2500      0.0000    707.5453      4.2350      4.2350     97.4951      4.2350
  1757.5000      0.0000    709.0133      4.3987      4.3987    100.2624      4.3987
  1757.7500      0.0000    704.6700      4.5832      4.5832    104.8159      4.5832
  1758.0000      0.0000    692.0941      4.6261      4.6261    109.3624      4.6261
  1758.2500      0.0000    677.2753      4.4502      4.4502    112.5673      4.4502
  1758.5000      0.0000    677.9555      4.2386      4.2386    113.9229      4.2386
  1758.7500      0.0000    703.3536      4.2857      4.2857    113.7221      4.2857
  1759.0000      0.0000    739.4520      4.6582      4.6582    113.1079      4.6582
  1759.2500      0.0000    761.3405      5.1264      5.1264    113.8374      5.1264
  1759.5000     -2.0000    760.2956      5.4604      5.4604    117.2799      5.4604
  1759.7500      0.0000    751.7910      5.6349      5.6349    123.2820      5.6349
  1760.0000      2.0000    748.9749      5.6966      5.6966    130.0919      5.6966
  1760.2500      0.0000    743.2199      5.6129      5.6129    135.4849      5.6129
  1760.5000      0.0000    723.1294      5.3717      5.3717    137.9007      5.3717
  1760.7500      0.0000    694.9863      5.1219      5.1219    136.7968      5.1219
  1761.0000      0.0000    673.2975      5.0215      5.0215    132.6489      5.0215
  1761.2500      0.0000    663.6025      5.0160      5.0160    126.9990      5.0160
  1761.5000      0.0000    662.0416      4.9578      4.9578    121.9032      4.9578
  1761.7500      0.0000    664.4332      4.7618      4.7618    118.7461      4.7618
  1762.0000      0.0000    669.7939      4.3817      4.3817    117.7757      4.3817
  1762.2500      0.0000    675.5394      3.8914      3.8914    118.7757      3.8914
  1762.5000      0.0000    672.8167      3.4841      3.4841    121.5233      3.4841
  1762.7500      0.0000    652.0858      3.2539      3.2539    125.3549      3.2539
  1763.0000      0.0000    610.8488      3.1466      3.1466    128.8794      3.1466
  1763.2500      0.0000    553.6915      3.1041      3.1041    130.6787      3.1041
  1763.5000      0.0000    493.7195      3.1133      3.1133    130.6128      3.1133
  1763.7500      0.0000    448.9658      3.1585      3.1585    130.3389      3.1585
  1764.0000      0.0000    428.5228      3.2076      3.2076    131.9127      3.2076
  1764.2500      0.0000    432.0500      3.2291      3.2291    135.5585      3.2291
  1764.5000      0.0000    461.0432      3.2068      3.2068    139.4362      3.2068
  1764.7500      0.0000    514.7576      3.1479      3.1479    141.7785      3.1479
  1765.0000      0.0000    576.1909      3.0792      3.0792    142.5447      3.0792
  1765.2500      0.0000    618.4434      3.0222      3.0222    142.9287      3.0222
  1765.5000      0.0000    628.0348      2.9421      2.9421    143.9237      2.9421
  1765.7500      0.0000    615.7707      2.7755      2.7755    145.3181      2.7755
  1766.0000      0.0000    607.5380      2.5461      2.5461    145.5090      2.5461
  1766.2500      0.0000    620.0372      2.3716      2.3716    142.3207      2.3716
  1766.5000      0.0000    646.4490      2.3271      2.3271    134.3372      2.3271
  1766.7500      0.0000    672.3068      2.3603      2.3603    121.5708      2.3603
  1767.0000      0.0000    690.6688      2.3623      2.3623    105.2649      2.3623
  1767.2500      0.0000    699.8917      2.2955      2.2955     87.5447      2.2955
  1767.5000      0.0000    700.3276      2.2224      2.2224     70.9707      2.2224
  1767.7500      0.0000    693.6492      2.2124      2.2124     57.6361      2.2124
  1768.0000      0.0000    682.8964      2.2546      2.2546     48.4439      2.2546
  1768.2500      0.0000    672.1138      2.2662      2.2662     43.3027      2.2662
  1768.5000      0.0000    664.4865      2.1866      2.1866     41.7375      2.1866
  1768.7500      0.0000    660.6882      2.0481      2.0481     42.9458      2.0481
  1769.0000      0.0000    659.2667      1.9461      1.9461     45.5031      1.9461
  1769.2500      0.0000    658.3632      1.9504      1.9504     47.5347      1.9504
  1769.5000      0.0000    656.5279      2.0274      2.0274     47.4911      2.0274
  1769.7500      0.0000    652.3192      2.0628      2.0628     45.0538      2.0628
  1770.0000      0.0000    644.5709      1.9986      1.9986     41.5217      1.9986
  1770.2500      0.0000    634.3057      1.9050      1.9050     39.2126      1.9050
  1770.5000      0.0000    624.9761      1.8875      1.8875     40.1065      1.8875
  1770.7500      0.0000    619.6299      1.9694      1.9694     44.7237      1.9694
  1771.0000      0.0000    620.6295      2.0746      2.0746     52.0973      2.0746
  1771.2500      0.0000    630.4444      2.1000      2.1000     60.7751      2.1000
  1771.5000      0.0000    647.3722      2.0055      2.0055     69.9403      2.0055
  1771.7500      0.0000    664.0914      1.8435      1.8435     79.6126      1.8435
  1772.0000      0.0000    674.4789      1.7084      1.7084     89.7280      1.7084
  1772.2500      0.0000    678.5924      1.6644      1.6644     99.1123      1.6644
  1772.5000      0.0000    681.1300      1.7092      1.7092    105.5175      1.7092
  1772.7500      0.0000    686.6099      1.7853      1.7853    106.8744      1.7853
  1773.0000      0.0000    692.1371      1.8272      1.8272    102.7025      1.8272
  1773.2500      0.0000    688.1739      1.8149      1.8149     94.3851      1.8149
  1773.5000      0.0000    673.4941      1.7639      1.7639     84.3717      1.7639
  1773.7500      0.0000    658.9587      1.6621      1.6621     75.4145      1.6621
  1774.0000      0.0000    651.5521      1.5001      1.5001     70.0518      1.5001
  1774.2500      0.0000    650.1841      1.3420      1.3420     69.8113      1.3420
  1774.5000      0.0000    654.5549      1.2623      1.2623     74.3968      1.2623
  1774.7500      0.0000    663.6764      1.2576      1.2576     81.8063      1.2576
  1775.0000      0.0000    672.4447      1.2906      1.2906     89.4275      1.2906
  1775.2500      0.0000    676.9132      1.3433      1.3433     95.0961      1.3433
  1775.5000      0.0000    677.0669      1.3926      1.3926     97.4470      1.3926
  1775.7500      0.0000    673.8788      1.4060      1.4060     95.9010      1.4060
