~Version Information
VERS.                      2.0: CWLS Log ASCII Standard - VERSION 2.0
WRAP.                       NO: One line per depth step
~Well Information Block
STRT.FT                -7.5000: 
STOP.FT              1350.7500: 
STEP.FT                 0.2500: 
NULL.                -999.2500: 
COMP.          Pioneer Natural Resources: COMPANY
WELL.            Gamma 13-3 Tr: WELL
FLD.           Purgatorie River: FIELD
LOC.           2127' FSL & 738' FWL: LOCATION
STAT.                       CO: State
CNTY.               Las Animas: COUNTY
CTRY.                      USA: Country
SECT.                        3: Section
TOWN.                      33S: Township
RANG.                      67W: Range
SRVC.          Patterson Wireline: SERVICE COMPANY
DATE.          Fri Sep 23 13:24:40 2005: LOG DATE
API.           05 071 08524 00: API
~Curve Information Block
DEPT.FT            0 000 00 00: Depth
CCL.                          : Casing Collar Locator
TT3.usec                      : CBL 3' Travel Time
AMP3.mV                       : CBL 3' Amplitude
GR.GAPI                       : Gamma Ray
~Parameter Information Block
~A  Depth       CCL         TT3         AMP3         GR     
# ...
   964.0000      0.0000    440.4584     14.7538    128.4393
   964.2500      0.0000    455.8199     14.3096    128.5161
   964.5000      0.0000    463.3316     13.8868    129.1888
   964.7500      0.0000    462.4857     13.5152    130.1697
   965.0000      0.0000    457.9550     13.2106    131.7749
   965.2500      0.0000    456.7306     12.9745    133.9263
   965.5000      0.0000    463.8467     12.7927    135.8240
   965.7500      0.0000    480.7586     12.6422    136.8132
   966.0000      0.0000    506.8144     12.4995    136.9425
   966.2500      0.0000    540.0217     12.3505    136.4807
   966.5000      0.0000    575.7770     12.1973    135.2533
   966.7500      0.0000    607.6541     12.0544    132.7166
   967.0000      0.0000    632.1219     11.9342    128.7204
   967.2500      0.0000    651.8721     11.8382    124.0992
   967.5000      0.0000    672.7220     11.7595    120.2303
   967.7500      0.0000    697.3776     11.6918    118.0751
   968.0000      0.0000    723.3133     11.6329    117.9776
   968.2500      0.0000    746.0220     11.5829    120.1907
   968.5000      0.0000    762.0241     11.5431    124.7250
   968.7500      0.0000    767.7407     11.5129    130.3226
   969.0000      0.0000    757.5044     11.4879    134.3714
   969.2500      0.0000    726.1647     11.4598    134.7184
   969.5000      0.0000    676.0999     11.4193    131.6313
   969.7500      0.0000    621.7624     11.3591    127.6032
   970.0000      0.0000    584.7032     11.2719    125.2126
   970.2500      0.0000    580.8295     11.1420    125.1941
   970.5000      0.0000    609.6523     10.9356    126.2992
   970.7500      0.0000    654.2855     10.6066    126.7708
   971.0000      0.0000    692.3394     10.1349    125.8844
   971.2500      0.0000    709.6339      9.5785    124.1696
   971.5000      0.0000    706.9534      9.0708    122.5650
   971.7500      0.0000    696.2651      8.7213    121.6981
   972.0000      0.0000    690.5224      8.5210    121.6890
   972.2500      0.0000    694.4357      8.3897    122.1525
   972.5000      0.0000    702.2847      8.3046    122.3815
   972.7500      0.0000    702.6054      8.3190    121.7903
   973.0000      0.0000    685.0396      8.4636    120.2056
   973.2500      2.0000    645.8098      8.6884    117.8168
   973.5000     -2.0000    590.8815      8.9060    115.0927
   973.7500      0.0000    534.6397      9.0652    112.6733
   974.0000      0.0000    491.4772      9.1989    111.0620
   974.2500      0.0000    464.9847      9.4077    110.2667
   974.5000      0.0000    446.6529      9.7642    109.8841
   974.7500      0.0000    426.9111     10.2268    109.7415
   975.0000      0.0000    404.8169     10.6956    110.2731
   975.2500      0.0000    385.3956     11.1364    111.8827
   975.5000      0.0000    371.5201     11.5860    114.2520
   975.7500      0.0000    361.8042     12.0394    116.8628
   976.0000      0.0000    354.2268     12.4035    119.9205
   976.2500      0.0000    348.5823     12.5788    123.9538
   976.5000      0.0000    345.8028     12.5521    128.6527
   976.7500      0.0000    346.6118     12.3972    133.0252
   977.0000      0.0000    351.0764     12.2096    136.7577
   977.2500      0.0000    358.5330     12.0531    140.4337
   977.5000      0.0000    367.8275     11.9479    143.9752
   977.7500      0.0000    378.5414     11.8847    145.8733
   978.0000      0.0000    392.5816     11.8401    144.8661
   978.2500      0.0000    413.8866     11.7915    141.6696
   978.5000      0.0000    444.6317     11.7281    138.1585
   978.7500      0.0000    479.9937     11.6559    135.4482
   979.0000      0.0000    507.6106     11.5896    133.7458
   979.2500      0.0000    515.6221     11.5379    133.6614
   979.5000      0.0000    502.7917     11.4983    136.5339
   979.7500      0.0000    478.9719     11.4653    142.9662
   980.0000      0.0000    456.0865     11.4406    151.2732
   980.2500      0.0000    441.9757     11.4286    157.8427
   980.5000      0.0000    441.3261     11.4263    159.6069
   980.7500      0.0000    456.3900     11.4227    156.3254
   981.0000      0.0000    484.4480     11.4100    150.2320
   981.2500      0.0000    516.9262     11.3906    143.7581
   981.5000      0.0000    543.0939     11.3736    138.1653
   981.7500      0.0000    556.4380     11.3645    133.9067
   982.0000      0.0000    558.9229     11.3590    131.2357
   982.2500      0.0000    558.2187     11.3480    130.4426
   982.5000      0.0000    559.8240     11.3293    132.1687
   982.7500      0.0000    563.4738     11.3132    137.1512
   983.0000      0.0000    567.3443     11.3164    144.7219
   983.2500      0.0000    572.7363     11.3508    151.8318
   983.5000      0.0000    582.5869     11.4168    154.7199
   983.7500      0.0000    596.3196     11.5034    151.8119
   984.0000      0.0000    607.9982     11.5943    144.5954
   984.2500      0.0000    610.6438     11.6764    136.0225
   984.5000      0.0000    602.2116     11.7456    128.6497
   984.7500      0.0000    586.2941     11.8064    123.8742
   985.0000      0.0000    566.6080     11.8678    121.9195
   985.2500      0.0000    542.4926     11.9374    121.9354
   985.5000      0.0000    510.9301     12.0158    122.1821
   985.7500      0.0000    472.0421     12.0971    120.8713
   986.0000      0.0000    431.5420     12.1698    117.6929
   986.2500      0.0000    397.8228     12.2169    114.3045
   986.5000      0.0000    376.7168     12.2176    112.5348
   986.7500      0.0000    368.4824     12.1580    112.0713
   987.0000      0.0000    368.8856     12.0430    110.5672
   987.2500      0.0000    372.6267     11.8950    106.2922
   987.5000      0.0000    376.0212     11.7429    100.2531
   987.7500      0.0000    377.4711     11.6109     95.4746
   988.0000      0.0000    376.4639     11.5138     94.4721
   988.2500      0.0000    372.8076     11.4534     97.5697
   988.5000      0.0000    366.8477     11.4200    103.2994
   988.7500      0.0000    359.8976     11.4003    109.8521
   989.0000      0.0000    353.7597     11.3895    115.8938
   989.2500      0.0000    349.5770     11.3954    120.4615
   989.5000      0.0000    347.2679     11.4307    122.9709
   989.7500      0.0000    346.0223     11.5010    123.5739
   990.0000      0.0000    345.1082     11.5986    122.8276
   990.2500      0.0000    344.2125     11.7043    120.7338
   990.5000      0.0000    343.3281     11.7965    116.7002
   990.7500      0.0000    342.5938     11.8603    110.5142
   991.0000      0.0000    342.2887     11.8905    102.8130
   991.2500      0.0000    342.9213     11.8873     94.5779
   991.5000      0.0000    345.2216     11.8544     86.5540
   991.7500      0.0000    349.7865     11.7996     79.2482
   992.0000      0.0000    356.4197     11.7314     73.2787
   992.2500      0.0000    363.8160     11.6520     69.4473
   992.5000      0.0000    370.2125     11.5563     68.2278
   992.7500      0.0000    374.5425     11.4422     69.2073
   993.0000      0.0000    376.9232     11.3183     71.2910
   993.2500      0.0000    378.1208     11.2018     73.4020
   993.5000      0.0000    378.7548     11.1074     74.7284
   993.7500      0.0000    378.9611     11.0397     74.7239
   994.0000      0.0000    378.5139     10.9935     73.5209
   994.2500      0.0000    377.0152     10.9603     72.0093
   994.5000      0.0000    373.9812     10.9332     70.9118
   994.7500      0.0000    369.0484     10.9080     70.1438
   995.0000      0.0000    362.4814     10.8835     69.4832
   995.2500      0.0000    355.5771     10.8626     69.1487
   995.5000      0.0000    350.3439     10.8537     69.1604
   995.7500      0.0000    348.5643     10.8662     68.8947
   996.0000      0.0000    350.9401     10.9038     67.9008
   996.2500      0.0000    356.6998     10.9616     66.6190
   996.5000      0.0000    363.7433     11.0315     65.8319
   996.7500      0.0000    369.4240     11.1080     65.7534
   997.0000      0.0000    371.6646     11.1903     65.9689
   997.2500      0.0000    369.7227     11.2811     65.9877
