~Version Information
VERS.                      2.0: CWLS Log ASCII Standard - VERSION 2.0
WRAP.                       NO: One line per depth step
~Well Information Block
STRT.FT                14.0000: 
STOP.FT              1631.0000: 
STEP.FT                 0.1000: 
NULL.                -999.2500: 
COMP.          Pioneer Natural Resources: COMPANY
WELL.            Bluesky 44-17: WELL
FLD.           Purgatorie River: FIELD
LOC.           39' FSL & 288' FEL: LOCATION
STAT.                 Colorado: State
CNTY.               Las Animas: COUNTY
CTRY. USA : Country
SECT. 17 : Section
TOWN. 33S : Township
RANG. 66W : Range
SRVC.                Patterson: SERVICE COMPANY
DATE.          Thu Sep 08 07:30:20 2005: LOG DATE
API. 05-071-08511                         : UNIQUE WELL ID
~Curve Information Block
DEPT.FT            0 000 00 00: Depth
DCAL.in                       : CDL Caliper
RHOB.g/cc                     : CDL Bulk Density
RHOC.g/cc                     : CDL Density Correction
DPOR.pu                       : CDL Density Porosity
GR.GAPI                       : Gamma Ray
NPOR.pu                       : Neutron Porosity
~Parameter Information Block
~A  Depth       DCAL        RHOB        RHOC        DPOR         GR         NPOR    
# ...
   119.6000     18.1401      2.1386      2.0000     -0.0102     90.7153     24.6482
   119.7000     18.1401      2.1808      2.0000     -0.0094     89.2297     24.2890
   119.8000     18.1354      2.1933      2.0000     -0.0091     89.8331     24.3562
   119.9000     18.1354      2.1761      2.0000     -0.0095     89.8402     24.7775
   120.0000     18.1383      2.1491      2.0000     -0.0100     87.8411     25.2129
   120.1000     18.1383      2.1325      2.0000     -0.0104     86.5081     25.3026
   120.2000     18.1383      2.1360      2.0000     -0.0103     86.1703     25.0603
   120.3000     18.1364      2.1609      2.0000     -0.0098     84.0800     24.7819
   120.4000     18.1364      2.2045      2.0000     -0.0089     80.2207     24.4740
   120.5000     18.1409      2.2448      2.0000     -0.0081     76.5127     24.0597
   120.6000     18.1409      2.2522      2.0000     -0.0080     75.5848     23.9046
   120.7000     18.1409      2.2353      2.0000     -0.0083     79.3176     24.0910
   120.8000     18.1402      2.2155      2.0000     -0.0087     84.5718     24.0820
   120.9000     18.1402      2.1876      2.0000     -0.0093     85.6594     23.6739
   121.0000     18.1439      2.1630      2.0000     -0.0097     82.0074     23.3227
   121.1000     18.1439      2.1677      2.0000     -0.0097     78.9762     23.3709
   121.2000     18.1439      2.1922      2.0000     -0.0092     79.0131     23.6651
   121.3000     18.1353      2.2133      2.0000     -0.0087     80.1781     23.9085
   121.4000     18.1353      2.2342      2.0000     -0.0083     81.9398     23.8832
   121.5000     18.1343      2.2532      2.0000     -0.0079     83.9551     23.8253
   121.6000     18.1343      2.2446      2.0000     -0.0081     84.1406     24.0029
   121.7000     18.1343      2.2048      2.0000     -0.0089     82.2405     24.2038
   121.8000     18.1362      2.1657      2.0000     -0.0097     80.7988     24.1839
   121.9000     18.1362      2.1512      2.0000     -0.0100     81.0837     23.9789
   122.0000     18.1359      2.1573      2.0000     -0.0099     82.1484     23.8536
   122.1000     18.1359      2.1686      2.0000     -0.0096     82.9145     23.6773
   122.2000     18.1359      2.1723      2.0000     -0.0096     83.9413     23.1889
   122.3000     18.1388      2.1665      2.0000     -0.0097     84.8294     22.6742
   122.4000     18.1388      2.1622      2.0000     -0.0098     83.5048     22.5676
   122.5000     18.1398      2.1711      2.0000     -0.0096     79.8803     22.9627
   122.6000     18.1398      2.1964      2.0000     -0.0091     76.1856     23.4181
   122.7000     18.1398      2.2266      2.0000     -0.0085     74.0088     23.4538
   122.8000     18.1434      2.2371      2.0000     -0.0083     71.6624     23.0769
   122.9000     18.1434      2.2196      2.0000     -0.0086     68.1775     22.6577
   123.0000     18.1397      2.1964      2.0000     -0.0091     66.3974     22.5623
   123.1000     18.1397      2.1950      2.0000     -0.0091     68.5557     22.8252
   123.2000     18.1397      2.2114      2.0000     -0.0088     72.9473     23.1095
   123.3000     18.1379      2.2191      2.0000     -0.0086     74.9077     23.1738
   123.4000     18.1379      2.2141      2.0000     -0.0087     71.9864     23.1213
   123.5000     18.1369      2.2257      2.0000     -0.0085     67.9858     22.9412
   123.6000     18.1369      2.2639      2.0000     -0.0077     66.9990     22.5450
   123.7000     18.1369      2.2865      2.0000     -0.0073     68.1059     22.1198
   123.8000     18.1375      2.2694      2.0000     -0.0076     69.0583     21.9496
   123.9000     18.1375      2.2505      2.0000     -0.0080     70.4747     22.0517
   124.0000     18.1364      2.2575      2.0000     -0.0079     73.2366     21.9731
   124.1000     18.1364      2.2665      2.0000     -0.0077     73.9433     21.4484
   124.2000     18.1364      2.2559      2.0000     -0.0079     69.4339     20.7709
   124.3000     18.1419      2.2414      2.0000     -0.0082     63.7247     20.4152
   124.4000     18.1419      2.2435      2.0000     -0.0081     60.9514     20.5695
   124.5000     18.1394      2.2541      2.0000     -0.0079     59.7091     20.6821
   124.6000     18.1394      2.2559      2.0000     -0.0079     60.2164     20.3535
   124.7000     18.1394      2.2573      2.0000     -0.0079     63.9237     20.0678
   124.8000     18.1375      2.2706      2.0000     -0.0076     68.6298     20.0012
   124.9000     18.1375      2.2734      2.0000     -0.0075     70.2886     19.8222
   125.0000     18.1412      2.2458      2.0000     -0.0081     67.1536     19.6805
   125.1000     18.1412      2.2142      2.0000     -0.0087     63.9090     19.7067
   125.2000     18.1412      2.2118      2.0000     -0.0088     64.1901     19.5193
   125.3000     18.1402      2.2273      2.0000     -0.0085     65.3321     19.1295
   125.4000     18.1402      2.2329      2.0000     -0.0083     64.2890     18.9555
   125.5000     18.1369      2.2225      2.0000     -0.0086     59.7927     19.0648
   125.6000     18.1369      2.1870      2.0000     -0.0093     53.8634     19.1978
   125.7000     18.1369      2.1104      2.0000     -0.0108     50.8982     19.2561
   125.8000     18.1428      2.0168      2.0000     -0.0127     51.5892     19.3217
   125.9000     18.1428      1.9909      2.0000     -0.0132     53.3213     19.4197
   126.0000     18.1388      2.0749      2.0000     -0.0115     55.2002     19.4474
   126.1000     18.1388      2.1878      2.0000     -0.0092     57.7191     19.2940
   126.2000     18.1388      2.2672      2.0000     -0.0077     59.8269     19.1187
   126.3000     18.1397      2.3194      2.0000     -0.0066     60.8247     19.1396
   126.4000     18.1397      2.3301      2.0000     -0.0064     62.1188     19.2665
   126.5000     18.1431      2.2887      2.0000     -0.0072     63.3477     19.2223
   126.6000     18.1431      2.2431      2.0000     -0.0081     63.2117     19.0091
   126.7000     18.1431      2.2364      2.0000     -0.0083     62.5757     18.9410
   126.8000     18.1380      2.2450      2.0000     -0.0081     61.7874     19.0830
   126.9000     18.1380      2.2286      2.0000     -0.0084     61.4252     19.2990
   127.0000     18.1408      2.1955      2.0000     -0.0091     63.2109     19.6108
   127.1000     18.1408      2.1728      2.0000     -0.0095     66.1975     20.1289
   127.2000     18.1408      2.1659      2.0000     -0.0097     66.7574     20.9395
   127.3000     18.1385      2.1743      2.0000     -0.0095     64.7949     21.7136
   127.4000     18.1385      2.1965      2.0000     -0.0091     63.3917     22.1431
   127.5000     18.1469      2.2197      2.0000     -0.0086     63.4080     22.7360
   127.6000     18.1469      2.2275      2.0000     -0.0085     64.9005     23.7095
   127.7000     18.1469      2.2339      2.0000     -0.0083     68.0644     24.7596
   127.8000     18.1455      2.2784      2.0000     -0.0074     70.0645     26.0554
   127.9000     18.1455      2.3648      2.0000     -0.0057     67.9835     27.7035
   128.0000     18.1411      2.4638      2.0000     -0.0037     64.5037     29.3394
   128.1000     18.1411      2.5476      2.0000     -0.0020     63.2794     30.7219
   128.2000     18.1411      2.5853      2.0000     -0.0013     63.8389     31.9209
   128.3000     18.1406      2.5492      2.0000     -0.0020     64.5491     32.7876
   128.4000     18.1406      2.4262      2.0000     -0.0045     63.6835     32.9186
   128.5000     18.1411      2.2382      2.0000     -0.0082     61.2374     32.3887
   128.6000     18.1411      2.0561      2.0000     -0.0119     60.7593     31.7480
   128.7000     18.1411      1.9703      2.0000     -0.0136     63.9637     31.0233
   128.8000     18.1447      2.0126      2.0000     -0.0128     67.3109     29.8802
   128.9000     18.1447      2.0934      2.0000     -0.0111     68.4581     28.5960
   129.0000     18.1417      2.1077      2.0000     -0.0109     69.4018     27.6934
   129.1000     18.1417      2.0903      2.0000     -0.0112     71.5108     27.1694
