~Version Information
VERS.                      2.0: CWLS Log ASCII Standard - VERSION 2.0
WRAP.                       NO: One line per depth step
~Well Information Block
STRT.FT               350.0000: 
STOP.FT              2803.2000: 
STEP.FT                 0.1000: 
NULL.                -999.2500: 
COMP.          Pioneer Natural Resources: COMPANY
WELL.          Grey Goose 33-30: WELL
FLD.           Purgatoire River: FIELD
LOC.           2136' FSL & 2065' FEL--: LOCATION
STAT.                 Colorado: State
CNTY.               Las Animas: COUNTY
CTRY. USA : Country
SECT. 30 : Section
TOWN. 32S : Township
RANG. 67W : Range
SRVC.                Patterson: SERVICE COMPANY
DATE.          Fri Nov 04 09:27:53 2005: LOG DATE
API.           05 071 08546 00: UNIQUE WELL ID
~Curve Information Block
DEPT.FT            0 000 00 00: Depth
DCAL.in                       : CDL Caliper
DPOR.pu                       : CDL Density Porosity
NPOR.pu                       : Neutron Porosity
RHOB.g/cc                     : CDL Bulk Density
RHOC.g/cc                     : CDL Density Correction
GR.GAPI                       : Gamma Ray
~Parameter Information Block
~A  Depth       DCAL        DPOR        NPOR        RHOB        RHOC         GR     
# ...
  1002.8000      7.9962     13.1325     25.0719      2.4333     -0.0243    118.1052
  1002.9000      7.9962     15.2606     24.1147      2.3982     -0.0108    117.6296
  1003.0000      8.0786     15.6344     23.5704      2.3920      0.0285    114.7947
  1003.1000      8.0786     15.3654     23.5910      2.3965     -0.0047    111.7694
  1003.2000      8.0786     14.7001     23.9526      2.4074     -0.0296    110.9084
  1003.3000      8.2075     12.2452     24.5438      2.4480     -0.0220    110.8713
  1003.4000      8.2075      7.4797     25.1206      2.5266      0.0988    110.7320
  1003.5000      8.2378      2.3709     25.5227      2.6109      0.1717    112.0710
  1003.6000      8.2378     -1.4548     25.9738      2.6740      0.1352    114.9273
  1003.7000      8.2378     -4.0978     26.5817      2.7176      0.2312    118.1067
  1003.8000      8.1254     -5.3643     27.0173      2.7385      0.2888    117.7707
  1003.9000      8.1254     -4.8905     27.1633      2.7307      0.2523    110.7955
  1004.0000      8.0295     -2.9742     27.1785      2.6991      0.2132    103.2933
  1004.1000      8.0295     -0.6986     27.1180      2.6615      0.0545    100.2319
  1004.2000      8.0295      0.3841     27.0829      2.6437      0.0291     99.6693
  1004.3000      8.0019      0.5123     26.9619      2.6415      0.0433     99.3506
  1004.4000      8.0019      1.2806     26.5081      2.6289      0.0446    100.1390
  1004.5000      7.9973      2.7076     25.8664      2.6053      0.0112    102.1907
  1004.6000      7.9973      3.9192     25.3381      2.5853      0.0084    103.7130
  1004.7000      7.9973      4.9112     24.9083      2.5690     -0.0045    103.3333
  1004.8000      7.9975      5.9005     24.3305      2.5526     -0.0000    101.4649
  1004.9000      7.9975      6.8786     23.6029      2.5365      0.0227    102.3453
  1005.0000      7.9991      7.3825     22.8744      2.5282     -0.0372    106.8020
  1005.1000      7.9991      6.8425     22.1999      2.5371     -0.0160    109.7597
  1005.2000      7.9991      6.1988     21.6879      2.5477      0.0525    106.9241
  1005.3000      8.0004      6.4035     21.3943      2.5443     -0.0348     99.1140
  1005.4000      8.0004      6.7103     21.3320      2.5393     -0.0048     91.3099
  1005.5000      8.0003      6.7180     21.5639      2.5392     -0.0135     86.0634
  1005.6000      8.0003      7.0406     21.9216      2.5338     -0.0174     82.4979
  1005.7000      8.0003      7.9949     22.0237      2.5181      0.0139     81.1573
  1005.8000      8.0002      8.4973     21.7837      2.5098     -0.0738     82.5602
  1005.9000      8.0002      7.4895     21.4771      2.5264      0.0106     83.8403
  1006.0000      7.9991      6.3078     21.1933      2.5459      0.0529     81.3248
  1006.1000      7.9991      6.2188     20.8179      2.5474      0.0160     77.0758
  1006.2000      7.9991      6.5585     20.4793      2.5418      0.0369     76.6628
  1006.3000      7.9972      6.3488     20.2649      2.5452     -0.0103     78.4548
  1006.4000      7.9972      5.4259     19.9817      2.5605      0.0420     76.3820
  1006.5000      7.9992      4.7359     19.6225      2.5719      0.0251     70.9431
  1006.6000      7.9992      4.9500     19.3522      2.5683      0.0348     65.9949
  1006.7000      7.9992      5.5839     19.2684      2.5579     -0.0137     63.2190
  1006.8000      8.0028      6.2851     19.5144      2.5463      0.0573     63.2405
  1006.9000      8.0028      7.6025     19.9628      2.5246      0.0166     65.9565
  1007.0000      8.0027      9.3405     20.0957      2.4959     -0.0258     71.3631
  1007.1000      8.0027     10.4501     19.5993      2.4776     -0.0201     76.3707
  1007.2000      8.0027     10.7696     18.8183      2.4723     -0.0198     77.3991
  1007.3000      8.0016     10.8561     18.2827      2.4709      0.0046     75.9451
  1007.4000      8.0016     11.0633     17.7246      2.4675     -0.0166     74.1473
  1007.5000      8.0014     11.3555     16.8362      2.4626     -0.0072     71.8788
  1007.6000      8.0014     11.6664     16.1817      2.4575      0.0100     69.8835
  1007.7000      8.0014     12.1890     16.0630      2.4489      0.0239     69.7822
  1007.8000      7.9997     13.0681     16.1274      2.4344      0.0003     71.2431
  1007.9000      7.9997     13.8065     15.9379      2.4222      0.0160     72.9715
  1008.0000      7.9974     13.2661     15.4972      2.4311     -0.0277     72.9860
  1008.1000      7.9974     11.2865     15.2777      2.4638      0.0220     68.2490
  1008.2000      7.9974      9.4838     15.3464      2.4935      0.0534     60.9966
  1008.3000      7.9968      9.1309     15.3533      2.4993      0.0341     57.5015
  1008.4000      7.9968      9.6691     15.2981      2.4905      0.0009     58.8911
  1008.5000      7.9972      9.8244     15.5121      2.4879      0.0202     60.3616
  1008.6000      7.9972      9.0957     16.0729      2.4999      0.0101     59.9088
  1008.7000      7.9972      8.3754     16.6920      2.5118      0.0766     60.2645
  1008.8000      7.9983      8.9046     17.0681      2.5031      0.0556     63.0635
  1008.9000      7.9983      9.8229     17.1332      2.4879     -0.0107     65.8825
  1009.0000      7.9999      9.2424     17.0010      2.4975     -0.0056     66.5548
  1009.1000      7.9999      7.6792     16.9452      2.5233      0.0993     65.7670
  1009.2000      7.9999      7.3352     17.2049      2.5290      0.0751     65.0596
  1009.3000      8.0016      8.4166     17.7128      2.5111      0.0129     65.7293
  1009.4000      8.0016      9.2206     18.1444      2.4979      0.0275     68.6039
  1009.5000      8.0013      8.9061     18.5411      2.5031     -0.0033     73.2835
  1009.6000      8.0013      7.9805     19.1793      2.5183      0.0349     78.2237
  1009.7000      8.0013      7.1147     20.1292      2.5326      0.0011     81.8832
  1009.8000      7.9998      6.2500     20.9187      2.5469      0.0036     83.4264
  1009.9000      7.9998      5.3757     21.1440      2.5613      0.0265     85.1359
  1010.0000      7.9999      4.7246     21.0128      2.5720      0.0080     87.8125
  1010.1000      7.9999      3.8672     20.7817      2.5862      0.0182     88.6554
  1010.2000      7.9999      2.5807     20.7430      2.6074      0.0393     88.1892
  1010.3000      8.0001      1.6298     21.0176      2.6231      0.0864     88.8774
  1010.4000      8.0001      1.6732     21.1823      2.6224      0.0335     89.9171
  1010.5000      7.9998      2.6277     20.8355      2.6066      0.0216     88.1335
  1010.6000      7.9998      4.3194     20.1683      2.5787     -0.0105     83.6061
  1010.7000      7.9998      6.4645     19.7207      2.5433     -0.0142     80.5923
  1010.8000      7.9995      8.1677     19.6842      2.5152     -0.0640     79.4308
  1010.9000      7.9995      8.5838     19.6429      2.5084     -0.0024     79.1304
  1011.0000      7.9990      7.7858     19.2533      2.5215     -0.0131     79.0477
  1011.1000      7.9990      6.9035     18.7803      2.5361      0.0432     75.9255
  1011.2000      7.9990      7.1343     18.4508      2.5323     -0.0007     71.1450
  1011.3000      7.9996      8.1220     18.2628      2.5160     -0.0136     68.7154
  1011.4000      7.9996      9.1684     18.4092      2.4987      0.0200     67.9203
  1011.5000      8.0001      9.9421     18.8355      2.4860     -0.0047     67.4709
  1011.6000      8.0001      9.6719     19.1387      2.4904     -0.0161     66.8240
  1011.7000      8.0001      8.1480     19.2087      2.5156     -0.0078     65.8192
  1011.8000      8.0009      6.4467     19.1795      2.5436      0.0510     66.4178
  1011.9000      8.0009      5.7537     18.9446      2.5551      0.0459     68.7395
  1012.0000      8.0016      6.4598     18.4431      2.5434      0.0478     70.1795
  1012.1000      8.0016      8.3811     17.7850      2.5117      0.0076     70.3493
  1012.2000      8.0016     10.7307     17.1042      2.4729     -0.0210     69.3009
  1012.3000      8.0019     12.5350     16.5838      2.4432     -0.0132     66.0507
