~Version Information
VERS.                      2.0: CWLS Log ASCII Standard - VERSION 2.0
WRAP.                       NO: One line per depth step
~Well Information Block
STRT.FT                10.0000: 
STOP.FT              1380.7500: 
STEP.FT                 0.2500: 
NULL.                -999.2500: 
COMP.          Pioneer Natural Resources: COMPANY
WELL.          Baa Baa 34-1 Tr: WELL
FLD.           Purgatoire River: FIELD
LOC.           785' FSL & 2304' FEL: LOCATION
CNTY.               Las Animas: COUNTY
SRVC.                Patterson: SERVICE COMPANY
DATE.          Tue Mar 07 13:08:19 2006: LOG DATE
UWI.           05 071 08710 00: UNIQUE WELL ID
STAT.                 Colorado: STATE
~Curve Information Block
DEPT.FT            0 000 00 00: Depth
GR.GAPI                       : Gamma Ray
CCL.                          : Casing Collar Locator
TT3.usec                      : CBL 3' Travel Time
AMP3.mV                       : CBL 3' Amplitude
~Parameter Information Block
~A  Depth        GR         CCL         TT3         AMP3    
# ...
   278.0000     77.9692      0.0000    818.1267     13.5876
   278.2500     82.2977      0.0000    822.2747     12.4235
   278.5000     85.9256      0.0000    823.9380     11.2249
   278.7500     86.8438      0.0000    826.1296     10.3522
   279.0000     84.7573      0.0000    831.7775      9.9681
   279.2500     80.8476      0.0000    840.9913      9.9859
   279.5000     76.7684      0.0000    850.9083     10.2315
   279.7500     73.7805      0.0000    858.7898     10.5877
   280.0000     72.4066      0.0000    864.3785     11.0396
   280.2500     72.5948      0.0000    868.5777     11.6588
   280.5000     74.0575      0.0000    871.0576     12.5422
   280.7500     76.4045      0.0000    870.5309     13.7251
   281.0000     79.0746      0.0000    866.9117     15.1344
   281.2500     81.4337      0.0000    861.9855     16.5999
   281.5000     83.1304      0.0000    857.8707     17.9035
   281.7500     84.2331      0.0000    855.5017     18.8623
   282.0000     84.8230      0.0000    854.5905     19.4073
   282.2500     84.6530      0.0000    854.3704     19.5786
   282.5000     83.5825      0.0000    854.0837     19.4564
   282.7500     82.2884      0.0000    853.0498     19.1207
   283.0000     82.0143      0.0000    850.6824     18.6624
   283.2500     83.3668      0.0000    846.8579     18.1923
   283.5000     85.6961      0.0000    842.5882     17.8166
   283.7500     87.9412      0.0000    840.1195     17.6013
   284.0000     89.7210      0.0000    841.5818     17.5534
   284.2500     91.2118      0.0000    847.0523     17.6248
   284.5000     92.3417      0.0000    854.1932     17.7385
   284.7500     92.6223      0.0000    860.2402     17.8235
   285.0000     91.4792      0.0000    864.4129     17.8377
   285.2500     88.3596      0.0000    868.1826     17.7688
   285.5000     82.9409      0.0000    873.2157     17.6255
   285.7500     75.6882      0.0000    879.4434     17.4316
   286.0000     67.9418      0.0000    885.3046     17.2228
   286.2500     61.0925      0.0000    889.4159     17.0402
   286.5000     55.7294      0.0000    891.5807     16.9223
   286.7500     51.7262      0.0000    892.4529     16.8928
   287.0000     48.9908      0.0000    892.7679     16.9408
   287.2500     47.8774      0.0000    892.9787     17.0113
   287.5000     48.8692      0.0000    893.2755     17.0285
   287.7500     52.0711      0.0000    893.7247     16.9374
   288.0000     57.0779      0.0000    894.4226     16.7279
   288.2500     63.1064      0.0000    895.6485     16.4292
   288.5000     69.0667      0.0000    897.8253     16.0909
   288.7500     73.8589      0.0000    901.2136     15.7621
   289.0000     77.1381      0.0000    905.7528     15.4772
   289.2500     79.7031      0.0000    911.9650     15.2506
   289.5000     82.6465      0.0000    922.8109     15.0804
   289.7500     86.0521      0.0000    944.6965     14.9537
   290.0000     88.8330      0.0000    985.6624     14.8607
   290.2500     89.9412      0.0000   1049.7206     14.8231
   290.5000     89.5413      0.0000   1130.2468     14.9060
   290.7500     88.7975      0.0000   1210.8167     15.1754
   291.0000     88.5238      0.0000   1277.4523     15.6245
   291.2500     88.3663      0.0000   1328.9523     16.1484
   291.5000     87.5159      0.0000   1370.0782     16.6060
   291.7500     85.7663      0.0000   1396.3856     16.9043
   292.0000     83.5413      0.0000   1391.8237     17.0278
   292.2500     81.3717      0.0000   1342.2075     17.0110
   292.5000     79.7628      0.0000   1250.3767     16.9028
   292.7500     79.1310      0.0000   1139.9535     16.7473
   293.0000     79.3391      0.0000   1044.1655     16.5689
   293.2500     79.4522      0.0000    989.0689     16.3612
   293.5000     78.4454      0.0000    985.2332     16.0892
   293.7500     76.2088      0.0000   1028.3279     15.7108
   294.0000     73.6004      0.0000   1099.6526     15.2081
   294.2500     71.5572      0.0000   1168.5023     14.6121
   294.5000     70.4922      0.0000   1205.1073     14.0029
   294.7500     70.5171      0.0000   1196.7483     13.4765
   295.0000     71.7316      0.0000   1151.0901     13.1044
   295.2500     73.9065      0.0000   1086.7476     12.9184
   295.5000     76.0617      0.0000   1022.6053     12.9217
   295.7500     76.8231      0.0000    970.9157     13.0966
   296.0000     75.4305      0.0000    935.1653     13.3995
   296.2500     72.2722      0.0000    913.0748     13.7647
   296.5000     68.4474      0.0000    900.8558     14.1273
   296.7500     64.9559      0.0000    894.7092     14.4482
   297.0000     62.1380      0.0000    890.7314     14.7183
   297.2500     59.6287      0.0000    885.7685     14.9452
   297.5000     56.9351      0.0000    878.6146     15.1387
   297.7500     54.1041      0.0000    869.9352     15.3034
   298.0000     51.6879      0.0000    861.4214     15.4382
   298.2500     50.1113      0.0000    854.9799     15.5417
   298.5000     49.2925      0.0000    852.1115     15.6193
   298.7500     48.7772      0.0000    853.3580     15.6850
   299.0000     48.0506      0.0000    858.2897     15.7565
   299.2500     46.8026      0.0000    866.0656     15.8488
   299.5000     45.0979      0.0000    875.7596     15.9788
   299.7500     43.3500      0.0000    886.2571     16.1736
   300.0000     42.0886      0.0000    896.5654     16.4654
   300.2500     41.6135      0.0000    906.3060     16.8641
   300.5000     41.8777      0.0000    915.1937     17.3355
   300.7500     42.8409      0.0000    921.6660     17.8159
   301.0000     44.6823      0.0000    922.5115     18.2454
   301.2500     47.1724      0.0000    914.5399     18.5848
   301.5000     49.0503      0.0000    897.2451     18.8095
   301.7500     48.8901      0.0000    874.3242     18.9031
   302.0000     46.8722      0.0000    852.4842     18.8656
   302.2500     45.0544      0.0000    838.3657     18.7244
   302.5000     45.4238      0.0000    836.1254     18.5272
   302.7500     47.9901      0.0000    846.6768     18.3174
   303.0000     51.1430      0.0000    867.4042     18.1144
   303.2500     53.5365      0.0000    892.3362     17.9161
   303.5000     55.0956      0.0000    914.3304     17.7143
   303.7500     56.2743      0.0000    928.4883     17.5057
   304.0000     56.9488      0.0000    933.6447     17.2913
   304.2500     56.4232      0.0000    931.0354     17.0742
   304.5000     54.4265      0.0000    922.5153     16.8640
   304.7500     51.7126      0.0000    909.9276     16.6794
   305.0000     49.4514      0.0000    894.9395     16.5396
   305.2500     48.2253      0.0000    878.8215     16.4506
   305.5000     47.8117      0.0000    862.9305     16.4026
   305.7500     47.6867      0.0000    849.9195     16.3761
   306.0000     47.4446      0.0000    843.7119     16.3447
   306.2500     46.9082      0.0000    846.8257     16.2792
   306.5000     46.1620      0.0000    857.1096     16.1564
   306.7500     45.4660      0.0000    868.3240     15.9648
   307.0000     44.9384      0.0000    875.5955     15.7092
   307.2500     44.4215      0.0000    879.9843     15.4236
   307.5000     43.8684      0.0000    885.8798     15.1755
   307.7500     43.7360      0.0000    894.4548     15.0409
   308.0000     44.7376      0.0000    902.4463     15.0677
   308.2500     47.1655      0.0000    907.4258     15.2622
   308.5000     50.5412      0.0000    911.0823     15.5934
   308.7500     53.8583      0.0000    915.9465     15.9984
   309.0000     56.1418      0.0000    921.1867     16.3939
   309.2500     56.9850      0.0000    923.4597     16.7153
   309.5000     56.7543      0.0000    920.7900     16.9565
   309.7500     56.2342      0.0000    914.2493     17.1669
   310.0000     55.9102      0.0000    906.2474     17.4001
   310.2500     55.6423      0.0000    898.3229     17.6658
   310.5000     55.1039      0.0000    890.9695     17.9307
   310.7500     54.3155      0.0000    884.9453     18.1606
   311.0000     53.6162      0.0000    881.4673     18.3503
   311.2500     53.4171      0.0000    880.8040     18.5141
