~Version Information
VERS.                      2.0: CWLS Log ASCII Standard - VERSION 2.0
WRAP.                       NO: One line per depth step
~Well Information Block
STRT.FT               330.0000: 
STOP.FT              1876.2000: 
STEP.FT                 0.1000: 
NULL.                -999.2500: 
COMP.          Pioneer Natural Resources: COMPANY
WELL.          Cooper 11-13 Tr: WELL
FLD.           Purgatoire River: FIELD
LOC.           476' FNL & 738' FWL: LOCATION
STAT.                 Colorado: State
CNTY.               Las Animas: COUNTY
CTRY. USA : Country
SECT. 13 : Section
TOWN. 32S : Township
RANG. 67W : Range 
SRVC.                Patterson: SERVICE COMPANY
DATE.          Mon Sep 26 10:28:17 2005: LOG DATE
API.           05 071 08525 00: UNIQUE WELL ID
~Curve Information Block
DEPT.FT            0 000 00 00: Depth
DCAL.in                       : CDL Caliper
RHOB.g/cc                     : CDL Bulk Density
RHOC.g/cc                     : CDL Density Correction
DPOR.pu                       : CDL Density Porosity
NPOR.pu                       : Neutron Porosity
GR.GAPI                       : Gamma Ray
~Parameter Information Block
~A  Depth       DCAL        RHOB        RHOC        DPOR        NPOR         GR     
# ...
   637.2000      8.0162      2.5459      0.0304      6.3089     30.7509    110.2205
   637.3000      8.0157      2.5413      0.0054      6.5855     30.4062    107.4434
   637.4000      8.0157      2.5534      0.0067      5.8567     29.7595    107.8040
   637.5000      8.0184      2.5707      0.0354      4.8046     29.1031    110.2443
   637.6000      8.0184      2.5730      0.0427      4.6687     28.3834    115.7763
   637.7000      8.0184      2.5511      0.0156      5.9961     27.6493    118.8631
   637.8000      8.0205      2.5210      0.0090      7.8206     26.9225    115.0516
   637.9000      8.0205      2.5031     -0.0140      8.9030     26.3737    107.5482
   638.0000      8.0197      2.5035      0.0129      8.8815     25.8364    100.1755
   638.1000      8.0197      2.5145      0.0190      8.2114     24.9310     96.0653
   638.2000      8.0197      2.5224      0.0820      7.7325     23.9148     93.8454
   638.3000      8.0168      2.5184      0.0109      7.9762     23.3361     90.8402
   638.4000      8.0168      2.5114      0.0301      8.3993     23.6705     88.2545
   638.5000      8.0156      2.5187      0.0015      7.9598     24.6393     88.2010
   638.6000      8.0156      2.5407      0.0539      6.6273     25.3829     93.4097
   638.7000      8.0156      2.5607      0.0616      5.4148     25.7345    103.2167
   638.8000      8.0171      2.5682      0.0513      4.9595     25.8279    111.6050
   638.9000      8.0171      2.5625      0.0194      5.3027     25.7806    112.9913
   639.0000      8.0183      2.5444      0.0290      6.3977     26.0172    108.5019
   639.1000      8.0183      2.5180      0.0220      8.0011     26.3363    104.7167
   639.2000      8.0183      2.4978     -0.0088      9.2253     26.1422    103.5773
   639.3000      8.0177      2.4966     -0.0199      9.2965     25.3351    102.2691
   639.4000      8.0177      2.5014      0.0197      9.0046     24.3169    100.5217
   639.5000      8.0189      2.4909      0.0171      9.6430     23.6310     98.9203
   639.6000      8.0189      2.4747     -0.0604     10.6239     23.3625     97.9250
   639.7000      8.0189      2.4763     -0.0109     10.5277     23.0628    100.8440
   639.8000      8.0207      2.4977     -0.0011      9.2283     22.5687    109.4636
   639.9000      8.0207      2.5230      0.0246      7.6957     22.1410    118.1133
   640.0000      8.0215      2.5351      0.0078      6.9626     21.9288    120.2768
   640.1000      8.0215      2.5333      0.0172      7.0717     21.8968    116.5690
   640.2000      8.0215      2.5294      0.0191      7.3077     22.1349    113.2323
   640.3000      8.0218      2.5300      0.0225      7.2701     22.3198    115.8287
   640.4000      8.0218      2.5338      0.0167      7.0396     21.8578    121.5375
   640.5000      8.0219      2.5322      0.0681      7.1387     20.8270    125.0957
   640.6000      8.0219      2.5140      0.0418      8.2428     19.9408    123.8321
   640.7000      8.0219      2.4913     -0.0010      9.6169     19.6070    116.8561
   640.8000      8.0214      2.4901      0.0163      9.6884     19.5514    108.7335
   640.9000      8.0214      2.5077      0.0163      8.6227     19.4397    104.1218
   641.0000      8.0206      2.5216      0.0302      7.7805     19.0857    104.5507
   641.1000      8.0206      2.5249      0.0164      7.5788     18.6098    107.9519
   641.2000      8.0206      2.5201      0.0234      7.8699     18.3609    110.3317
   641.3000      8.0203      2.5082      0.0020      8.5955     18.4296    110.3401
   641.4000      8.0203      2.4976      0.0081      9.2335     18.7708    106.3818
   641.5000      8.0201      2.4972     -0.0053      9.2583     19.2002     99.8864
   641.6000      8.0201      2.5050      0.0340      8.7877     19.4734     95.6492
   641.7000      8.0201      2.5104      0.0179      8.4602     19.4418     93.4855
   641.8000      8.0191      2.5076      0.0259      8.6295     19.2363     93.0538
   641.9000      8.0191      2.5000      0.0138      9.0890     19.1346     95.9303
   642.0000      8.0181      2.4917      0.0196      9.5968     19.1275     99.4030
   642.1000      8.0181      2.4832     -0.0088     10.1069     19.3177    100.8623
   642.2000      8.0181      2.4755     -0.0122     10.5755     19.8833    101.3270
   642.3000      8.0175      2.4681      0.0167     11.0244     20.5773    103.1878
   642.4000      8.0175      2.4628     -0.0044     11.3435     21.1160    106.4806
   642.5000      8.0181      2.4711     -0.0332     10.8405     21.7071    108.2146
   642.6000      8.0181      2.5020      0.0224      8.9691     22.7166    108.7730
   642.7000      8.0181      2.5455      0.0171      6.3320     23.6948    111.8436
   642.8000      8.0190      2.5760      0.0971      4.4834     23.9211    117.6506
   642.9000      8.0190      2.5740      0.0560      4.6039     23.9939    122.7293
   643.0000      8.0195      2.5510      0.0342      5.9997     24.5387    124.8700
   643.1000      8.0195      2.5355      0.0095      6.9423     24.9416    123.7611
   643.2000      8.0195      2.5397      0.0105      6.6833     25.1002    118.6754
   643.3000      8.0200      2.5498      0.0371      6.0753     25.6250    113.1772
   643.4000      8.0200      2.5567      0.0029      5.6542     26.2584    113.1829
   643.5000      8.0200      2.5654      0.0531      5.1259     26.3535    117.6563
   643.6000      8.0200      2.5672      0.0791      5.0202     26.0431    121.8234
   643.7000      8.0200      2.5560      0.0487      5.6980     26.0001    121.5511
   643.8000      8.0206      2.5440      0.0547      6.4219     26.6133    116.9675
   643.9000      8.0206      2.5443     -0.0073      6.4065     27.7325    113.5208
   644.0000      8.0227      2.5525      0.0729      5.9066     28.7167    113.4533
   644.1000      8.0227      2.5548      0.0454      5.7694     29.1036    112.5493
   644.2000      8.0227      2.5559      0.0384      5.7001     29.2961    111.1309
   644.3000      8.0229      2.5629      0.0618      5.2764     29.7283    113.5220
   644.4000      8.0229      2.5648      0.0525      5.1652     30.2022    118.6968
   644.5000      8.0211      2.5534      0.0310      5.8570     30.4333    122.9301
   644.6000      8.0211      2.5372      0.0356      6.8389     30.3870    125.2550
   644.7000      8.0211      2.5328     -0.0334      7.1004     30.0425    125.9989
   644.8000      8.0198      2.5424      0.0661      6.5195     29.5291    126.6922
   644.9000      8.0198      2.5537      0.0315      5.8372     29.2407    127.4983
   645.0000      8.0193      2.5668      0.0273      5.0406     29.1840    125.3837
   645.1000      8.0193      2.5757      0.0654      4.5026     29.0782    120.4006
   645.2000      8.0193      2.5595      0.0490      5.4864     28.8697    114.8944
   645.3000      8.0184      2.5250     -0.0054      7.5777     28.3354    109.9268
   645.4000      8.0184      2.5085     -0.0048      8.5772     27.3290    107.2442
   645.5000      8.0172      2.5233      0.0489      7.6787     26.3120    105.4100
   645.6000      8.0172      2.5476      0.0780      6.2059     25.8961    102.6800
   645.7000      8.0172      2.5631      0.0549      5.2664     26.0681    103.7184
   645.8000      8.0179      2.5671      0.0778      5.0224     26.2132    108.0450
   645.9000      8.0179      2.5612      0.0805      5.3829     26.1015    106.8559
   646.0000      8.0191      2.5534      0.0630      5.8555     26.1741    100.3631
   646.1000      8.0191      2.5494      0.0675      6.0989     26.5400     96.0213
   646.2000      8.0191      2.5428      0.0295      6.4940     26.6448     96.4630
   646.3000      8.0177      2.5294      0.0287      7.3076     26.1633     98.6065
   646.4000      8.0177      2.5152     -0.0211      8.1687     25.5943     99.0112
   646.5000      8.0169      2.5079      0.0275      8.6105     25.3565     99.1279
   646.6000      8.0169      2.5051      0.0346      8.7809     25.1192    101.3208
   646.7000      8.0169      2.5054      0.0138      8.7636     24.8458    103.7103
