~Version Information
VERS.                      2.0: CWLS Log ASCII Standard - VERSION 2.0
WRAP.                       NO: One line per depth step
~Well Information Block
STRT.FT               240.0000: 
STOP.FT              1185.5000: 
STEP.FT                 0.2500: 
NULL.                -999.2500: 
COMP.          Pioneer Natural Resources: COMPANY
WELL.          Whitecoat 14-36: WELL
FLD.           Purgatorie River: FIELD
LOC.           606' FSL & 260' FWL: LOCATION
PROV.                 Colorado: PROVINCE
CNTY.               Las Animas: COUNTRY
SRVC.                Patterson: SERVICE COMPANY
DATE.          Mon Dec 05 16:51:12 2005: LOG DATE
UWI.                          : UNIQUE WELL ID
~Curve Information Block
DEPT.FT            0 000 00 00: Depth
DIR.Ohm-m                     : IEL Induction Resistivity
GR.GAPI                       : Gamma Ray
~Parameter Information Block
~A  Depth       DIR          GR     
# ...
   407.2500      8.5596    154.3730
   407.5000      8.7587    152.9890
   407.7500      8.9933    151.8490
   408.0000      9.2489    151.2201
   408.2500      9.5090    151.6481
   408.5000      9.7579    152.7791
   408.7500      9.9870    153.2109
   409.0000     10.2034    152.6487
   409.2500     10.4317    151.4415
   409.5000     10.7058    148.9099
   409.7500     11.0529    147.1512
   410.0000     11.4808    144.7642
   410.2500     11.9752    143.2236
   410.5000     12.5075    140.5735
   410.7500     13.0477    138.5715
   411.0000     13.5725    135.8278
   411.2500     14.0649    134.6219
   411.5000     14.5090    134.0023
   411.7500     14.8892    134.1382
   412.0000     15.1929    134.4598
   412.2500     15.4133    134.4794
   412.5000     15.5494    134.3418
   412.7500     15.6068    134.4781
   413.0000     15.5994    135.4750
   413.2500     15.5501    136.6015
   413.5000     15.4830    138.3884
   413.7500     15.4117    139.2143
   414.0000     15.3373    139.2931
   414.2500     15.2566    138.4203
   414.5000     15.1725    136.1113
   414.7500     15.0937    134.5154
   415.0000     15.0263    133.2607
   415.2500     14.9677    133.6050
   415.5000     14.9083    135.5971
   415.7500     14.8398    137.1990
   416.0000     14.7620    138.6634
   416.2500     14.6844    138.6831
   416.5000     14.6239    137.8872
   416.7500     14.5981    137.5022
   417.0000     14.6171    137.6880
   417.2500     14.6762    137.9281
   417.5000     14.7506    137.3174
   417.7500     14.8030    136.0287
   418.0000     14.8020    133.5618
   418.2500     14.7470    132.2951
   418.5000     14.6744    131.5910
   418.7500     14.6394    131.6726
   419.0000     14.6820    131.6372
   419.2500     14.8023    131.0931
   419.5000     14.9571    129.5715
   419.7500     15.0822    128.5044
   420.0000     15.1283    127.6913
   420.2500     15.0894    128.0341
   420.5000     15.0025    129.9266
   420.7500     14.9207    131.7687
   421.0000     14.8821    134.5553
   421.2500     14.8943    136.0400
   421.5000     14.9376    137.4391
   421.7500     14.9793    137.8960
   422.0000     14.9892    138.3517
   422.2500     14.9476    138.8211
   422.5000     14.8459    139.8640
   422.7500     14.6843    140.4593
   423.0000     14.4705    140.3331
   423.2500     14.2201    139.1402
   423.5000     13.9534    135.3081
   423.7500     13.6908    131.3967
   424.0000     13.4492    124.0508
   424.2500     13.2433    118.8981
   424.5000     13.0890    112.4824
   424.7500     13.0009    109.9330
   425.0000     12.9813    109.1787
   425.2500     13.0100    110.3712
   425.5000     13.0453    113.7011
   425.7500     13.0430    116.5677
   426.0000     12.9835    121.6056
   426.2500     12.8863    125.2677
   426.5000     12.8012    130.4791
   426.7500     12.7838    133.2544
   427.0000     12.8741    135.8169
   427.2500     13.0872    136.4381
   427.5000     13.4151    136.1808
   427.7500     13.8325    135.6760
   428.0000     14.3020    135.3154
   428.2500     14.7760    135.7612
   428.5000     15.2005    137.7679
   428.7500     15.5243    139.9045
   429.0000     15.7165    143.8637
   429.2500     15.7788    146.7222
   429.5000     15.7418    150.8524
   429.7500     15.6466    153.1390
   430.0000     15.5275    155.0349
   430.2500     15.4029    154.6726
   430.5000     15.2738    150.5593
   430.7500     15.1275    145.0157
   431.0000     14.9413    133.1183
   431.2500     14.6906    124.1973
   431.5000     14.3576    112.6587
   431.7500     13.9405    107.7346
   432.0000     13.4567    105.1699
   432.2500     12.9387    106.0135
   432.5000     12.4238    109.4681
   432.7500     11.9426    112.6072
   433.0000     11.5135    118.2244
   433.2500     11.1440    122.4709
   433.5000     10.8365    129.0798
   433.7500     10.5919    133.1940
   434.0000     10.4090    138.4306
   434.2500     10.2828    141.3345
   434.5000     10.2057    145.1265
   434.7500     10.1719    147.3495
   435.0000     10.1810    150.1019
   435.2500     10.2377    151.4665
   435.5000     10.3466    152.7448
   435.7500     10.5069    153.0279
   436.0000     10.7105    152.4497
   436.2500     10.9438    151.4649
   436.5000     11.1904    149.9328
   436.7500     11.4327    149.6942
   437.0000     11.6529    151.4515
   437.2500     11.8350    153.7835
   437.5000     11.9697    157.3481
   437.7500     12.0600    158.6674
   438.0000     12.1220    158.1081
   438.2500     12.1768    156.2721
   438.5000     12.2378    152.5470
   438.7500     12.3002    150.0248
   439.0000     12.3425    146.3039
   439.2500     12.3405    143.5682
   439.5000     12.2830    138.8572
   439.7500     12.1764    135.5414
   440.0000     12.0358    130.8777
   440.2500     11.8752    128.2626
   440.5000     11.7045    125.9395
   440.7500     11.5320    126.3323
   441.0000     11.3659    131.0149
   441.2500     11.2148    136.4832
   441.5000     11.0892    145.4170
   441.7500     11.0034    149.9886
   442.0000     10.9752    153.2861
   442.2500     11.0217    153.4281
   442.5000     11.1548    151.7829
   442.7500     11.3780    149.9174
   443.0000     11.6880    146.3613
   443.2500     12.0778    143.8571
   443.5000     12.5416    140.9709
   443.7500     13.0760    140.0545
   444.0000     13.6745    139.6801
   444.2500     14.3210    139.1892
   444.5000     14.9923    136.6336
   444.7500     15.6748    133.4391
   445.0000     16.3789    127.2040
   445.2500     17.1263    123.1463
   445.5000     17.9106    119.2773
   445.7500     18.6724    118.9581
   446.0000     19.3352    121.8127
   446.2500     19.8831    125.1847
   446.5000     20.3941    130.8110
   446.7500     20.9702    134.2983
   447.0000     21.6345    138.7539
   447.2500     22.2982    141.0724
   447.5000     22.8356    142.9985
   447.7500     23.2031    142.9285
   448.0000     23.4680    141.0486
   448.2500     23.7149    139.2858
   448.5000     23.9379    137.0932
   448.7500     24.0316    136.1731
   449.0000     23.8970    135.0533
   449.2500     23.5623    133.9251
   449.5000     23.1896    131.0428
   449.7500     22.9648    128.3551
   450.0000     22.9798    123.8347
   450.2500     23.1796    121.0808
   450.5000     23.3865    118.1943
   450.7500     23.4040    117.2224
   451.0000     23.1599    116.5606
   451.2500     22.7713    116.0048
   451.5000     22.4624    114.2964
   451.7500     22.4213    112.7698
   452.0000     22.7080    111.0454
   452.2500     23.2471    110.8619
   452.5000     23.8861    112.1861
   452.7500     24.4868    113.8066
   453.0000     24.9814    116.6154
   453.2500     25.3557    118.4072
   453.5000     25.5972    120.6275
   453.7500     25.6925    121.6830
   454.0000     25.6673    122.5306
   454.2500     25.6082    122.5939
   454.5000     25.6304    121.8904
   454.7500     25.8188    120.7717
   455.0000     26.1875    117.9230
   455.2500     26.6771    115.3877
   455.5000     27.1733    111.5625
   455.7500     27.5336    109.7241
   456.0000     27.6162    108.7457
   456.2500     27.3329    109.0923
   456.5000     26.7081    110.0990
   456.7500     25.8885    110.5969
   457.0000     25.0722    111.0113
   457.2500     24.4114    111.4003
   457.5000     23.9594    112.7714
   457.7500     23.6833    114.3460
   458.0000     23.5184    117.4964
   458.2500     23.4233    119.8749
   458.5000     23.3929    123.4350
   458.7500     23.4230    125.6176
   459.0000     23.4666    128.4562
   459.2500     23.4405    130.0958
   459.5000     23.2835    132.4677
   459.7500     23.0120    134.2117
   460.0000     22.7122    137.2247
   460.2500     22.4797    139.3009
   460.5000     22.3637    141.8049
   460.7500     22.3586    142.7347
   461.0000     22.4370    142.9471
   461.2500     22.5905    142.3640
   461.5000     22.8386    140.3372
   461.7500     23.1908    138.2842
   462.0000     23.5992    134.9597
   462.2500     23.9577    133.2585
   462.5000     24.1640    132.1028
   462.7500     24.1915    132.1256
