~Version Information
VERS.                      2.0: CWLS Log ASCII Standard - VERSION 2.0
WRAP.                       NO: One line per depth step
~Well Information Block
STRT.FT               555.0000: 
STOP.FT              1159.0000: 
STEP.FT                 0.2500: 
NULL.                -999.2500: 
COMP.          Pioneer Natural Resources: COMPANY
WELL.              Draco 31-21: WELL
FLD.           Purgatoire River: FIELD
LOC.           491' FNL & 2446' FEL: LOCATION
CNTY.               Las Animas: COUNTY
SRVC.                Patterson: SERVICE COMPANY
DATE.          Tue Jan 31 17:48:38 2006: LOG DATE
UWI.           05 071 08672 00: UNIQUE WELL ID
STAT.                 Colorado: STATE
~Curve Information Block
DEPT.FT            0 000 00 00: Depth
SN.Ohm-m                      : IEL Short Normal
SP.mV                         : IEL Spontaneous Potential
DIR.Ohm-m                     : IEL Induction Resistivity
GR.GAPI                       : Gamma Ray
~Parameter Information Block
~A  Depth        SN          SP         DIR          GR     
# ...
  1057.5000     23.8356     42.4804     24.0822     76.8319
  1057.7500     24.1202     42.5513     24.0254     76.3298
  1058.0000     24.1874     42.6579     23.9733     76.8117
  1058.2500     24.0668     42.7851     23.9506     78.6734
  1058.5000     23.8855     42.9116     23.9451     84.1256
  1058.7500     23.6878     43.0155     23.9156     88.8060
  1059.0000     23.3826     43.0840     23.8164     95.1444
  1059.2500     22.9339     43.1187     23.6213     97.7919
  1059.5000     22.4280     43.1336     23.3329     99.0057
  1059.7500     21.9462     43.1485     22.9740     98.6782
  1060.0000     21.5093     43.1801     22.5722     97.9346
  1060.2500     21.1143     43.2338     22.1492     97.4578
  1060.5000     20.7553     43.2990     21.7225     96.0419
  1060.7500     20.4432     43.3541     21.3089     94.3762
  1061.0000     20.2136     43.3770     20.9271     91.5559
  1061.2500     20.0670     43.3587     20.5944     90.3256
  1061.5000     19.9536     43.3070     20.3261     90.4433
  1061.7500     19.8440     43.2405     20.1368     91.7107
  1062.0000     19.7338     43.1764     20.0402     94.3094
  1062.2500     19.6337     43.1248     20.0408     95.8853
  1062.5000     19.5964     43.0893     20.1200     97.5793
  1062.7500     19.6446     43.0691     20.2310     98.2604
  1063.0000     19.7242     43.0602     20.3137     98.6184
  1063.2500     19.7691     43.0574     20.3238     98.3476
  1063.5000     19.7375     43.0550     20.2577     97.1193
  1063.7500     19.6295     43.0473     20.1513     95.9369
  1064.0000     19.5248     43.0290     20.0612     94.4980
  1064.2500     19.5494     42.9939     20.0404     94.3924
  1064.5000     19.7355     42.9337     20.1171     95.9519
  1064.7500     19.9407     42.8393     20.2806     97.7355
  1065.0000     19.9871     42.7052     20.4813    100.2250
  1065.2500     19.8890     42.5347     20.6546    101.2479
  1065.5000     19.8396     42.3441     20.7610    101.9220
  1065.7500     19.9228     42.1606     20.8125    102.1932
  1066.0000     19.9984     42.0105     20.8561    102.9519
  1066.2500     19.9509     41.9084     20.9299    103.7961
  1066.5000     19.8817     41.8559     21.0344    104.9815
  1066.7500     19.9543     41.8431     21.1424    104.9759
  1067.0000     20.1611     41.8492     21.2313    102.8450
  1067.2500     20.3634     41.8494     21.3037    100.3629
  1067.5000     20.4776     41.8316     21.3784     97.2105
  1067.7500     20.5491     41.8087     21.4697     96.8354
  1068.0000     20.6720     41.8101     21.5755     99.6070
  1068.2500     20.8289     41.8629     21.6786    102.9237
  1068.5000     20.8993     41.9766     21.7557    107.7605
  1068.7500     20.8192     42.1419     21.7871    109.8107
  1069.0000     20.6220     42.3367     21.7662    110.6924
  1069.2500     20.4126     42.5350     21.7050    110.1586
  1069.5000     20.3100     42.7157     21.6283    108.2750
  1069.7500     20.3390     42.8670     21.5586    106.4427
  1070.0000     20.4273     42.9850     21.5018    103.0367
  1070.2500     20.4735     43.0713     21.4467    100.6396
  1070.5000     20.4012     43.1336     21.3800     97.8237
  1070.7500     20.2370     43.1857     21.3065     97.1217
  1071.0000     20.0967     43.2411     21.2565     98.4669
  1071.2500     20.0706     43.3027     21.2726    100.7694
  1071.5000     20.1907     43.3604     21.3806    105.0985
  1071.7500     20.4319     43.3982     21.5623    107.6875
  1072.0000     20.6844     43.4045     21.7523    110.2604
  1072.2500     20.8320     43.3774     21.8713    111.3101
  1072.5000     20.8588     43.3212     21.8820    113.1149
  1072.7500     20.8131     43.2417     21.8189    114.9751
  1073.0000     20.7531     43.1406     21.7626    118.1318
  1073.2500     20.7418     43.0133     21.7854    119.4805
  1073.5000     20.7953     42.8515     21.9170    119.0367
  1073.7500     20.8699     42.6528     22.1467    117.0135
  1074.0000     20.9331     42.4303     22.4458    112.2082
  1074.2500     21.0027     42.2107     22.7875    108.6732
  1074.5000     21.1147     42.0215     23.1526    104.7227
  1074.7500     21.2610     41.8802     23.5228    103.8232
  1075.0000     21.3713     41.7938     23.8731    104.9123
  1075.2500     21.4099     41.7626     24.1728    106.2555
  1075.5000     21.4416     41.7813     24.3984    107.3384
  1075.7500     21.5198     41.8361     24.5482    107.0257
  1076.0000     21.5850     41.9073     24.6454    105.5964
  1076.2500     21.5083     41.9781     24.7192    104.6982
  1076.5000     21.2744     42.0440     24.7810    104.4714
  1076.7500     21.0501     42.1132     24.8152    105.3348
  1077.0000     20.9368     42.1998     24.7968    107.7548
  1077.2500     20.8838     42.3155     24.7176    109.4121
  1077.5000     20.8890     42.4665     24.5963    110.6461
  1077.7500     21.0012     42.6522     24.4624    110.3516
  1078.0000     21.1876     42.8629     24.3330    108.9213
  1078.2500     21.3555     43.0782     24.2031    108.0236
  1078.5000     21.4497     43.2698     24.0547    107.6237
  1078.7500     21.4922     43.4123     23.8700    108.0629
  1079.0000     21.4895     43.4971     23.6378    109.1452
  1079.2500     21.3779     43.5366     23.3520    109.4809
  1079.5000     21.1539     43.5554     23.0101    108.5278
  1079.7500     20.9258     43.5775     22.6216    107.0278
  1080.0000     20.7891     43.6180     22.2155    104.6062
  1080.2500     20.7375     43.6831     21.8365    103.5355
  1080.5000     20.6975     43.7704     21.5286    103.1617
  1080.7500     20.5930     43.8705     21.3154    103.5259
  1081.0000     20.3755     43.9695     21.1918    104.1086
  1081.2500     20.0661     44.0575     21.1282    103.9978
  1081.5000     19.7921     44.1306     21.0831    102.8766
  1081.7500     19.6864     44.1857     21.0168    101.8037
  1082.0000     19.7349     44.2118     20.9022    100.3426
  1082.2500     19.8332     44.1901     20.7309     99.6572
  1082.5000     19.9570     44.1078     20.5117     99.1327
  1082.7500     20.1096     43.9712     20.2665     99.0994
  1083.0000     20.1609     43.8053     20.0262     99.4427
  1083.2500     19.9631     43.6430     19.8312     99.8805
  1083.5000     19.6100     43.5128     19.7250    100.8154
  1083.7500     19.3693     43.4295     19.7372    101.6842
  1084.0000     19.4047     43.3900     19.8606    103.6307
  1084.2500     19.6910     43.3758     20.0437    105.4513
  1084.5000     20.0760     43.3629     20.2079    108.5140
  1084.7500     20.3560     43.3328     20.2859    110.2056
  1085.0000     20.4360     43.2810     20.2558    111.6263
  1085.2500     20.4089     43.2182     20.1477    112.0424
  1085.5000     20.3513     43.1645     20.0210    112.4687
  1085.7500     20.2082     43.1391     19.9327    112.5760
  1086.0000     19.9748     43.1520     19.9141    112.1583
  1086.2500     19.7494     43.2055     19.9664    111.8287
  1086.5000     19.6076     43.3000     20.0725    112.4603
  1086.7500     19.5971     43.4324     20.2122    113.7340
  1087.0000     19.7386     43.5863     20.3689    115.2780
  1087.2500     19.9845     43.7290     20.5258    114.8676
  1087.5000     20.2807     43.8272     20.6623    111.6135
  1087.7500     20.5628     43.8679     20.7569    108.4043
  1088.0000     20.7025     43.8644     20.7957    103.6157
  1088.2500     20.6445     43.8421     20.7801    101.0633
  1088.5000     20.4975     43.8179     20.7269     98.8981
  1088.7500     20.3982     43.7923     20.6610     98.8527
  1089.0000     20.4295     43.7588     20.6051    100.5891
  1089.2500     20.5870     43.7152     20.5707    102.1182
  1089.5000     20.7337     43.6664     20.5586    103.3658
  1089.7500     20.7656     43.6180     20.5685    103.2280
  1090.0000     20.7665     43.5720     20.6057    102.2774
  1090.2500     20.8584     43.5259     20.6811    101.5590
  1090.5000     21.0436     43.4725     20.8042    100.4156
  1090.7500     21.2814     43.3999     20.9769     99.5598
