~Version Information
 VERS.                                  2.0 : CWLS LAS VERSION
 WRAP.                                   NO : WRAPING MODE
 SWARE .                 MController 2.5.0J : SOFTWARE VERSION
~Well Information
 WELL.                         Joplin 44-05 : WELL
 COMP.    Pioneer Natural Resources USA Inc : COMPANY
 FLD.                      Purgatoire River : FIELD
 LOC.                  SE/SE SEC5 T33S R66W : LOCATION
 DATE.                             12/12/05 : DATE(S) LOGGED
 SRVC.       Blanco Geological Services LLC : SERVICE COMPANY
 STAT.                             Colorado : STATE
 CNTY.                           Las Animas : COUNTY
 CTRY.                                  USA : COUNTRY
 API.                       05-071-08623-05 : API NUMBER
 STRT.FT                             686.00 : START DEPTH
 STOP.FT                            2105.00 : STOP DEPTH
 STEP.FT                               1.00 : DEPTH INCREMENT
 NULL.                                -9999 : NULL VALUE
~Curve information
 DEPTH.FT                                   :
 ROP.MIN/FT                                 :
 GAS.UNITS                                  :
~ASCII Log data
# ...
      1486.0         0.17         86.3 
      1487.0         0.10         72.6 
      1488.0         0.20         36.0 
      1489.0         0.13         31.1 
      1490.0         0.13         19.0 
      1491.0         0.20         16.9 
      1492.0         0.13         11.9 
      1493.0         0.13         10.1 
      1494.0         0.23          8.3 
      1495.0         0.27        126.8 
      1496.0         1.75        896.4 
      1497.0         0.30        551.1 
      1498.0         0.27        618.7 
      1499.0         0.23        674.6 
      1500.0         0.33        691.4 
      1501.0         0.17        691.4 
      1502.0         0.17        686.3 
      1503.0         0.20        682.5 
      1504.0         0.33        681.3 
      1505.0         0.20        681.3 
      1506.0         0.27        680.9 
      1507.0         0.20        663.5 
      1508.0         0.23        657.5 
      1509.0         0.32        653.0 
      1510.0         0.27        652.1 
      1511.0         0.20        603.5 
      1512.0         0.23        514.0 
      1513.0         0.20        500.7 
      1514.0         0.17        408.9 
      1515.0         0.17        400.0 
      1516.0         0.20        159.7 
      1517.0         0.20        173.9 
      1518.0         0.20        209.1 
      1519.0         0.20        215.9 
      1520.0         0.20        277.7 
      1521.0         0.23        410.5 
      1522.0         0.23        927.9 
      1523.0         0.17       1049.4 
      1524.0         0.28       1228.7 
      1525.0         0.27       1179.2 
      1526.0         1.43       1087.8 
      1527.0         0.40        768.2 
      1528.0         0.23        726.3 
      1529.0         0.17        703.8 
      1530.0         0.13        703.8 
      1531.0         0.13        699.3 
      1532.0         0.17        690.1 
      1533.0         0.23        679.0 
      1534.0         0.22        667.3 
      1535.0         0.17        663.8 
      1536.0         0.13        662.2 
      1537.0         0.13        663.2 
      1538.0         0.17        665.7 
      1539.0         0.20        666.7 
      1540.0         0.17        666.0 
      1541.0         0.17        668.6 
      1542.0         0.17        668.6 
      1543.0         0.17        657.5 
      1544.0         0.20        652.1 
      1545.0         0.20        503.8 
      1546.0         0.23        423.2 
      1547.0         0.20        400.0 
      1548.0         0.20        155.7 
      1549.0         0.17        149.7 
      1550.0         0.20        150.6 
      1551.0         0.23        169.1 
      1552.0         0.18        210.7 
      1553.0         0.20        210.7 
      1554.0         0.17        284.0 
      1555.0         0.20        413.7 
      1556.0         1.90       1136.1 
      1557.0         0.30        736.5 
      1558.0         0.23        714.3 
      1559.0         0.23        697.8 
      1560.0         0.25        690.1 
      1561.0         0.20        626.7 
      1562.0         0.23        617.1 
      1563.0         0.20        561.9 
      1564.0         0.20        550.2 
      1565.0         0.23        511.1 
      1566.0         0.23        473.1 
      1567.0         0.27        459.1 
      1568.0         0.20        471.1 
      1569.0         0.27        592.1 
      1570.0         0.20        639.0 
      1571.0         0.20        639.0 
      1572.0         0.20        515.9 
      1573.0         0.13        400.0 
      1574.0         0.17        400.0 
      1575.0         0.22        129.2 
      1576.0         0.13        113.5 
      1577.0         0.23        104.7 
      1578.0         0.13        104.7 
      1579.0         0.13        101.8 
      1580.0         0.17         98.5 
      1581.0         0.13         92.7 
      1582.0         0.17         92.7 
      1583.0         0.13         92.9 
      1584.0         0.17        113.2 
      1585.0         0.23        113.2 
      1586.0         1.78        395.4 
      1587.0         0.23        392.4 
      1588.0         0.27        385.5 
      1589.0         0.27        384.9 
      1590.0         0.30        437.4 
      1591.0         0.30        886.3 
      1592.0         0.23        921.5 
      1593.0         0.23        989.4 
      1594.0         0.23       1029.7 
      1595.0         0.23       1061.2 
      1596.0         0.17       1081.8 
      1597.0         0.20       1109.1 
      1598.0         0.20       1094.5 
      1599.0         0.20       1087.5 
      1600.0         0.17       1218.0 
      1601.0         0.18       1371.2 
      1602.0         0.20       1429.6 
      1603.0         0.17       1147.2 
      1604.0         0.17       1097.7 
      1605.0         0.17        863.4 
      1606.0         0.17        839.9 
      1607.0         0.20        690.5 
      1608.0         0.13        690.5 
      1609.0         0.17        654.6 
      1610.0         0.13        654.6 
      1611.0         0.20        630.5 
      1612.0         0.17        603.2 
      1613.0         0.23        617.8 
      1614.0         0.20        617.8 
      1615.0         0.27        696.5 
      1616.0         1.98       1503.9 
      1617.0         0.33       1383.3 
      1618.0         0.27       1359.8 
      1619.0         0.27       1257.9 
      1620.0         0.20       1169.7 
      1621.0         0.23       1131.9 
      1622.0         0.20       1113.8 
      1623.0         0.23       1116.1 
      1624.0         0.20       1099.2 
      1625.0         0.22       1113.8 
      1626.0         0.17       1145.3 
      1627.0         0.20       1166.9 
      1628.0         0.13       1180.5 
      1629.0         0.13       1176.4 
      1630.0         0.20       1202.1 
      1631.0         0.20       1277.6 
      1632.0         0.17       1418.9 
      1633.0         0.20       1272.9 
      1634.0         0.17       1272.9 
      1635.0         0.20       1227.5 
      1636.0         0.20        915.5 
      1637.0         0.20        714.6 
      1638.0         0.20        645.4 
      1639.0         0.23        631.1 
      1640.0         0.20        606.0 
      1641.0         0.20        588.6 
      1642.0         0.22        597.1 
      1643.0         0.20        670.5 
      1644.0         0.13        873.6 
      1645.0         0.27       1152.6 
      1646.0         1.37       1861.3 
      1647.0         0.37       1848.0 
      1648.0         0.30       1653.4 
      1649.0         0.23       1547.4 
      1650.0         0.20       1482.6 
      1651.0         0.20       1457.3 
      1652.0         0.22       1450.9 
      1653.0         0.27       1384.3 
      1654.0         0.27       1390.3 
      1655.0         0.23       1350.9 
      1656.0         0.17       1330.3 
      1657.0         0.13       1318.6 
      1658.0         0.17       1346.5 
      1659.0         0.23       1343.0 
      1660.0         0.17       1464.2 
      1661.0         0.20       1491.9 
      1662.0         0.20       1347.1 
      1663.0         0.13       1294.1 
      1664.0         0.13        916.1 
      1665.0         0.17        733.6 
      1666.0         0.17        665.4 
      1667.0         0.13        665.4 
      1668.0         0.17        654.9 
      1669.0         0.17        650.2 
      1670.0         0.22        618.4 
      1671.0         0.20        618.4 
      1672.0         0.17        598.4 
      1673.0         0.20        587.6 
      1674.0         0.13        576.2 
      1675.0         0.27        649.8 
      1676.0         1.50       1624.5 
      1677.0         0.53       1763.5 
      1678.0         0.35       1644.5 
      1679.0         0.23       1593.1 
      1680.0         0.13       1450.9 
      1681.0         0.17       1427.4 
      1682.0         0.27       1420.8 
      1683.0         0.27       1361.1 
      1684.0         0.23       1256.4 
      1685.0         0.13       1166.2 
