~Version Information
VERS.                      2.0: CWLS Log ASCII Standard - VERSION 2.0
WRAP.                       NO: One line per depth step
~Well Information Block
STRT.FT               330.0000: 
STOP.FT              1876.2000: 
STEP.FT                 0.1000: 
NULL.                -999.2500: 
COMP.          Pioneer Natural Resources: COMPANY
WELL.          Cooper 11-13 Tr: WELL
FLD.           Purgatoire River: FIELD
LOC.           476' FNL & 738' FWL: LOCATION
STAT.                 Colorado: State
CNTY.               Las Animas: COUNTY
CTRY. USA : Country
SECT. 13 : Section
TOWN. 32S : Township
RANG. 67W : Range 
SRVC.                Patterson: SERVICE COMPANY
DATE.          Mon Sep 26 10:28:17 2005: LOG DATE
API.           05 071 08525 00: UNIQUE WELL ID
~Curve Information Block
DEPT.FT            0 000 00 00: Depth
DCAL.in                       : CDL Caliper
RHOB.g/cc                     : CDL Bulk Density
RHOC.g/cc                     : CDL Density Correction
DPOR.pu                       : CDL Density Porosity
NPOR.pu                       : Neutron Porosity
GR.GAPI                       : Gamma Ray
~Parameter Information Block
~A  Depth       DCAL        RHOB        RHOC        DPOR        NPOR         GR     
# ...
   838.8000      7.8960      2.5137      0.0859      8.2632     18.2117     61.7930
   838.9000      7.8960      2.5068      0.0195      8.6791     18.3022     61.9909
   839.0000      7.8954      2.4937      0.0288      9.4750     18.4231     60.0816
   839.1000      7.8954      2.4798      0.0186     10.3158     18.5483     59.7813
   839.2000      7.8954      2.4707      0.0364     10.8642     18.3220     61.0010
   839.3000      7.8942      2.4728      0.0371     10.7418     17.4609     60.9183
   839.4000      7.8942      2.4824      0.0559     10.1550     16.6962     61.3543
   839.5000      7.8949      2.4889      0.0421      9.7641     16.6282     63.7165
   839.6000      7.8949      2.4923      0.0227      9.5550     16.8932     65.9804
   839.7000      7.8949      2.5014      0.0261      9.0077     17.2089     67.0725
   839.8000      7.8975      2.5149      0.0637      8.1907     17.7642     67.4791
   839.9000      7.8975      2.5310      0.0482      7.2141     18.3834     67.4937
   840.0000      7.8981      2.5475      0.0926      6.2132     18.6225     67.9875
   840.1000      7.8981      2.5490      0.0628      6.1186     18.5927     68.7299
   840.2000      7.8981      2.5381      0.0095      6.7843     18.6966     68.6143
   840.3000      7.8981      2.5356      0.0311      6.9338     19.2915     69.2493
   840.4000      7.8981      2.5400      0.0667      6.6650     20.3709     71.6581
   840.5000      7.8992      2.5425      0.0013      6.5170     21.5476     75.0740
   840.6000      7.8992      2.5432      0.0629      6.4697     22.4030     78.8055
   840.7000      7.8992      2.5386      0.0087      6.7544     22.5307     80.9073
   840.8000      7.9000      2.5301      0.0245      7.2682     22.1216     80.9373
   840.9000      7.9000      2.5248      0.0031      7.5901     21.9149     80.4678
   841.0000      7.8998      2.5258     -0.0087      7.5259     22.1330     79.4879
   841.1000      7.8998      2.5231      0.0579      7.6902     22.3402     79.5386
   841.2000      7.8998      2.5030     -0.0007      8.9098     22.2439     82.1065
   841.3000      7.8996      2.4809     -0.0243     10.2455     21.9561     84.7025
   841.4000      7.8996      2.4857     -0.0104      9.9572     21.6477     83.7560
   841.5000      7.8986      2.5198     -0.0050      7.8887     21.4285     79.1821
   841.6000      7.8986      2.5539      0.0645      5.8245     21.4589     75.6345
   841.7000      7.8986      2.5615      0.0327      5.3650     22.0184     75.9465
   841.8000      7.8950      2.5536     -0.0005      5.8412     22.9381     77.2617
   841.9000      7.8950      2.5474      0.0172      6.2190     23.5665     78.0810
   842.0000      7.8909      2.5373      0.0150      6.8285     24.0055     81.3426
   842.1000      7.8909      2.5252      0.0251      7.5666     24.7442     87.7618
   842.2000      7.8909      2.5219      0.0296      7.7659     25.5423     94.2076
   842.3000      7.8883      2.5194      0.0615      7.9126     26.0316     99.8432
   842.4000      7.8883      2.5084      0.0068      8.5830     26.2802    104.5732
   842.5000      7.8863      2.4989      0.0118      9.1598     26.4000    107.6641
   842.6000      7.8863      2.4929      0.0508      9.5237     26.3383    111.8649
   842.7000      7.8863      2.4845      0.0134     10.0278     25.8053    118.5575
   842.8000      7.8854      2.4860      0.0139      9.9397     24.8272    123.9142
   842.9000      7.8854      2.5056      0.0328      8.7494     23.9549    125.5286
   843.0000      7.8841      2.5281      0.0664      7.3879     23.1289    123.8812
   843.1000      7.8841      2.5380      0.0285      6.7866     22.0727    118.9785
   843.2000      7.8841      2.5368      0.0430      6.8587     21.5533    113.3971
   843.3000      7.8822      2.5297      0.0526      7.2898     21.8349    109.3057
   843.4000      7.8822      2.5177      0.0886      8.0193     21.8478    104.2298
   843.5000      7.8821      2.5069      0.0217      8.6743     21.2924     98.2155
   843.6000      7.8821      2.5069      0.0589      8.6739     20.9150     93.8740
   843.7000      7.8821      2.5167      0.0306      8.0766     20.9201     90.9891
   843.8000      7.8838      2.5273      0.0775      7.4382     20.8114     87.9930
   843.9000      7.8838      2.5301      0.0287      7.2668     20.3878     83.1007
   844.0000      7.8851      2.5221      0.0570      7.7513     20.1575     76.2112
   844.1000      7.8851      2.5072      0.0115      8.6546     20.4065     69.9837
   844.2000      7.8851      2.5005      0.0267      9.0630     20.7705     66.3409
   844.3000      7.8848      2.5112      0.0380      8.4094     21.0560     63.7023
   844.4000      7.8848      2.5297      0.0720      7.2898     21.2214     60.1490
   844.5000      7.8841      2.5418      0.0708      6.5574     21.0896     55.2889
   844.6000      7.8841      2.5411      0.0796      6.6030     20.8342     51.3230
   844.7000      7.8841      2.5297      0.0483      7.2892     20.7297     52.1484
   844.8000      7.8828      2.5189      0.0222      7.9448     20.5793     55.8675
   844.9000      7.8828      2.5130      0.0286      8.3033     20.3154     57.8148
   845.0000      7.8822      2.5028      0.0376      8.9220     20.1449     58.2572
   845.1000      7.8822      2.4849      0.0133     10.0083     19.7860     58.6722
   845.2000      7.8822      2.4680      0.0064     11.0300     18.9565     57.7316
   845.3000      7.8825      2.4592      0.0049     11.5643     17.8036     55.8145
   845.4000      7.8825      2.4553      0.0378     11.7982     16.6951     54.6553
   845.5000      7.8822      2.4509      0.0199     12.0662     16.0664     53.8660
   845.6000      7.8822      2.4421      0.0338     12.6017     15.7893     53.0923
   845.7000      7.8822      2.4286      0.0014     13.4157     15.3009     51.8257
   845.8000      7.8818      2.4205      0.0181     13.9108     14.5409     48.9220
   845.9000      7.8818      2.4236      0.0142     13.7205     13.8925     46.0461
   846.0000      7.8806      2.4344      0.0196     13.0661     13.5642     46.0427
   846.1000      7.8806      2.4495      0.0435     12.1522     13.5365     48.7521
   846.2000      7.8806      2.4609      0.0572     11.4615     13.6311     52.9308
   846.3000      7.8803      2.4567      0.0546     11.7171     13.5212     57.0631
   846.4000      7.8803      2.4402      0.0005     12.7182     13.3124     57.2476
   846.5000      7.8811      2.4291      0.0097     13.3882     13.2497     52.4270
   846.6000      7.8811      2.4301      0.0289     13.3277     13.1766     46.9674
   846.7000      7.8811      2.4387      0.0434     12.8062     12.9186     43.3304
   846.8000      7.8818      2.4555      0.0283     11.7892     12.7642     41.1437
   846.9000      7.8818      2.4779      0.0411     10.4299     13.2798     41.8198
   847.0000      7.8828      2.4889      0.0460      9.7667     14.1768     45.6129
   847.1000      7.8828      2.4817      0.0153     10.1982     14.5699     48.9066
   847.2000      7.8828      2.4716      0.0362     10.8114     14.5641     49.6918
   847.3000      7.8826      2.4690      0.0359     10.9700     14.8243     50.2948
   847.4000      7.8826      2.4751      0.0205     10.5991     15.3196     52.0230
   847.5000      7.8822      2.4921      0.0271      9.5696     15.7328     54.4163
   847.6000      7.8822      2.5116      0.0774      8.3877     16.2195     57.8167
   847.7000      7.8822      2.5132      0.0810      8.2896     16.9352     62.5592
   847.8000      7.8822      2.4909      0.0654      9.6453     17.6782     67.9027
   847.9000      7.8822      2.4632      0.0180     11.3205     18.4004     70.2661
   848.0000      7.8800      2.4511      0.0314     12.0569     18.9742     67.9256
   848.1000      7.8800      2.4589      0.0266     11.5822     18.9440     65.4069
   848.2000      7.8800      2.4773      0.0429     10.4665     18.6271     66.6580
   848.3000      7.8778      2.4889      0.1022      9.7622     18.6946     70.3278
