~Version Information
 VERS.                                  2.0 : CWLS LAS VERSION
 WRAP.                                   NO : WRAPING MODE
 SWARE .                 MController 2.5.0N : SOFTWARE VERSION
~Well Information
 WELL.               Bear Cub Federal 11-23 : WELL
 COMP.    Pioneer Natural Resources USA Inc : COMPANY
 FLD.                      Purgatoire River : FIELD
 LOC.                 NW/NW Sec23 T33S R67W : LOCATION
 DATE.                          06/18-19/06 : DATE(S) LOGGED
 SRVC.       Blanco Geological Services LLC : SERVICE COMPANY
 STAT.                             Colorado : STATE
 CNTY.                           Las Animas : COUNTY
 CTRY.                                  USA : COUNTRY
 API.                       05-071-08509-00 : API NUMBER
 STRT.FT                             475.00 : START DEPTH
 STOP.FT                            2220.00 : STOP DEPTH
 STEP.FT                               1.00 : DEPTH INCREMENT
 NULL.                                -9999 : NULL VALUE
~Curve information
 DEPTH.FT                                   :
 ROP.MIN/FT                                 :
 GAS.UNITS                                  :
~ASCII Log data
# ...
      1875.0         0.23         48.0 
      1876.0         0.25         48.0 
      1877.0         0.23         44.3 
      1878.0         0.23         42.7 
      1879.0         0.23         26.5 
      1880.0         0.23         28.3 
      1881.0         0.23         28.3 
      1882.0         0.20         30.6 
      1883.0         0.20         29.1 
      1884.0         0.23         29.2 
      1885.0         0.23         25.6 
      1886.0         1.03         32.9 
      1887.0         1.02        120.0 
      1888.0         0.33        119.6 
      1889.0         0.47         95.8 
      1890.0         0.37         69.6 
      1891.0         0.33         61.0 
      1892.0         0.30         54.8 
      1893.0         0.10         53.7 
      1894.0         0.20         49.3 
      1895.0         0.38         49.3 
      1896.0         0.30         46.0 
      1897.0         0.17         47.1 
      1898.0         0.13         47.2 
      1899.0         0.20         45.9 
      1900.0         0.20         42.1 
      1901.0         0.20         89.1 
      1902.0         0.27        138.3 
      1903.0         0.23        142.7 
      1904.0         0.23        106.1 
      1905.0         0.20         74.7 
      1906.0         0.23         68.9 
      1907.0         0.20         35.1 
      1908.0         0.13         34.4 
      1909.0         0.13         34.4 
      1910.0         0.10         34.4 
      1911.0         0.17         34.9 
      1912.0         0.22         32.7 
      1913.0         0.20         30.0 
      1914.0         0.20         29.1 
      1915.0         0.13         31.7 
      1916.0         1.50        126.3 
      1917.0         0.20        107.7 
      1918.0         0.47         78.4 
      1919.0         0.40         65.5 
      1920.0         0.32         63.1 
      1921.0         0.27         61.2 
      1922.0         0.27         57.6 
      1923.0         0.27         55.9 
      1924.0         0.30         54.1 
      1925.0         0.23         53.2 
      1926.0         0.27         50.5 
      1927.0         0.23         51.0 
      1928.0         0.27         51.1 
      1929.0         0.23         50.6 
      1930.0         0.27         48.0 
      1931.0         0.27         47.4 
      1932.0         0.28         47.4 
      1933.0         0.37         46.4 
      1934.0         0.30         47.2 
      1935.0         0.33         47.5 
      1936.0         0.33         46.4 
      1937.0         0.33         47.1 
      1938.0         0.33         48.6 
      1939.0         0.33         41.3 
      1940.0         0.37         27.1 
      1941.0         0.30         30.2 
      1942.0         0.32         31.3 
      1943.0         0.27         29.0 
      1944.0         0.27         26.9 
      1945.0         0.37         27.7 
      1946.0         1.53         96.4 
      1947.0         0.63        106.5 
      1948.0         0.55         73.6 
      1949.0         0.37         64.3 
      1950.0         0.33         53.5 
      1951.0         0.30         50.9 
      1952.0         0.17         47.5 
      1953.0         0.17         44.9 
      1954.0         0.23         43.5 
      1955.0         0.25         43.0 
      1956.0         0.20         44.9 
      1957.0         0.20         45.8 
      1958.0         0.20         51.1 
      1959.0         0.17         48.1 
      1960.0         0.17         55.3 
      1961.0         0.30         68.9 
      1962.0         0.27         53.6 
      1963.0         0.23         47.5 
      1964.0         0.27         53.9 
      1965.0         0.17         45.3 
      1966.0         0.20         28.9 
      1967.0         0.17         28.9 
      1968.0         0.23         24.3 
      1969.0         0.20         28.8 
      1970.0         0.17         37.6 
      1971.0         0.15         37.6 
      1972.0         0.17         43.0 
      1973.0         0.27         49.2 
      1974.0         0.33         59.5 
      1975.0         0.27         73.6 
      1976.0         2.13        134.3 
      1977.0         0.38         65.7 
      1978.0         0.50         49.6 
      1979.0         0.37         48.5 
      1980.0         0.40         76.2 
      1981.0         0.47         82.4 
      1982.0         0.50         64.7 
      1983.0         0.23         48.2 
      1984.0         0.17         61.2 
      1985.0         0.13         97.7 
      1986.0         0.20        108.6 
      1987.0         0.22         73.9 
      1988.0         0.20         56.4 
      1989.0         0.23         55.7 
      1990.0         0.23         50.0 
      1991.0         0.20         48.5 
      1992.0         0.10         47.7 
      1993.0         0.13         47.7 
      1994.0         0.23         45.8 
      1995.0         0.27         47.2 
      1996.0         0.23         44.4 
      1997.0         0.23         32.8 
      1998.0         0.27         26.1 
      1999.0         0.23         25.4 
      2000.0         0.20         27.2 
      2001.0         0.23         28.9 
      2002.0         0.22         31.1 
      2003.0         0.20         33.3 
      2004.0         0.37         37.6 
      2005.0         0.80         97.8 
      2006.0         1.83         98.6 
      2007.0         0.28         83.8 
      2008.0         0.37         78.5 
      2009.0         0.30         79.7 
      2010.0         0.17         64.2 
      2011.0         0.20         60.1 
      2012.0         0.30         59.0 
      2013.0         0.23         66.4 
      2014.0         0.20        158.9 
      2015.0         0.20        208.1 
      2016.0         0.20        228.2 
      2017.0         0.20        207.4 
      2018.0         0.20        194.2 
      2019.0         0.17        176.9 
      2020.0         0.20        162.4 
      2021.0         0.17        141.8 
      2022.0         0.18        139.0 
      2023.0         0.13        120.8 
      2024.0         0.17        110.2 
      2025.0         0.27        107.1 
      2026.0         0.30         96.4 
      2027.0         0.20         47.4 
      2028.0         0.23         42.2 
      2029.0         0.23         42.2 
      2030.0         0.23         42.0 
      2031.0         0.17         42.5 
      2032.0         0.20         40.7 
      2033.0         0.23         41.5 
      2034.0         0.30         42.4 
      2035.0         0.37         59.2 
      2036.0         1.95        142.8 
      2037.0         0.20        131.4 
      2038.0         0.30        118.3 
      2039.0         0.33         83.4 
      2040.0         0.27         82.2 
      2041.0         0.30         73.2 
      2042.0         0.32         65.7 
      2043.0         0.27         65.5 
      2044.0         0.30         60.5 
      2045.0         0.23         56.9 
      2046.0         0.23         56.3 
      2047.0         0.20         55.5 
      2048.0         0.23         55.5 
      2049.0         0.27         54.4 
      2050.0         0.30         54.7 
      2051.0         0.30         63.9 
      2052.0         0.30        104.1 
      2053.0         0.33        104.6 
      2054.0         0.28         75.2 
      2055.0         0.27         64.7 
      2056.0         0.27         59.7 
      2057.0         0.17         65.4 
      2058.0         0.13         65.4 
      2059.0         0.20         46.4 
      2060.0         0.20         39.1 
      2061.0         0.27         32.2 
      2062.0         0.27         30.9 
      2063.0         0.27         33.1 
      2064.0         0.20         33.1 
      2065.0         0.17         37.7 
      2066.0         3.32        141.2 
      2067.0         0.27        116.2 
      2068.0         0.23        127.4 
      2069.0         0.23        105.3 
      2070.0         0.25         74.8 
      2071.0         0.23         72.3 
      2072.0         0.17         67.8 
      2073.0         0.10         67.8 
      2074.0         0.20         65.1 
