~Version Information
VERS.                      2.0: CWLS Log ASCII Standard - VERSION 2.0
WRAP.                       NO: One line per depth step
~Well Information Block
STRT.FT               840.0000: 
STOP.FT              1912.0000: 
STEP.FT                 0.1000: 
NULL.                -999.2500: 
COMP.          Petrogulf Corporation: COMPANY
WELL.             Kraft 17-23R: WELL
FLD.           Purgatorie River: FIELD
LOC.           1509' FSL & 1673' FWL: LOCATION
PROV.                 Colorado: PROVINCE
CNTY.               Las Animas: COUNTRY
SRVC.                Patterson: SERVICE COMPANY
DATE.          Wed Oct 12 07:01:14 2005: LOG DATE
UWI.                          : UNIQUE WELL ID
~Curve Information Block
DEPT.FT            0 000 00 00: Depth
DCAL.in                       : CDL Caliper
RHOB.g/cc                     : CDL Bulk Density
RHOC.g/cc                     : CDL Density Correction
DPOR.pu                       : CDL Density Porosity
GR.GAPI                       : Gamma Ray
NPOR.pu                       : Neutron Porosity
~Parameter Information Block
~A  Depth       DCAL        RHOB        RHOC        DPOR         GR         NPOR    
# ...
   907.2000      8.0468      2.5137      0.0521      8.2605     84.6047     20.6883
   907.3000      8.0569      2.5007      0.0000      9.0475     85.5468     20.3899
   907.4000      8.0569      2.4835      0.0121     10.0907     82.9906     20.0353
   907.5000      8.0533      2.4708     -0.0220     10.8623     79.7683     19.7696
   907.6000      8.0533      2.4699      0.0048     10.9166     77.5674     19.8477
   907.7000      8.0533      2.4801      0.0498     10.2998     77.0753     20.1644
   907.8000      8.0531      2.4860      0.0895      9.9413     77.1678     20.3050
   907.9000      8.0531      2.4822      0.0122     10.1722     77.1131     20.1584
   908.0000      8.1027      2.4842      0.0064     10.0484     78.1641     19.9441
   908.1000      8.1027      2.4992      0.0271      9.1391     78.8072     19.8750
   908.2000      8.1027      2.5113      0.0605      8.4063     77.3456     20.0137
   908.3000      8.1246      2.5064      0.0618      8.7056     75.7434     20.2721
   908.4000      8.1246      2.4912      0.0355      9.6258     75.7470     20.5434
   908.5000      8.1387      2.4758      0.0595     10.5580     76.1875     20.5578
   908.6000      8.1387      2.4615      0.0770     11.4238     76.1926     20.1465
   908.7000      8.1387      2.4486      0.0420     12.2047     76.5139     19.7671
   908.8000      8.1335      2.4402      0.0638     12.7143     77.5712     19.7923
   908.9000      8.1335      2.4406      0.0429     12.6924     78.7175     19.9500
   909.0000      8.1410      2.4580      0.0393     11.6347     78.4079     20.0107
   909.1000      8.1410      2.4890      0.1154      9.7573     76.5338     20.0600
   909.2000      8.1410      2.5118      0.1522      8.3764     75.2583     20.2257
   909.3000      8.1374      2.5197      0.0861      7.8969     74.2220     20.5885
   909.4000      8.1374      2.5276      0.1215      7.4175     72.0779     20.9932
   909.5000      8.1352      2.5398      0.0973      6.6758     70.2488     21.1805
   909.6000      8.1352      2.5490      0.0691      6.1232     70.7459     21.0494
   909.7000      8.1352      2.5455      0.1218      6.3348     73.6663     20.7664
   909.8000      8.1017      2.5243      0.0855      7.6180     76.9176     20.5843
   909.9000      8.1017      2.4973      0.0571      9.2520     78.3239     20.5838
   910.0000      8.0368      2.4791      0.0552     10.3573     78.9499     20.6399
   910.1000      8.0368      2.4711      0.0201     10.8441     79.1815     20.5461
   910.2000      8.0368      2.4659     -0.0052     11.1602     78.1534     20.3598
   910.3000      8.0114      2.4573      0.0145     11.6808     77.8127     20.3726
   910.4000      8.0114      2.4547      0.0144     11.8344     79.0561     20.5520
   910.5000      8.0100      2.4697      0.0238     10.9284     79.6026     20.5963
   910.6000      8.0100      2.4921      0.0519      9.5680     78.7751     20.4962
   910.7000      8.0100      2.5055      0.0553      8.7564     79.7965     20.4793
   910.8000      8.0106      2.5072      0.0636      8.6564     82.2870     20.6662
   910.9000      8.0106      2.5104      0.0208      8.4636     81.6879     21.0539
   911.0000      8.0159      2.5245      0.1002      7.6050     79.4033     21.6453
   911.1000      8.0159      2.5380      0.0801      6.7902     81.0563     22.3461
   911.2000      8.0159      2.5407      0.0646      6.6267     86.5740     22.8522
   911.3000      8.0298      2.5389      0.0353      6.7331     91.0268     23.0712
   911.4000      8.0298      2.5387      0.0577      6.7448     92.6729     23.2725
   911.5000      8.0099      2.5396      0.0237      6.6908     92.0385     23.5847
   911.6000      8.0099      2.5397      0.0105      6.6843     90.3388     24.0624
   911.7000      8.0099      2.5311      0.0671      7.2072     91.1087     24.7626
   911.8000      8.0097      2.5217     -0.0140      7.7784     93.4733     25.4329
   911.9000      8.0097      2.5405      0.0089      6.6356     92.2468     25.7470
   912.0000      8.0006      2.5857      0.0956      3.8973     88.0548     25.5795
   912.1000      8.0006      2.6294      0.0583      1.2507     86.0046     25.1837
   912.2000      8.0006      2.6564      0.1164     -0.3870     87.2098     24.9832
   912.3000      7.9973      2.6604      0.0822     -0.6290     88.3994     25.0651
   912.4000      7.9973      2.6483      0.1123      0.1059     88.4643     25.1954
   912.5000      7.9949      2.6348      0.0746      0.9225     90.2376     25.1105
   912.6000      7.9949      2.6220      0.1124      1.6965     93.8650     24.7017
   912.7000      7.9949      2.6023      0.0843      2.8928     96.7648     24.1623
   912.8000      7.9801      2.5793      0.0361      4.2875     98.2098     23.6459
   912.9000      7.9801      2.5683      0.0209      4.9496     98.3503     23.1640
   913.0000      7.9924      2.5705      0.0298      4.8201     96.5164     22.7764
   913.1000      7.9924      2.5629      0.0643      5.2770     92.3521     22.4806
   913.2000      7.9924      2.5331      0.0192      7.0867     88.1241     22.2676
   913.3000      8.0677      2.4993      0.0089      9.1306     86.3178     22.2042
   913.4000      8.0677      2.4847     -0.0113     10.0156     86.5045     22.2398
   913.5000      8.1225      2.4951      0.0075      9.3904     86.6803     22.2822
   913.6000      8.1225      2.5126      0.0861      8.3282     87.8274     22.2070
   913.7000      8.1225      2.5209      0.0292      7.8248     90.6094     21.9094
   913.8000      8.1237      2.5279      0.0619      7.4007     92.2404     21.5440
   913.9000      8.1237      2.5376      0.0740      6.8131     93.2170     21.2987
   914.0000      8.1385      2.5378      0.1251      6.8008     97.5911     21.0947
   914.1000      8.1385      2.5264      0.0731      7.4882    104.8452     20.8458
   914.2000      8.1385      2.5171      0.1138      8.0535    110.2783     20.5519
   914.3000      8.1424      2.5128      0.1081      8.3151    114.5468     20.3869
   914.4000      8.1424      2.5093      0.1017      8.5258    120.6310     20.6876
   914.5000      8.1408      2.5071      0.0841      8.6591    125.1693     21.5456
   914.6000      8.1408      2.5116      0.0791      8.3875    123.8725     22.5822
   914.7000      8.1408      2.5263      0.1187      7.4966    119.4967     23.3925
   914.8000      8.1412      2.5413      0.1501      6.5854    117.0536     23.9777
   914.9000      8.1412      2.5466      0.1183      6.2639    118.0677     24.4383
   915.0000      8.1319      2.5457      0.0895      6.3242    121.8794     24.9854
   915.1000      8.1319      2.5454      0.1042      6.3384    124.3503     25.7268
   915.2000      8.1319      2.5487      0.1219      6.1408    121.8949     26.2504
   915.3000      8.0696      2.5521      0.1160      5.9338    117.2332     26.1852
   915.4000      8.0696      2.5551      0.1228      5.7529    113.6468     25.8334
   915.5000      8.0087      2.5636      0.0913      5.2380    110.9374     25.8872
   915.6000      8.0087      2.5769      0.1041      4.4315    109.2632     26.4257
   915.7000      8.0087      2.5862      0.0831      3.8648    109.3361     26.8640
   915.8000      7.9970      2.5915      0.0792      3.5459    109.2247     26.9575
   915.9000      7.9970      2.5964      0.0719      3.2497    107.0955     27.0082
   916.0000      8.0008      2.5917      0.0932      3.5353    104.1911     27.1147
   916.1000      8.0008      2.5666      0.0602      5.0553    102.8866     26.9398
   916.2000      8.0008      2.5340      0.0240      7.0293    103.1716     26.2891
   916.3000      8.0042      2.5139      0.0083      8.2476    103.5682     25.3981
   916.4000      8.0042      2.5021      0.0061      8.9650    103.0721     24.6568
   916.5000      8.0034      2.4824     -0.0343     10.1587    101.9222     24.3932
   916.6000      8.0034      2.4533     -0.0221     11.9205    100.6893     24.5236
   916.7000      8.0034      2.4334     -0.0803     13.1295     98.6288     24.4876
