~Version Information
VERS.                      2.0: CWLS Log ASCII Standard - VERSION 2.0
WRAP.                       NO: One line per depth step
~Well Information Block
STRT.FT               -15.7500: 
STOP.FT              1862.5000: 
STEP.FT                 0.2500: 
NULL.                -999.2500: 
COMP.          XTO Energy Inc.: COMPANY
WELL.          Golden Eagle 19-11: WELL
FLD.           Purgatorie River: FIELD
LOC.           2351' FSL &1926' WL--: LOCATION
CNTY.               Las Animas: COUNTY
SRVC.          Patterson Wireline: SERVICE COMPANY
DATE.          Fri Mar 24 16:29:29 2006: LOG DATE
UWI.           05 071 08696 00: UNIQUE WELL ID
STAT.                       CO: STATE
~Curve Information Block
DEPT.FT            0 000 00 00: Depth
CCL.                          : Casing Collar Locator
TT3.usec                      : CBL 3' Travel Time
AMP3.mV                       : CBL 3' Amplitude
GR.GAPI                       : Gamma Ray
~Parameter Information Block
~A  Depth       CCL         TT3         AMP3         GR     
# ...
   855.2500      0.0000    604.5919      5.6842    113.7725
   855.5000      0.0000    635.2445      6.0223     97.5864
   855.7500      0.0000    649.6476      6.4010     80.9941
   856.0000      0.0000    646.1456      6.7790     67.1150
   856.2500      0.0000    630.1945      7.0466     58.1433
   856.5000      0.0000    612.1973      7.0853     54.1482
   856.7500      0.0000    602.9695      6.8786     53.1887
   857.0000      0.0000    607.8620      6.5391     52.9120
   857.2500      0.0000    624.4973      6.2066     52.5350
   857.5000      0.0000    646.9254      5.9411     53.2782
   857.7500      0.0000    670.5784      5.7234     56.5855
   858.0000      2.0000    692.8562      5.5240     62.0252
   858.2500      0.0000    712.0234      5.3496     67.3784
   858.5000      0.0000    727.3858      5.2330     70.8258
   858.7500      0.0000    739.3117      5.1886     72.6694
   859.0000      0.0000    748.8636      5.1710     74.7928
   859.2500      0.0000    758.2820      5.0918     78.8765
   859.5000      0.0000    770.5233      4.8957     85.3166
   859.7500      0.0000    786.4116      4.6131     93.2843
   860.0000      0.0000    802.8522      4.3250    101.5480
   860.2500      0.0000    814.8677      4.0917    109.5938
   860.5000      0.0000    818.6030      3.9272    117.8225
   860.7500      0.0000    812.3566      3.8210    126.1139
   861.0000      0.0000    796.5544      3.7620    132.7409
   861.2500      0.0000    774.2495      3.7417    135.7488
   861.5000      0.0000    751.0101      3.7491    135.2320
   861.7500      0.0000    732.7301      3.7684    133.6101
   862.0000      0.0000    722.7906      3.7836    133.8255
   862.2500      0.0000    721.0939      3.7839    137.4324
   862.5000      0.0000    725.2927      3.7661    143.8299
   862.7500      0.0000    732.3849      3.7338    150.8931
   863.0000      0.0000    739.4676      3.6938    156.5203
   863.2500      0.0000    744.3392      3.6493    159.9355
   863.5000      0.0000    746.3824      3.5973    161.6826
   863.7500      0.0000    746.3667      3.5318    162.5869
   864.0000      0.0000    744.6227      3.4501    162.9593
   864.2500      0.0000    740.1296      3.3584    162.5313
   864.5000      0.0000    732.3313      3.2698    160.6351
   864.7500      0.0000    723.0112      3.1974    156.5528
   865.0000      0.0000    715.1700      3.1456    150.2613
   865.2500      0.0000    710.4261      3.1091    142.8620
   865.5000      0.0000    708.1910      3.0809    135.8672
   865.7500      0.0000    706.8376      3.0632    130.0119
   866.0000      0.0000    705.0912      3.0693    125.1190
   866.2500      0.0000    702.8276      3.1153    121.2146
   866.5000      0.0000    701.3018      3.2081    119.1195
   866.7500      0.0000    702.6122      3.3400    119.2798
   867.0000      0.0000    708.2126      3.4931    120.2797
   867.2500      0.0000    717.3575      3.6495    119.4503
   867.5000      0.0000    726.8658      3.8001    115.3445
   867.7500      0.0000    732.8390      3.9467    109.2748
   868.0000      0.0000    733.3864      4.0978    104.1010
   868.2500      0.0000    729.9322      4.2659    101.7064
   868.5000      0.0000    725.5892      4.4620    101.7828
   868.7500      0.0000    722.2723      4.6831    102.5091
   869.0000      0.0000    719.7047      4.8965    101.8707
   869.2500      0.0000    716.9734      5.0405     98.8208
   869.5000      0.0000    714.1389      5.0515     93.9413
   869.7500      0.0000    711.9555      4.9033     89.0611
   870.0000      0.0000    710.8118      4.6250     86.0709
   870.2500      0.0000    710.5615      4.2849     86.0880
   870.5000      0.0000    711.0330      3.9532     89.2269
   870.7500      0.0000    712.2899      3.6710     94.5683
   871.0000      0.0000    714.3566      3.4437    100.7172
   871.2500      0.0000    716.7358      3.2575    106.9965
   871.5000      0.0000    718.3694      3.0964    113.8102
   871.7500      0.0000    718.3975      2.9503    121.5364
   872.0000      0.0000    717.0399      2.8150    129.6134
   872.2500      0.0000    715.5143      2.6929    136.9356
   872.5000      0.0000    715.4238      2.5945    142.5251
   872.7500      0.0000    718.4414      2.5355    145.7089
   873.0000      0.0000    725.5410      2.5276    146.4604
   873.2500      0.0000    735.3181      2.5711    146.1142
   873.5000      0.0000    743.7386      2.6558    147.1463
   873.7500      0.0000    747.1549      2.7679    151.2320
   874.0000      0.0000    745.6719      2.8959    157.2437
   874.2500      0.0000    742.8879      3.0315    161.6219
   874.5000      0.0000    742.7558      3.1666    160.9884
   874.7500      0.0000    747.1168      3.2904    154.5388
   875.0000      0.0000    754.9839      3.3914    144.5181
   875.2500      0.0000    762.8174      3.4614    134.9635
   875.5000      0.0000    766.1130      3.4989    129.5943
   875.7500      0.0000    762.6404      3.5084    129.9427
   876.0000      0.0000    754.7800      3.4976    134.8683
   876.2500      0.0000    747.4865      3.4739    141.4943
   876.5000      0.0000    743.3477      3.4435    146.7457
   876.7500      0.0000    740.7368      3.4124    148.7502
   877.0000      0.0000    737.3016      3.3885    147.2343
   877.2500      0.0000    733.7603      3.3808    142.7214
   877.5000      0.0000    733.2873      3.3989    135.7995
   877.7500      0.0000    738.0488      3.4529    127.2863
   878.0000      0.0000    746.7717      3.5481    118.3440
   878.2500      0.0000    755.0572      3.6728    109.9108
   878.5000      0.0000    758.2224      3.7941    102.5455
   878.7500      0.0000    754.7786      3.8727     97.3812
   879.0000      0.0000    747.2939      3.8874     96.7288
   879.2500      0.0000    739.5283      3.8455    102.7548
   879.5000      0.0000    733.1178      3.7725    115.2971
   879.7500      0.0000    727.6249      3.6941    131.1127
   880.0000      0.0000    723.0092      3.6276    145.1789
   880.2500      0.0000    720.6235      3.5828    153.0878
   880.5000      0.0000    721.7465      3.5644    153.3337
   880.7500      0.0000    726.1625      3.5700    148.1351
   881.0000      0.0000    732.3758      3.5885    142.0555
   881.2500      0.0000    738.8359      3.6086    139.2890
   881.5000      0.0000    745.2527      3.6288    141.2977
   881.7500      0.0000    752.8591      3.6592    146.2129
   882.0000      0.0000    762.2368      3.7130    150.4937
   882.2500      0.0000    770.4167      3.7961    151.7168
   882.5000      0.0000    771.8856      3.9039    150.1386
   882.7500      0.0000    763.8258      4.0274    147.7332
   883.0000      0.0000    749.4512      4.1615    146.0269
   883.2500      0.0000    735.2454      4.3042    144.9384
   883.5000      0.0000    725.6113      4.4447    143.3490
   883.7500      0.0000    720.5241      4.5571    140.4974
   884.0000      0.0000    717.4963      4.6118    136.9465
   884.2500      0.0000    715.0347      4.5920    134.1494
   884.5000      0.0000    713.9843      4.4991    132.7654
   884.7500      0.0000    715.2859      4.3446    131.6389
   885.0000      0.0000    717.0137      4.1392    129.0795
   885.2500      0.0000    715.3173      3.8880    124.9599
   885.5000      0.0000    708.9708      3.5965    120.9035
   885.7500      0.0000    701.8123      3.2835    118.4542
   886.0000      0.0000    699.8053      2.9839    117.7307
   886.2500      0.0000    705.9788      2.7345    117.8649
   886.5000      0.0000    718.1755      2.5552    117.9220
   886.7500      0.0000    730.8741      2.4427    117.1346
   887.0000      0.0000    738.5545      2.3796    114.9890
   887.2500      0.0000    737.8979      2.3479    111.5735
   887.5000      0.0000    728.6284      2.3390    107.6546
   887.7500      0.0000    713.8050      2.3539    104.2663
   888.0000      0.0000    699.1471      2.3984    102.0514
   888.2500      0.0000    690.8124      2.4773    100.6108
   888.5000      0.0000    692.3814      2.5899     98.6887
