~Version Information
 VERS.                                  2.0 : CWLS LAS VERSION
 WRAP.                                   NO : WRAPING MODE
 SWARE .                 MController 2.5.0N : SOFTWARE VERSION
~Well Information
 WELL.                        Cayenne 23-23 : WELL
 COMP.    Pioneer Natural Resources USA Inc : COMPANY
 FLD.                      Purgatoire River : FIELD
 LOC.                 NE/SW SEC23 T32S R66W : LOCATION
 DATE.                          08/16-17/05 : DATE(S) LOGGED
 SRVC.       Blanco Geological Services LLC : SERVICE COMPANY
 STAT.                             Colorado : STATE
 CNTY.                           Las Animas : COUNTY
 CTRY.                                  USA : COUNTRY
 API.                       05-071-08476-00 : API NUMBER
 STRT.FT                             901.00 : START DEPTH
 STOP.FT                            2365.00 : STOP DEPTH
 STEP.FT                               1.00 : DEPTH INCREMENT
 NULL.                                -9999 : NULL VALUE
~Curve information
 DEPTH.FT                                   :
 ROP.MIN/FT                                 :
 GAS.UNITS                                  :
~ASCII Log data
# ...
      1501.0         0.20        582.5 
      1502.0         0.23        558.6 
      1503.0         0.25        549.3 
      1504.0         0.33        557.4 
      1505.0         0.30        522.2 
      1506.0         0.30        473.2 
      1507.0         0.23        453.9 
      1508.0         0.17        456.8 
      1509.0         0.20        519.3 
      1510.0         0.20        552.5 
      1511.0         0.17        570.6 
      1512.0         0.17        576.0 
      1513.0         0.20        585.1 
      1514.0         0.20        583.1 
      1515.0         0.20        579.3 
      1516.0         0.20        572.2 
      1517.0         0.17        567.0 
      1518.0         0.12        562.5 
      1519.0         0.13        564.4 
      1520.0         0.20        571.5 
      1521.0         0.30        579.9 
      1522.0         0.23        580.2 
      1523.0         0.50        578.9 
      1524.0         0.27        562.8 
      1525.0         0.30        571.2 
      1526.0         5.57       1660.5 
      1527.0         0.73       2053.0 
      1528.0         0.57       1553.5 
      1529.0         0.57        843.2 
      1530.0         0.40        642.1 
      1531.0         0.38        646.0 
      1532.0         0.40        633.4 
      1533.0         0.33        601.5 
      1534.0         0.33        579.9 
      1535.0         0.27        567.3 
      1536.0         0.33        566.4 
      1537.0         0.27        569.9 
      1538.0         0.23        573.5 
      1539.0         0.53        576.7 
      1540.0         0.45        576.7 
      1541.0         0.20        569.9 
      1542.0         0.23        568.6 
      1543.0         0.20        559.9 
      1544.0         0.20        550.6 
      1545.0         0.23        549.6 
      1546.0         0.20        548.3 
      1547.0         0.20        548.3 
      1548.0         0.20        552.2 
      1549.0         0.23        554.8 
      1550.0         0.23        556.1 
      1551.0         0.20        553.5 
      1552.0         0.27        553.5 
      1553.0         0.23        552.8 
      1554.0         0.23        555.1 
      1555.0         0.22        557.4 
      1556.0         3.95        882.5 
      1557.0         0.17        966.3 
      1558.0         0.43       1189.0 
      1559.0         0.40       1194.1 
      1560.0         0.30        997.2 
      1561.0         0.30        810.7 
      1562.0         0.33        676.3 
      1563.0         0.23        650.2 
      1564.0         0.20        650.8 
      1565.0         0.32        654.4 
      1566.0         0.33        643.1 
      1567.0         0.30        618.6 
      1568.0         0.27        591.2 
      1569.0         0.30        567.7 
      1570.0         0.30        559.0 
      1571.0         0.30        568.6 
      1572.0         0.30        576.7 
      1573.0         0.33        580.6 
      1574.0         0.27        580.2 
      1575.0         0.30        575.4 
      1576.0         0.28        571.2 
      1577.0         0.23        567.3 
      1578.0         0.23        565.7 
      1579.0         0.20        561.9 
      1580.0         0.23        563.5 
      1581.0         0.30        563.5 
      1582.0         0.20        559.0 
      1583.0         0.13        556.7 
      1584.0         0.17        553.5 
      1585.0         0.17        552.8 
      1586.0         4.45       1098.4 
      1587.0         0.32       1405.6 
      1588.0         0.53       1682.7 
      1589.0         0.60       1638.2 
      1590.0         0.50        968.6 
      1591.0         0.40        695.0 
      1592.0         0.47        671.8 
      1593.0         0.40        641.8 
      1594.0         0.55        608.6 
      1595.0         0.50        560.3 
      1596.0         0.53        566.4 
      1597.0         0.53        566.4 
      1598.0         0.33        554.5 
      1599.0         0.27        550.6 
      1600.0         0.30        553.5 
      1601.0         0.40        552.5 
      1602.0         0.23        557.0 
      1603.0         0.28        562.5 
      1604.0         0.27        568.3 
      1605.0         0.37        571.9 
      1606.0         0.43        566.1 
      1607.0         0.30        560.6 
      1608.0         0.30        556.7 
      1609.0         0.37        553.5 
      1610.0         0.33        545.4 
      1611.0         0.20        531.9 
      1612.0         0.23        529.0 
      1613.0         0.35        525.1 
      1614.0         0.47        545.8 
      1615.0         0.63        597.3 
      1616.0         3.48       1205.4 
      1617.0         0.43       1718.2 
      1618.0         0.70       1877.4 
      1619.0         0.92       1337.9 
      1620.0         0.57        663.4 
      1621.0         0.53        637.3 
      1622.0         0.40        579.3 
      1623.0         0.47        556.1 
      1624.0         0.43        528.0 
      1625.0         0.50        548.0 
      1626.0         0.72        563.5 
      1627.0         0.57        557.0 
      1628.0         0.53        548.0 
      1629.0         0.53        546.7 
      1630.0         0.70        547.4 
      1631.0         0.75        546.1 
      1632.0         0.70        546.1 
      1633.0         0.87        542.2 
      1634.0         0.67        534.8 
      1635.0         0.47        531.2 
      1636.0         0.23        528.0 
      1637.0         0.20        521.9 
      1638.0         0.35        523.2 
      1639.0         0.37        529.6 
      1640.0         0.37        544.5 
      1641.0         0.37        549.6 
      1642.0         0.43        547.0 
      1643.0         0.50        536.4 
      1644.0         0.60        518.4 
      1645.0         0.33        520.0 
      1646.0         6.10       2520.9 
      1647.0         0.50       2312.7 
      1648.0         0.38       1366.2 
      1649.0         0.30        850.0 
      1650.0         0.27        644.0 
      1651.0         0.27        554.1 
      1652.0         0.27        569.0 
      1653.0         0.33        605.7 
      1654.0         0.30        610.8 
      1655.0         0.20        602.5 
      1656.0         0.27        595.7 
      1657.0         0.17        576.7 
      1658.0         0.17        564.4 
      1659.0         0.33        556.7 
      1660.0         0.28        545.1 
      1661.0         0.23        534.8 
      1662.0         0.30        527.1 
      1663.0         0.33        511.3 
      1664.0         0.33        513.5 
      1665.0         0.23        521.9 
      1666.0         0.23        526.4 
      1667.0         0.23        528.7 
      1668.0         0.30        521.9 
      1669.0         0.30        516.1 
      1670.0         0.27        503.9 
      1671.0         0.43        492.9 
      1672.0         0.55        510.6 
      1673.0         0.43        517.4 
      1674.0         0.60        521.3 
      1675.0         0.57        547.0 
      1676.0         7.67       3728.4 
      1677.0         0.62       2403.0 
      1678.0         0.43       1008.5 
      1679.0         0.80        618.9 
      1680.0         0.57        536.1 
      1681.0         0.53        555.1 
      1682.0         0.63        555.7 
      1683.0         0.28        518.4 
      1684.0         0.27        501.3 
      1685.0         0.30        483.9 
      1686.0         0.33        472.0 
      1687.0         0.43        477.1 
      1688.0         0.37        491.9 
      1689.0         0.33        503.2 
      1690.0         0.33        508.7 
      1691.0         0.33        508.0 
      1692.0         0.33        502.6 
      1693.0         0.25        498.7 
      1694.0         0.23        491.0 
      1695.0         0.23        492.3 
      1696.0         0.20        486.5 
      1697.0         0.23        486.1 
      1698.0         0.23        483.6 
      1699.0         0.27        481.9 
      1700.0         0.20        477.8 
