~Version Information
VERS.                      2.0: CWLS Log ASCII Standard - VERSION 2.0
WRAP.                       NO: One line per depth step
~Well Information Block
STRT.FT                -6.0000: 
STOP.FT               783.7500: 
STEP.FT                 0.2500: 
NULL.                -999.2500: 
COMP.          Pioneer Natural Resources: COMPANY
WELL.           Weissach 32-32: WELL
FLD.           Purgatorie River: FIELD
LOC.           --2193' FNL & 2256' FEL--: LOCATION
STAT.                       CO: State
CNTY.               Las Animas: COUNTY
CTRY. USA : Country
SECT. 32 : Section
TOWN. 33S : Township
RANG. 65W : Range
SRVC.          Patterson Wireline: SERVICE COMPANY
DATE.          Thu Sep 29 12:52:09 2005: LOG DATE
API.           05 071 08523 00: UNIQUE WELL ID
~Curve Information Block
DEPT.FT            0 000 00 00: Depth
CCL.                          : Casing Collar Locator
TT3.usec                      : CBL 3' Travel Time
AMP3.mV                       : CBL 3' Amplitude
GR.GAPI                       : Gamma Ray
~Parameter Information Block
~A  Depth       CCL         TT3         AMP3         GR     
# ...
   597.0000      0.0000    676.4241      7.3144     83.6157
   597.2500      0.0000    666.3304      7.2226     81.9267
   597.5000      0.0000    659.9874      7.0812     81.1255
   597.7500      0.0000    660.2915      6.9197     80.9184
   598.0000      0.0000    666.7904      6.7642     81.2200
   598.2500      0.0000    676.2057      6.6334     82.9229
   598.5000      0.0000    684.8734      6.5422     87.0493
   598.7500      0.0000    690.7787      6.5046     93.2115
   599.0000      0.0000    693.8525      6.5309     99.5298
   599.2500      0.0000    695.0386      6.6218    104.2883
   599.5000      0.0000    695.3393      6.7702    107.0866
   599.7500      0.0000    695.4209      6.9626    107.9854
   600.0000      0.0000    695.6151      7.1781    106.3121
   600.2500      0.0000    696.0176      7.3883    101.2236
   600.5000      0.0000    696.5748      7.5656     93.2765
   600.7500      0.0000    697.1685      7.6904     84.9174
   601.0000      0.0000    697.6832      7.7520     79.3083
   601.2500      0.0000    698.0688      7.7546     78.4988
   601.5000      0.0000    698.4080      7.7282     82.2639
   601.7500      0.0000    698.9804      7.7253     88.4148
   602.0000      0.0000    700.3209      7.7898     94.2496
   602.2500      0.0000    703.2050      7.9275     97.8276
   602.5000      0.0000    708.3035      8.1076     98.3715
   602.7500      0.0000    715.4197      8.2861     96.2731
   603.0000      0.0000    722.9355      8.4235     92.9280
   603.2500      0.0000    728.4017      8.4917     90.1014
   603.5000      0.0000    730.0575      8.4809     88.9849
   603.7500      0.0000    727.8354      8.4048     89.6408
   604.0000      0.0000    722.9999      8.2906     91.2634
   604.2500      0.0000    717.2089      8.1621     93.0804
   604.5000      0.0000    712.1270      8.0334     95.0040
   604.7500      0.0000    709.4819      7.9169     97.3076
   605.0000      0.0000    710.6004      7.8259     99.8404
   605.2500      0.0000    715.4959      7.7651    101.8800
   605.5000      0.0000    722.5106      7.7225    102.6900
   605.7500      0.0000    728.7842      7.6784    101.9730
   606.0000      0.0000    731.0768      7.6265     99.8325
   606.2500      0.0000    727.1741      7.5839     96.6045
   606.5000      0.0000    717.8508      7.5747     92.8412
   606.7500      0.0000    707.1461      7.5979     89.2274
   607.0000      0.0000    699.4315      7.6189     86.1969
   607.2500      0.0000    696.1977      7.5958     83.4957
   607.5000      0.0000    696.0875      7.5152     80.1970
   607.7500      0.0000    697.2554      7.3965     75.5505
   608.0000      0.0000    699.0307      7.2662     69.9886
   608.2500      0.0000    701.7731      7.1409     64.7889
   608.5000      0.0000    705.6196      7.0338     60.4980
   608.7500      0.0000    709.3719      6.9659     56.3941
   609.0000      0.0000    710.8903      6.9609     51.8793
   609.2500      0.0000    709.0341      7.0261     47.6985
   609.5000      0.0000    704.8937      7.1399     45.2923
   609.7500      0.0000    700.6992      7.2569     45.4659
   610.0000      0.0000    697.8785      7.3285     47.9241
   610.2500      0.0000    696.4626      7.3282     51.5303
   610.5000      0.0000    695.8274      7.2611     54.6578
   610.7500      0.0000    695.4569      7.1511     55.8163
   611.0000      0.0000    695.1321      7.0197     54.5859
   611.2500      0.0000    694.8067      6.8805     52.0986
   611.5000      0.0000    694.4873      6.7509     50.3710
   611.7500      0.0000    694.1885      6.6592     50.9084
   612.0000      0.0000    693.9481      6.6339     53.6628
   612.2500      0.0000    693.8167      6.6845     57.2294
   612.5000      0.0000    693.8079      6.7959     60.1398
   612.7500      0.0000    693.8693      6.9429     62.0632
   613.0000      0.0000    693.9241      7.1088     63.7237
   613.2500      0.0000    693.9335      7.2904     65.7148
   613.5000      0.0000    693.9056      7.4835     67.7104
   613.7500      0.0000    693.8674      7.6686     68.8817
   614.0000      0.0000    693.8516      7.8130     68.6834
   614.2500      0.0000    693.8975      7.8884     67.1812
   614.5000      0.0000    694.0369      7.8901     64.9865
   614.7500      0.0000    694.2659      7.8419     63.0139
   615.0000      0.0000    694.5317      7.7795     62.1808
   615.2500      0.0000    694.7709      7.7247     63.1909
   615.5000      0.0000    694.9704      7.6776     66.1581
   615.7500      0.0000    695.2799      7.6348     70.2046
   616.0000      0.0000    696.1743      7.6065     73.9584
   616.2500      0.0000    698.6032      7.6101     76.7688
   616.5000      0.0000    703.6384      7.6496     78.8815
   616.7500      0.0000    711.1668      7.7045     80.2531
   617.0000      0.0000    718.6988      7.7417     80.0969
   617.2500      0.0000    722.6114      7.7392     78.1674
   617.5000      0.0000    721.8138      7.7023     75.7812
   617.7500      0.0000    719.4697      7.6611     74.7562
   618.0000      0.0000    719.6785      7.6524     75.5141
   618.2500      0.0000    722.8735      7.6972     76.7312
   618.5000      0.0000    726.0654      7.7866     76.9093
   618.7500      0.0000    727.5925      7.8903     75.9836
   619.0000      0.0000    729.5916      7.9842     75.1301
   619.2500      0.0000    734.7542      8.0703     75.1737
   619.5000      0.0000    742.4232      8.1654     75.5996
   619.7500      0.0000    749.5295      8.2738     75.1962
   620.0000      0.0000    754.1719      8.3743     73.3250
   620.2500      0.0000    756.8549      8.4339     70.3719
   620.5000      0.0000    759.2762      8.4356     67.2049
   620.7500      0.0000    763.1246      8.3971     64.4452
   621.0000      0.0000    769.1195      8.3610     62.2099
   621.2500      0.0000    776.3454      8.3619     60.2687
   621.5000      0.0000    783.0937      8.4009     58.4449
   621.7500      0.0000    788.4703      8.4543     57.0571
   622.0000      0.0000    792.7325      8.5038     56.8126
   622.2500      0.0000    796.3308      8.5528     58.0283
   622.5000      0.0000    799.2569      8.6122     60.2244
   622.7500      0.0000    801.0044      8.6711     62.6471
   623.0000      0.0000    800.0228      8.6808     64.7790
   623.2500      0.0000    793.2250      8.5634     66.3458
   623.5000      0.0000    778.1056      8.2650     67.4407
   623.7500      0.0000    757.2379      7.8457     68.7162
   624.0000      0.0000    739.9836      7.5028     70.7852
   624.2500      0.0000    737.1024      7.4220     73.3667
   624.5000      0.0000    751.8292      7.5953     75.4542
   624.7500      0.0000    776.3365      7.8562     76.1772
   625.0000      0.0000    797.8678      8.0803     75.1279
   625.2500      0.0000    808.9970      8.2727     72.3075
   625.5000      0.0000    812.2000      8.4828     68.5213
   625.7500      2.0000    814.5783      8.7240     65.5189
   626.0000      0.0000    818.4199      8.9829     64.8485
   626.2500      0.0000    817.1063      9.2703     66.3895
   626.5000      0.0000    801.2633      9.6556     68.4045
   626.7500      0.0000    770.2179     10.2326     69.1139
   627.0000      0.0000    737.4390     10.9999     68.1052
   627.2500      0.0000    722.3270     11.7814     66.4546
   627.5000      0.0000    733.8627     12.3249     65.8579
   627.7500      0.0000    762.5621     12.4803     67.5123
   628.0000      0.0000    789.4261     12.2503     71.3209
   628.2500      0.0000    801.3057     11.7181     75.9885
   628.5000      0.0000    797.5242     10.9981     79.9969
   628.7500      0.0000    785.7599     10.2346     82.5110
   629.0000      0.0000    774.8022      9.5813     83.4373
   629.2500      0.0000    769.6404      9.1457     83.0617
   629.5000      0.0000    769.9667      8.9479     81.8862
   629.7500      0.0000    772.0362      8.9297     80.5088
   630.0000      0.0000    772.3931      9.0075     79.4197
   630.2500      0.0000    769.9866      9.1216     79.1064
