~Version Information
VERS.                      2.0: CWLS Log ASCII Standard - VERSION 2.0
WRAP.                       NO: One line per depth step
~Well Information Block
STRT.FT               240.0000: 
STOP.FT               902.0000: 
STEP.FT                 0.1000: 
NULL.                -999.2500: 
COMP.          Pioneer Natural Resources: COMPANY
WELL.          Bienville 31-28: WELL
FLD.           Purgatoire River: FIELD
LOC.           1212' FNL & 2271' FEL: LOCATION
PROV.                 Colorado: PROVINCE
CNTY.               Las Animas: COUNTRY
SRVC.                Patterson: SERVICE COMPANY
DATE.          Mon Jan 16 13:39:21 2006: LOG DATE
UWI.           05 071 08666 00: UNIQUE WELL ID
~Curve Information Block
DEPT.FT            0 000 00 00: Depth
DCAL.in                       : CDL Caliper
RHOB.g/cc                     : CDL Bulk Density
RHOC.g/cc                     : CDL Density Correction
DPOR.pu                       : CDL Density Porosity
GR.GAPI                       : Gamma Ray
NPOR.pu                       : Neutron Porosity
~Parameter Information Block
~A  Depth       DCAL        RHOB        RHOC        DPOR         GR         NPOR    
   240.0000      4.3370      2.1007      0.5800     33.2885     90.8550     15.0899
   240.1000      4.3370      2.1402      0.5812     30.8974     89.2754     15.6468
   240.2000      4.3370      2.1705      0.6326     29.0596     84.8717     15.7414
   240.3000      4.3365      2.1784      0.6009     28.5848     80.1765     15.2170
   240.4000      4.3365      2.1753      0.6118     28.7688     81.4670     14.5135
   240.5000      4.3341      2.1752      0.5784     28.7729     86.6536     13.8151
   240.6000      4.3341      2.1780      0.5947     28.6052     86.5170     13.2783
   240.7000      4.3341      2.1756      0.5983     28.7496     78.6153     13.2197
   240.8000      4.3389      2.1610      0.5572     29.6390     67.7798     13.6869
   240.9000      4.3389      2.1274      0.5891     31.6720     58.1008     14.1597
   241.0000      4.3381      2.0731      0.5349     34.9661     53.5157     14.0296
   241.1000      4.3381      2.0128      0.5315     38.6159     56.5419     13.5598
   241.2000      4.3381      1.9567      0.5455     42.0206     64.2097     13.4165
   241.3000      4.3351      1.8889      0.5460     46.1249     70.2434     13.6669
   241.4000      4.3351      1.7946      0.5073     51.8397     73.3657     14.1848
   241.5000      4.3257      1.6886      0.4205     58.2678     77.1629     15.1593
   241.6000      4.3257      1.5923      0.4527     64.1036     80.9808     16.2144
   241.7000      4.3257      1.4959      0.4476     69.9433     79.6799     16.5472
   241.8000      4.3384      1.3844      0.3619     76.7036     73.8073     16.3438
   241.9000      4.3384      1.2649      0.3631     83.9477     70.3888     16.2585
   242.0000      4.3401      1.1464      0.2937     91.1275     73.4148     16.4995
   242.1000      4.3401      1.0262      0.3188     98.4143     79.4280     16.8576
   242.2000      4.3401      0.8997      0.1872    106.0810     83.2401     17.1933
   242.3000      4.3382      0.7709      0.1596    113.8835     84.5810     17.5523
   242.4000      4.3382      0.6398      0.0406    121.8326     87.0109     17.7989
   242.5000      4.3372      0.4966     -0.0267    130.5089     91.8013     17.7511
   242.6000      4.3372      0.3369     -0.1856    140.1874     96.1828     17.8891
   242.7000      4.3372      0.1817     -0.3949    149.5943    100.1703     18.7369
   242.8000      4.3381      0.0622     -0.4877    156.8342    104.7703     19.5369
   242.9000      4.3381     -0.0221     -0.5212    161.9436    106.7813     19.3369
   243.0000      4.3393     -0.1003     -0.5627    166.6871    106.7152     18.5168
   243.1000      4.3393     -0.1832     -0.7402    171.7062    107.1629     18.2384
   243.2000      4.3393     -0.2544     -0.7916    176.0241    107.9154     18.7222
   243.3000      4.3374     -0.3081     -0.8103    179.2816    108.5102     19.2152
   243.4000      4.3374     -0.3429     -0.9283    181.3880    108.9658     19.5044
   243.5000      4.3380     -0.3460     -0.8849    181.5784    110.1169     20.0159
   243.6000      4.3380     -0.3133     -0.8912    179.5935    113.4623     20.7390
   243.7000      4.3380     -0.2418     -0.8267    175.2620    115.5045     21.2938
   243.8000      4.3383     -0.0865     -0.7994    165.8465    110.5158     21.7116
   243.9000      4.3383      0.2664     -0.7370    144.4609    102.4991     22.2643
   244.0000      4.3376      0.8889     -0.6362    106.7341     97.7318     22.6208
   244.1000      4.3376      1.6265     -0.2090     62.0308     95.4410     22.1090
   244.2000      4.3376      2.1964     -0.0937     27.4882     94.1391     21.0894
   244.3000      4.7345      2.4854      0.0334      9.9741     94.9255     20.5198
   244.4000      4.7345      2.5743      0.0178      4.5882     99.4784     20.5138
   244.5000      7.6699      2.5606      0.0728      5.4155    105.3729     20.6409
   244.6000      7.6699      2.4727      0.0281     10.7475    108.3562     20.7285
   244.7000      7.6699      2.3465     -0.4209     18.3960    106.5427     20.8116
   244.8000      8.0721      2.2622     -0.4525     23.5025    102.1154     20.8379
   244.9000      8.0721      2.2393     -0.4180     24.8930    100.4392     20.4752
   245.0000      8.0634      2.2203     -0.3862     26.0420    101.1888     19.6853
   245.1000      8.0634      2.1670     -0.4939     29.2706    100.5594     19.6009
   245.2000      8.0634      2.0836     -0.4239     34.3251     97.6290     20.4657
   245.3000      8.0649      1.9748     -0.5579     40.9230     97.2889     20.7039
   245.4000      8.0649      1.8549     -0.6074     48.1885    101.8834     19.7586
   245.5000      8.0623      1.7489     -0.6385     54.6134    102.2873     18.8789
   245.6000      8.0623      1.6700     -0.6989     59.3942     93.8424     18.7423
   245.7000      8.0623      1.6165     -0.6717     62.6349     83.3337     18.8870
   245.8000      8.0682      1.5730     -0.6929     65.2713     77.0111     19.0631
   245.9000      8.0682      1.5226     -0.7280     68.3261     74.2290     19.5527
   246.0000      8.0673      1.4647     -0.7574     71.8364     71.3124     20.2829
   246.1000      8.0673      1.4171     -0.7912     74.7222     69.5083     20.9121
   246.2000      8.0673      1.4014     -0.8013     75.6743     69.6942     21.4955
   246.3000      8.0630      1.4236     -0.7588     74.3255     68.8045     22.1532
   246.4000      8.0630      1.4750     -0.7346     71.2131     66.6801     22.5314
   246.5000      8.0585      1.5519     -0.7290     66.5508     64.5122     22.6780
   246.6000      8.0585      1.6595     -0.7158     60.0327     63.2732     23.0804
   246.7000      8.0585      1.7878     -0.6332     52.2516     66.2031     23.2566
   246.8000      8.0639      1.9086     -0.6122     44.9324     73.1584     22.8245
   246.9000      8.0639      2.0165     -0.6553     38.3913     78.8388     22.4428
   247.0000      8.0636      2.1228     -0.5414     31.9500     79.1615     22.1070
   247.1000      8.0636      2.2161     -0.5639     26.2960     74.7269     21.4365
   247.2000      8.0636      2.2823     -0.5187     22.2834     70.3023     20.7320
   247.3000      8.0622      2.3292     -0.4857     19.4422     68.2556     20.1005
   247.4000      8.0622      2.3751     -0.5175     16.6616     66.8552     19.2840
   247.5000      8.0651      2.4106     -0.3624     14.5082     66.5129     18.3800
   247.6000      8.0651      2.4005     -0.4065     15.1215     69.3741     17.6539
   247.7000      8.0651      2.3611     -0.5386     17.5090     74.1821     17.0062
   247.8000      8.0615      2.3496     -0.5324     18.2040     78.0602     16.1780
   247.9000      8.0615      2.3811     -0.4970     16.2958     80.0726     15.3608
   248.0000      8.0557      2.4351     -0.4252     13.0257     79.8924     14.7152
   248.1000      8.0557      2.4835     -0.3561     10.0918     78.2799     13.8040
   248.2000      8.0557      2.4966     -0.3199      9.2953     79.9411     12.7527
   248.3000      8.0671      2.4732     -0.4083     10.7165     87.3795     12.3412
   248.4000      8.0671      2.4412     -0.4024     12.6544     92.2817     12.5310
   248.5000      8.0651      2.4243     -0.4512     13.6779     89.9544     12.3653
   248.6000      8.0651      2.4206     -0.3973     13.9010     87.3694     12.0336
   248.7000      8.0651      2.4136     -0.4534     14.3276     87.7443     12.4950
   248.8000      8.0671      2.3995     -0.3843     15.1831     88.8492     13.4280
   248.9000      8.0671      2.3941     -0.4483     15.5111     86.5859     14.0116
   249.0000      8.0701      2.4146     -0.4198     14.2675     80.0284     13.9683
   249.1000      8.0701      2.4502     -0.3250     12.1070     73.2208     13.6430
   249.2000      8.0701      2.4777     -0.3564     10.4410     67.8583     13.6679
   249.3000      8.0711      2.4927     -0.3484      9.5352     64.9123     13.6866
   249.4000      8.0711      2.5019     -0.5106      8.9731     65.9494     13.0721
   249.5000      8.0748      2.5146     -0.4488      8.2038     68.8492     12.7542
