~Version Information
VERS.                      2.0: CWLS Log ASCII Standard - VERSION 2.0
WRAP.                       NO: One line per depth step
~Well Information Block
STRT.FT                -8.0000: 
STOP.FT              1060.7500: 
STEP.FT                 0.2500: 
NULL.                -999.2500: 
COMP.          Pioneer Natural Resources: COMPANY
WELL.          Pavillion 44-25: WELL
FLD.           Purgatorie River: FIELD
LOC.           719' FSL & 650' FEL--: LOCATION
PROV.                       CO: PROVINCE
CNTY.               Las Animas: COUNTRY
SRVC.          Patterson Wireline: SERVICE COMPANY
DATE.          Mon Dec 19 11:59:26 2005: LOG DATE
UWI.           05 071 08624 00: UNIQUE WELL ID
~Curve Information Block
DEPT.FT            0 000 00 00: Depth
CCL.                          : Casing Collar Locator
TT3.usec                      : CBL 3' Travel Time
AMP3.mV                       : CBL 3' Amplitude
GR.GAPI                       : Gamma Ray
~Parameter Information Block
~A  Depth       CCL         TT3         AMP3         GR     
# ...
   695.5000      0.0000    587.0365      8.1711    106.0023
   695.7500      0.0000    561.3372      8.2253    107.7610
   696.0000      0.0000    538.7004      8.2822    110.4274
   696.2500      0.0000    522.1008      8.3425    112.8636
   696.5000      0.0000    514.8138      8.4013    114.8558
   696.7500      0.0000    516.6270      8.4593    116.6001
   697.0000      0.0000    522.9901      8.5159    117.8131
   697.2500      0.0000    530.0262      8.5560    117.6679
   697.5000      0.0000    541.3087      8.5508    115.8392
   697.7500      0.0000    566.0322      8.4756    113.3537
   698.0000      0.0000    607.7228      8.3313    111.9001
   698.2500      0.0000    657.1760      8.1508    112.2185
   698.5000      0.0000    698.5192      7.9798    113.4028
   698.7500      0.0000    720.7043      7.8461    113.9388
   699.0000      0.0000    723.3649      7.7457    113.2464
   699.2500      0.0000    714.2095      7.6565    112.0495
   699.5000      0.0000    702.0743      7.5625    111.5006
   699.7500      0.0000    691.5768      7.4627    112.2933
   700.0000      0.0000    681.9900      7.3649    114.4959
   700.2500      0.0000    668.6096      7.2784    117.6205
   700.5000      0.0000    645.4897      7.2133    120.4700
   700.7500      0.0000    610.8138      7.1798    121.4979
   701.0000      0.0000    571.5530      7.1832    120.1565
   701.2500      0.0000    540.8989      7.2166    117.6979
   701.5000      0.0000    529.9172      7.2595    116.0564
   701.7500      0.0000    541.6202      7.2865    116.2178
   702.0000      0.0000    570.8509      7.2787    117.9401
   702.2500      0.0000    607.3863      7.2285    120.6035
   702.5000      0.0000    640.4916      7.1367    123.9410
   702.7500      0.0000    663.7571      7.0128    127.8937
   703.0000      0.0000    677.0270      6.8767    131.7777
   703.2500      0.0000    684.2198      6.7551    134.1356
   703.5000      0.0000    689.7670      6.6690    134.2027
   703.7500      0.0000    696.3779      6.6240    133.3028
   704.0000      0.0000    704.3708      6.6127    133.8660
   704.2500      0.0000    712.2325      6.6236    136.8735
   704.5000      0.0000    718.1137      6.6477    140.7801
   704.7500      0.0000    721.2808      6.6786    143.1028
   705.0000      0.0000    722.6934      6.7131    142.6871
   705.2500      0.0000    724.9541      6.7528    140.1135
   705.5000      0.0000    731.3809      6.8050    136.3366
   705.7500      0.0000    743.4617      6.8774    131.8886
   706.0000      0.0000    758.1901      6.9671    127.5778
   706.2500      0.0000    768.8770      7.0517    124.8968
   706.5000      0.0000    770.1776      7.0977    124.9634
   706.7500      0.0000    762.7164      7.0845    127.5570
   707.0000      0.0000    752.2397      7.0254    131.6569
   707.2500      0.0000    743.4512      6.9618    136.1845
   707.5000      0.0000    735.2305      6.9287    139.6643
   707.7500      0.0000    723.5580      6.9279    140.2303
   708.0000      0.0000    708.6017      6.9404    137.3381
   708.2500      0.0000    695.8330      6.9627    133.0645
   708.5000      0.0000    689.2551      7.0199    130.4395
   708.7500      0.0000    686.3459      7.1379    130.3488
   709.0000      0.0000    680.4027      7.3053    130.6963
   709.2500      0.0000    664.9904      7.4690    128.5185
   709.5000      0.0000    635.8398      7.5734    122.4666
   709.7500      0.0000    592.3192      7.6019    113.5907
   710.0000      0.0000    539.3062      7.5821    104.4777
   710.2500      0.0000    486.1223      7.5529     97.5143
   710.5000      0.0000    441.8728      7.5346     93.2733
   710.7500      0.0000    411.1447      7.5268     90.3721
   711.0000      0.0000    393.2890      7.5273     87.0320
   711.2500      0.0000    384.5811      7.5406     82.7188
   711.5000      0.0000    380.9716      7.5683     78.3666
   711.7500      0.0000    379.6472      7.5982     75.2748
   712.0000      0.0000    379.1568      7.6133     73.9342
   712.2500      0.0000    378.8447      7.6098     73.8481
   712.5000      0.0000    378.5167      7.6013     74.1902
   712.7500      0.0000    378.9388      7.6048     74.2580
   713.0000      0.0000    383.1337      7.6261     73.4169
   713.2500      0.0000    397.2115      7.6577     71.1845
   713.5000      0.0000    428.1591      7.6872     67.6952
   713.7500      0.0000    477.9385      7.7044     63.8782
   714.0000      0.0000    538.7201      7.7037     60.8602
   714.2500      0.0000    595.6064      7.6815     59.0885
   714.5000      0.0000    635.8843      7.6362     58.1257
   714.7500      0.0000    656.3753      7.5724     57.4086
   715.0000      0.0000    662.9642      7.5038     57.0369
   715.2500      0.0000    664.1399      7.4492     57.5788
   715.5000      0.0000    664.1412      7.4226     59.3382
   715.7500      0.0000    660.1080      7.4235     62.2197
   716.0000      0.0000    644.5225      7.4376     66.0495
   716.2500      0.0000    611.3345      7.4477     70.3315
   716.5000      0.0000    562.4125      7.4465     73.8283
   716.7500      0.0000    509.8587      7.4383     75.2515
   717.0000      0.0000    470.9940      7.4305     74.6138
   717.2500      0.0000    458.1001      7.4235     73.2765
   717.5000      0.0000    470.5653      7.4099     72.3440
   717.7500      0.0000    495.5664      7.3855     71.5497
   718.0000      0.0000    516.3699      7.3589     70.1784
   718.2500      0.0000    521.7031      7.3465     68.6643
   718.5000      0.0000    511.1257      7.3592     68.5876
   718.7500      0.0000    494.9150      7.3936     71.0774
   719.0000      0.0000    486.6631      7.4383     75.6858
   719.2500      0.0000    490.6095      7.4845     80.9132
   719.5000      0.0000    496.0155      7.5288     85.3060
   719.7500      0.0000    487.8284      7.5658     87.9342
   720.0000      0.0000    462.5925      7.5855     88.5039
   720.2500      0.0000    430.8132      7.5762     87.4092
   720.5000      0.0000    405.3619      7.5318     85.3846
   720.7500      0.0000    391.6713      7.4553     82.9636
   721.0000      0.0000    388.4560      7.3610     80.4513
   721.2500      0.0000    393.4564      7.2723     78.2654
   721.5000      0.0000    406.9929      7.2114     76.9328
   721.7500      0.0000    431.7220      7.1867     76.6988
   722.0000      0.0000    470.0278      7.1875     77.2400
   722.2500      0.0000    520.2828      7.1926     77.8181
   722.5000      0.0000    574.6990      7.1852     77.8229
   722.7500      0.0000    622.2898      7.1608     77.1890
   723.0000      0.0000    655.6300      7.1215     76.1996
   723.2500      0.0000    674.8097      7.0682     75.0075
   723.5000      0.0000    685.1174      7.0005     73.5855
   723.7500      0.0000    692.0096      6.9236     72.0468
   724.0000      0.0000    698.0336      6.8553     70.6172
   724.2500      0.0000    702.8481      6.8211     69.2701
   724.5000      0.0000    705.0723      6.8379     67.6353
   724.7500      0.0000    704.0685      6.8967     65.2442
   725.0000      0.0000    700.4666      6.9632     61.8628
   725.2500      0.0000    695.6404      7.0010     57.8159
   725.5000      0.0000    691.0295      6.9917     54.0037
   725.7500      0.0000    687.5311      6.9326     51.4331
   726.0000      0.0000    685.1623      6.8224     50.6577
   726.2500      0.0000    683.2344      6.6655     51.6588
   726.5000      0.0000    681.0413      6.4848     54.1129
   726.7500      0.0000    678.8349      6.3099     57.4390
   727.0000      0.0000    678.7335      6.1380     60.4463
   727.2500      0.0000    684.2495      5.9284     61.4359
   727.5000      0.0000    697.4965      5.6648     59.3657
   727.7500      0.0000    715.8559      5.4114     55.0295
   728.0000      0.0000    732.3155      5.2687     50.6429
   728.2500      0.0000    740.7090      5.2711     48.0950
   728.5000      2.0000    741.0541      5.3495     47.7148
   728.7500      0.0000    738.8978      5.3900     48.4831
