~Version Information
VERS.                      2.0: CWLS Log ASCII Standard - VERSION 2.0
WRAP.                       NO: One line per depth step
~Well Information Block
STRT.FT               875.0000: 
STOP.FT              2947.2000: 
STEP.FT                 0.1000: 
NULL.                -999.2500: 
COMP.          Pioneer Natural Resources: COMPANY
WELL.          Hanginstone 21-27: WELL
FLD.           Purgatoire River: FIELD
LOC.           1186' FNL & 1606' FWL--: LOCATION
PROV.                 Colorado: PROVINCE
CNTY.               Las Animas: COUNTRY
SRVC.                Patterson: SERVICE COMPANY
DATE.          Mon Jan 09 07:31:45 2006: LOG DATE
UWI.           05 071 08632 00: UNIQUE WELL ID
~Curve Information Block
DEPT.FT            0 000 00 00: Depth
DCAL.in                       : CDL Caliper
RHOB.g/cc                     : CDL Bulk Density
RHOC.g/cc                     : CDL Density Correction
DPOR.pu                       : CDL Density Porosity
NPOR.pu                       : Neutron Porosity
GR.GAPI                       : Gamma Ray
~Parameter Information Block
~A  Depth       DCAL        RHOB        RHOC        DPOR        NPOR         GR     
# ...
  1825.4000      8.0978      2.3473      0.0944     18.3445     30.0820    122.0054
  1825.5000      8.0994      2.3572      0.0659     17.7454     30.1474    128.1613
  1825.6000      8.0994      2.3768      0.1102     16.5551     30.2904    126.2751
  1825.7000      8.0994      2.4014      0.1402     15.0667     30.4163    122.4753
  1825.8000      8.1007      2.4174      0.1287     14.0997     30.1929    122.5228
  1825.9000      8.1007      2.4212      0.1428     13.8639     29.6342    124.0978
  1826.0000      8.0982      2.4188      0.1065     14.0144     29.1409    125.3897
  1826.1000      8.0982      2.4190      0.1099     14.0023     28.9080    125.4704
  1826.2000      8.0982      2.4275      0.0969     13.4875     28.8054    124.2319
  1826.3000      8.0900      2.4472      0.0443     12.2924     28.7672    127.3810
  1826.4000      8.0900      2.4741      0.0917     10.6585     28.6854    133.4162
  1826.5000      8.0795      2.4912      0.1072      9.6218     28.3101    134.7467
  1826.6000      8.0795      2.4889      0.0785      9.7627     27.4772    133.8940
  1826.7000      8.0795      2.4784      0.0443     10.4029     26.5969    135.8534
  1826.8000      8.0739      2.4754      0.0104     10.5816     26.2853    140.1224
  1826.9000      8.0739      2.4826      0.0524     10.1464     26.4726    142.1911
  1827.0000      8.0728      2.4925      0.0316      9.5433     26.6897    138.3391
  1827.1000      8.0728      2.5078      0.0207      8.6162     26.6642    134.3971
  1827.2000      8.0728      2.5303      0.1165      7.2553     26.5271    134.2172
  1827.3000      8.0730      2.5497      0.0699      6.0763     26.3752    134.1391
  1827.4000      8.0730      2.5628      0.0773      5.2843     26.0991    135.5816
  1827.5000      8.0733      2.5740      0.0581      4.6073     25.6790    139.1056
  1827.6000      8.0733      2.5903      0.0365      3.6173     25.2486    139.0279
  1827.7000      8.0733      2.6113      0.0981      2.3461     24.9125    132.0854
  1827.8000      8.0729      2.6238      0.1063      1.5864     24.6098    120.1555
  1827.9000      8.0729      2.6295      0.0559      1.2429     24.3571    111.5632
  1828.0000      8.0723      2.6367      0.0792      0.8047     24.3471    113.8565
  1828.1000      8.0723      2.6313      0.0862      1.1363     24.6046    121.1177
  1828.2000      8.0723      2.6029      0.0480      2.8556     24.9164    122.7224
  1828.3000      8.0723      2.5688     -0.0074      4.9233     25.2018    120.4713
  1828.4000      8.0723      2.5523     -0.0387      5.9239     25.2567    119.2224
  1828.5000      8.0687      2.5544     -0.0052      5.7914     25.1815    115.8709
  1828.6000      8.0687      2.5544     -0.0095      5.7951     25.4388    106.5166
  1828.7000      8.0687      2.5413     -0.0298      6.5891     25.7216     97.6452
  1828.8000      8.0556      2.5295     -0.0512      7.3033     25.6869     98.2928
  1828.9000      8.0556      2.5309     -0.0031      7.2194     25.8840    106.2265
  1829.0000      8.0323      2.5371     -0.0190      6.8420     26.3239    114.2929
  1829.1000      8.0323      2.5339      0.0460      7.0345     26.1868    122.9860
  1829.2000      8.0323      2.5190      0.0201      7.9391     25.6146    135.3280
  1829.3000      8.0119      2.5089     -0.0186      8.5522     25.4957    146.3693
  1829.4000      8.0119      2.5168      0.0135      8.0755     25.7526    146.0751
  1829.5000      8.0021      2.5324      0.0487      7.1278     25.5068    133.8517
  1829.6000      8.0021      2.5401      0.0556      6.6628     24.8089    123.5762
  1829.7000      8.0021      2.5387      0.0439      6.7454     24.5615    124.3934
  1829.8000      7.9947      2.5334      0.0627      7.0685     24.8815    129.8007
  1829.9000      7.9947      2.5282      0.0301      7.3788     25.2167    133.7862
  1830.0000      7.9895      2.5280      0.0686      7.3959     25.2431    139.0429
  1830.1000      7.9895      2.5308      0.0471      7.2243     25.0611    140.6136
  1830.2000      7.9895      2.5331      0.0711      7.0847     25.0024    135.0556
  1830.3000      7.9886      2.5414      0.0399      6.5828     25.1495    135.5394
  1830.4000      7.9886      2.5687      0.0022      4.9246     25.3308    147.3215
  1830.5000      7.9882      2.5990      0.1094      3.0909     25.5520    156.3326
  1830.6000      7.9882      2.5937      0.1040      3.4139     25.9372    152.3910
  1830.7000      7.9882      2.5632      0.0333      5.2590     26.4246    141.0275
  1830.8000      7.9875      2.5498      0.0608      6.0752     26.7849    133.0018
  1830.9000      7.9875      2.5548      0.0720      5.7715     27.1656    134.1935
  1831.0000      7.9867      2.5512      0.0728      5.9891     27.7238    141.0655
  1831.1000      7.9867      2.5305      0.0283      7.2428     28.0390    146.5354
  1831.2000      7.9867      2.5126      0.0069      8.3270     27.7512    148.8895
  1831.3000      7.9866      2.5144      0.0331      8.2165     27.1563    148.3662
  1831.4000      7.9866      2.5254      0.0720      7.5523     26.5048    143.0564
  1831.5000      7.9877      2.5293      0.0579      7.3146     25.7387    133.9958
  1831.6000      7.9877      2.5292      0.0343      7.3186     24.7542    123.7217
  1831.7000      7.9877      2.5392      0.0369      6.7172     23.4155    114.8024
  1831.8000      7.9864      2.5594      0.0687      5.4895     22.2167    112.1503
  1831.9000      7.9864      2.5743      0.0634      4.5864     21.8414    116.2835
  1832.0000      7.9807      2.5745      0.0702      4.5771     21.8247    122.2853
  1832.1000      7.9807      2.5720      0.0150      4.7289     21.4906    124.6745
  1832.2000      7.9807      2.5805      0.0792      4.2116     21.2490    120.5782
  1832.3000      7.9745      2.5937      0.0620      3.4132     21.6785    112.1595
  1832.4000      7.9745      2.6056      0.0894      2.6931     22.5419    104.2075
  1832.5000      7.9714      2.6201      0.0460      1.8137     23.1502    101.8333
  1832.6000      7.9714      2.6284      0.1319      1.3101     23.2392    106.3896
  1832.7000      7.9714      2.6122      0.1059      2.2920     23.1423    114.1588
  1832.8000      7.9755      2.5824      0.0191      4.0956     23.1075    118.0026
  1832.9000      7.9755      2.5654      0.0356      5.1265     23.0987    115.0913
  1833.0000      7.9836      2.5674      0.0133      5.0090     23.1117    113.6742
  1833.1000      7.9836      2.5766      0.0915      4.4494     23.1401    118.0970
  1833.2000      7.9836      2.5794      0.0780      4.2767     23.3043    119.7173
  1833.3000      7.9866      2.5789      0.0516      4.3065     23.6701    114.9235
  1833.4000      7.9866      2.5843      0.0856      3.9848     23.9806    110.6631
  1833.5000      7.9814      2.5851      0.0822      3.9329     23.9709    108.7755
  1833.6000      7.9814      2.5711      0.0304      4.7814     23.9240    105.5940
  1833.7000      7.9814      2.5618      0.0020      5.3442     24.1664    103.1087
  1833.8000      7.9705      2.5776      0.0072      4.3856     24.5955    105.2814
  1833.9000      7.9705      2.5996      0.0569      3.0536     24.9059    111.6535
  1834.0000      7.9617      2.5940      0.0592      3.3949     24.5841    115.8036
  1834.1000      7.9617      2.5595     -0.0098      5.4840     23.5167    115.4304
  1834.2000      7.9617      2.5246     -0.0266      7.6015     22.4896    114.0759
  1834.3000      7.9580      2.5117     -0.0127      8.3810     22.1225    111.0049
  1834.4000      7.9580      2.5208     -0.0217      7.8284     22.1796    102.6115
  1834.5000      7.9588      2.5354      0.0464      6.9470     22.0962     91.7745
  1834.6000      7.9588      2.5532     -0.0117      5.8653     21.6434     88.4361
  1834.7000      7.9588      2.5893      0.0669      3.6789     20.9800     95.6330
  1834.8000      7.9616      2.6331      0.1164      1.0241     20.4576    104.5653
  1834.9000      7.9616      2.6612      0.1059     -0.6800     20.3652    107.3589
