~Version Information
VERS.                      2.0: CWLS Log ASCII Standard - VERSION 2.0
WRAP.                       NO: One line per depth step
~Well Information Block
STRT.FT                -9.5000: 
STOP.FT              2305.7500: 
STEP.FT                 0.2500: 
NULL.                -999.2500: 
COMP.          Pioneer Natural Resources: COMPANY
WELL.          Fittipaldi 21-12: WELL
FLD.           Purgatorie River: FIELD
LOC.           207' FNL & 2110' FWL--: LOCATION
CNTY.               Las Animas: COUNTY
SRVC.          Patterson Wireline: SERVICE COMPANY
DATE.          Wed Apr 12 10:38:25 2006: LOG DATE
UWI.           05 071 08492 00: UNIQUE WELL ID
STAT.                       CO: STATE
~Curve Information Block
DEPT.FT            0 000 00 00: Depth
CCL.                          : Casing Collar Locator
TT3.usec                      : CBL 3' Travel Time
AMP3.mV                       : CBL 3' Amplitude
GR.GAPI                       : Gamma Ray
~Parameter Information Block
~A  Depth       CCL         TT3         AMP3         GR     
    -9.5000   -999.2500   -999.2500   -999.2500     74.0422
    -9.2500   -999.2500   -999.2500   -999.2500     74.3148
    -9.0000   -999.2500   -999.2500   -999.2500     74.6834
    -8.7500   -999.2500   -999.2500   -999.2500     75.4758
    -8.5000   -999.2500   -999.2500   -999.2500     77.6246
    -8.2500   -999.2500   -999.2500   -999.2500     81.3575
    -8.0000   -999.2500   -999.2500   -999.2500     85.3408
    -7.7500   -999.2500   -999.2500   -999.2500     87.6806
    -7.5000   -999.2500   -999.2500   -999.2500     87.6494
    -7.2500   -999.2500   -999.2500   -999.2500     85.9820
    -7.0000   -999.2500   -999.2500   -999.2500     83.7555
    -6.7500   -999.2500   -999.2500   -999.2500     81.5704
    -6.5000   -999.2500   -999.2500   -999.2500     79.6235
    -6.2500   -999.2500   -999.2500   -999.2500     77.9084
    -6.0000   -999.2500   -999.2500   -999.2500     76.3621
    -5.7500   -999.2500   -999.2500   -999.2500     75.2544
    -5.5000   -999.2500   -999.2500   -999.2500     75.2410
    -5.2500   -999.2500   -999.2500   -999.2500     76.6210
    -5.0000   -999.2500   -999.2500   -999.2500     78.8086
    -4.7500   -999.2500   1161.0000      0.9850     80.9365
    -4.5000   -999.2500   1161.0000      0.9768     82.6341
    -4.2500   -999.2500   1161.0000      0.9704     84.0217
    -4.0000   -999.2500   1161.0000      0.9658     85.3486
    -3.7500   -999.2500   1161.0000      0.9622     86.7202
    -3.5000   -999.2500   1161.0000      0.9608     87.7249
    -3.2500   -999.2500   1161.0000      0.9631     87.3588
    -3.0000   -999.2500   1161.0000      0.9687     84.8053
    -2.7500   -999.2500   1161.0000      0.9751     80.3318
    -2.5000   -999.2500   1161.0000      0.9798     75.2553
    -2.2500   -999.2500   1161.0000      0.9838     71.0429
    -2.0000   -999.2500   1161.0000      0.9886     68.2785
    -1.7500   -999.2500   1161.0000      0.9934     66.1327
    -1.5000   -999.2500   1161.0000      0.9946     62.8846
    -1.2500   -999.2500   1161.0000      0.9908     57.4707
    -1.0000   -999.2500   1161.0000      0.9854     50.7865
    -0.7500   -999.2500   1161.0000      0.9829     45.2776
    -0.5000   -999.2500   1161.0000      0.9834     43.0728
    -0.2500   -999.2500   1161.0000      0.9837     44.3850
     0.0000   -999.2500   1161.0000      0.9822     47.4131
     0.2500   -999.2500   1161.0000      0.9852     50.6620
     0.5000   -999.2500   1161.0000      0.9926     51.0061
     0.7500      2.0000   1161.0000      1.0000     52.5164
     1.0000     -2.0000   1161.0000      1.0027     55.7834
     1.2500      0.0000   1161.0000      0.9979     60.1837
     1.5000      0.0000   1161.0000      0.9872     64.9452
     1.7500      0.0000   1161.0000      0.9759     69.7823
     2.0000      0.0000   1161.0000      0.9685     74.5585
     2.2500     -2.0000   1161.0000      0.9664     78.8052
     2.5000      2.0000   1161.0000      0.9681     81.7867
     2.7500      0.0000   1161.0000      0.9723     82.9395
     3.0000      0.0000   1161.0000      0.9784     82.3664
     3.2500      0.0000   1161.0000      0.9857     81.0855
     3.5000      0.0000   1161.0000      0.9932     80.5659
     3.7500      2.0000   1161.0000      0.9997     81.6633
     4.0000      0.0000   1161.0000      1.0053     83.9942
     4.2500      0.0000   1161.0000      1.0101     86.3756
     4.5000      2.0000   1161.0000      1.0130     87.8882
     4.7500      0.0000   1161.0000      1.0119     88.7544
     5.0000      0.0000   1161.0000      1.0056     90.2607
     5.2500      0.0000   1161.0000      0.9968     93.4584
     5.5000     -2.0000   1160.9800      0.9905     97.8139
     5.7500      0.0000   1160.8497      0.9911    101.3636
     6.0000      0.0000   1160.1879      0.9993    102.2361
     6.2500      0.0000   1157.5669      1.0124     99.9088
     6.5000      0.0000   1149.4766      1.0263     95.2641
     6.7500      0.0000   1129.9575      1.0423     89.9466
     7.0000      0.0000   1093.0125      1.0798     85.6055
     7.2500      0.0000   1037.4138      1.2366     83.0442
     7.5000      0.0000    968.5720      1.8420     81.6435
     7.7500      0.0000    892.6757      3.6956     79.8225
     8.0000      0.0000    808.6057      8.1238     76.3568
     8.2500      0.0000    709.4424     16.3744     71.2433
     8.5000      0.0000    594.6202     28.3675     65.3188
     8.7500      0.0000    478.1990     41.9717     59.5458
     9.0000      0.0000    381.4524     54.0244     54.9411
     9.2500      0.0000    317.3722     62.3865     52.4508
     9.5000      0.0000    283.9174     66.9658     52.0456
     9.7500      0.0000    270.2208     68.9957     52.2674
    10.0000      0.0000    265.8335     69.7837     51.4720
    10.2500      0.0000    264.7365     70.1097     49.4537
    10.5000      0.0000    264.5217     70.2934     47.4524
    10.7500      0.0000    264.4859     70.4398     46.7531
    11.0000      0.0000    264.4798     70.5900     47.6114
    11.2500      0.0000    264.4734     70.7733     49.5478
    11.5000      0.0000    264.4690     71.0093     52.3608
    11.7500      0.0000    264.4672     71.3040     56.3207
    12.0000      0.0000    264.4661     71.6453     61.3367
    12.2500      0.0000    264.4629     72.0042     66.6428
    12.5000      0.0000    264.4563     72.3378     71.5383
    12.7500      0.0000    264.4476     72.5818     75.7661
    13.0000      0.0000    264.4400     72.6186     78.9654
    13.2500      0.0000    264.4445     72.2191     80.4993
    13.5000      0.0000    264.4962     71.0024     80.1556
    13.7500      0.0000    264.6935     68.5003     78.6696
    14.0000      0.0000    265.2683     64.3756     77.2794
    14.2500      0.0000    266.6822     58.6719     76.6528
    14.5000      0.0000    269.6292     51.8683     76.3952
    14.7500      0.0000    274.7502     44.6674     75.8558
    15.0000      0.0000    282.1092     37.7022     75.2480
    15.2500      0.0000    291.0343     31.3725     75.6705
    15.5000      0.0000    300.7821     25.8527     77.9457
    15.7500      0.0000    311.3702     21.1746     81.4863
    16.0000      0.0000    323.4243     17.2987     84.6442
    16.2500      0.0000    337.0771     14.1477     86.6031
    16.5000      0.0000    351.1942     11.6257     88.4364
    16.7500      0.0000    363.8001      9.6417     91.4000
    17.0000      0.0000    373.3203      8.1318     94.6242
    17.2500      0.0000    379.7946      7.0573     95.7498
    17.5000      0.0000    385.5622      6.3724     93.8785
    17.7500      0.0000    395.5745      5.9989     90.8077
    18.0000      0.0000    416.8982      5.8350     89.0868
    18.2500      0.0000    455.6833      5.7870     89.6423
    18.5000      0.0000    511.5412      5.7913     91.4413
    18.7500      0.0000    574.4261      5.8159     92.6059
    19.0000      0.0000    629.2634      5.8514     91.5890
    19.2500      0.0000    664.7711      5.8997     87.9796
    19.5000      0.0000    676.9762      5.9613     82.6628
    19.7500      0.0000    665.4751      6.0279     77.2957
    20.0000      0.0000    630.4424      6.0861     73.6082
    20.2500      0.0000    575.7773      6.1254     72.7570
    20.5000      0.0000    512.9348      6.1441     74.6580
    20.7500      0.0000    457.4341      6.1483     77.8696
    21.0000      0.0000    420.4127      6.1462     80.5334
    21.2500      0.0000    405.2207      6.1407     81.6416
    21.5000      0.0000    412.3497      6.1291     81.3387
    21.7500      0.0000    445.0190      6.1081     80.2128
    22.0000      0.0000    506.9636      6.0785     78.8750
    22.2500      0.0000    593.7512      6.0467     78.2002
    22.5000      0.0000    688.3779      6.0219     79.0230
    22.7500      0.0000    768.9070      6.0103     81.1399
    23.0000      0.0000    821.2426      6.0100     83.2356
    23.2500      0.0000    843.2276      6.0110     84.1985
    23.5000      0.0000    837.7042      6.0034     84.1553
    23.7500      0.0000    805.8608      5.9854     84.0388
