~Version Information
VERS.                      2.0: CWLS Log ASCII Standard - VERSION 2.0
WRAP.                       NO: One line per depth step
~Well Information Block
STRT.FT               555.0000: 
STOP.FT              1159.0000: 
STEP.FT                 0.2500: 
NULL.                -999.2500: 
COMP.          Pioneer Natural Resources: COMPANY
WELL.              Draco 31-21: WELL
FLD.           Purgatoire River: FIELD
LOC.           491' FNL & 2446' FEL: LOCATION
CNTY.               Las Animas: COUNTY
SRVC.                Patterson: SERVICE COMPANY
DATE.          Tue Jan 31 17:48:38 2006: LOG DATE
UWI.           05 071 08672 00: UNIQUE WELL ID
STAT.                 Colorado: STATE
~Curve Information Block
DEPT.FT            0 000 00 00: Depth
SN.Ohm-m                      : IEL Short Normal
SP.mV                         : IEL Spontaneous Potential
DIR.Ohm-m                     : IEL Induction Resistivity
GR.GAPI                       : Gamma Ray
~Parameter Information Block
~A  Depth        SN          SP         DIR          GR     
# ...
   655.5000     28.0503    -60.6538     29.1285     49.4427
   655.7500     27.9073    -60.7012     28.9117     49.5923
   656.0000     27.6579    -60.7529     28.6715     49.7674
   656.2500     27.4524    -60.7778     28.4712     49.7733
   656.5000     27.3434    -60.7727     28.3787     49.3457
   656.7500     27.2717    -60.7497     28.4378     48.6480
   657.0000     27.1691    -60.7254     28.6528     47.2677
   657.2500     27.0642    -60.7147     28.9914     46.6600
   657.5000     27.1660    -60.7272     29.3932     47.0549
   657.7500     27.7572    -60.7654     29.7702     48.0354
   658.0000     29.0107    -60.8251     30.0065     49.2122
   658.2500     30.7588    -60.8994     29.9717     49.1037
   658.5000     32.3621    -60.9800     29.5586     47.7135
   658.7500     33.1245    -61.0564     28.7287     46.6677
   659.0000     32.7748    -61.1123     27.5382     46.3947
   659.2500     31.4236    -61.1261     26.1272     47.8696
   659.5000     29.3918    -61.0803     24.6730     53.5481
   659.7500     27.0619    -60.9703     23.3321     59.8088
   660.0000     24.6687    -60.8090     22.1973     72.5313
   660.2500     22.3826    -60.6237     21.2876     82.8651
   660.5000     20.4848    -60.4490     20.5656    100.3326
   660.7500     19.1449    -60.3140     19.9683    112.3416
   661.0000     18.2439    -60.2292     19.4350    128.1865
   661.2500     17.6035    -60.1811     18.9196    135.7085
   661.5000     17.1482    -60.1420     18.3871    141.3184
   661.7500     16.8383    -60.0861     17.8077    141.7104
   662.0000     16.6104    -59.9999     17.1616    138.5904
   662.2500     16.3583    -59.8846     16.4517    134.4975
   662.5000     16.0491    -59.7543     15.7085    125.6578
   662.7500     15.8412    -59.6311     14.9784    118.4031
   663.0000     15.8577    -59.5336     14.3053    107.5153
   663.2500     15.9698    -59.4668     13.7172    102.1140
   663.5000     15.9676    -59.4241     13.2246     99.9326
   663.7500     15.7620    -59.3990     12.8232    103.3391
   664.0000     15.4043    -59.3950     12.4996    114.6548
   664.2500     15.0261    -59.4240     12.2347    124.3730
   664.5000     14.7200    -59.4988     12.0078    138.3062
   664.7500     14.4646    -59.6247     11.8005    145.5300
   665.0000     14.1616    -59.7929     11.5992    152.1595
   665.2500     13.7563    -59.9791     11.3952    153.9428
   665.5000     13.3187    -60.1508     11.1847    153.9356
   665.7500     12.9269    -60.2827     10.9691    153.2748
   666.0000     12.5609    -60.3702     10.7540    153.2657
   666.2500     12.1450    -60.4324     10.5497    154.5065
   666.5000     11.6110    -60.5020     10.3691    157.4769
   666.7500     10.9702    -60.6113     10.2264    158.8985
   667.0000     10.3461    -60.7788     10.1341    158.0605
   667.2500      9.9295    -61.0016     10.0989    155.1523
   667.5000      9.9074    -61.2541     10.1191    148.4081
   667.7500     10.3639    -61.4954     10.1840    143.5864
   668.0000     11.1598    -61.6837     10.2753    138.0753
   668.2500     11.9770    -61.7924     10.3699    136.3486
   668.5000     12.6135    -61.8200     10.4433    136.3092
   668.7500     13.0925    -61.7876     10.4752    136.8126
   669.0000     13.4402    -61.7288     10.4540    136.3238
   669.2500     13.5963    -61.6774     10.3784    134.8177
   669.5000     13.5026    -61.6567     10.2567    131.6545
   669.7500     13.1309    -61.6736     10.1048    129.8306
   670.0000     12.5194    -61.7196      9.9423    128.9264
   670.2500     11.8299    -61.7774      9.7893    129.9718
   670.5000     11.2325    -61.8290      9.6617    133.8395
   670.7500     10.7449    -61.8629      9.5699    137.5644
   671.0000     10.3143    -61.8787      9.5173    144.1314
   671.2500      9.9724    -61.8845      9.5000    148.5825
   671.5000      9.7782    -61.8888      9.5079    154.0321
   671.7500      9.6994    -61.8950      9.5276    156.2194
   672.0000      9.6790    -61.9011      9.5478    157.1837
   672.2500      9.7329    -61.9047      9.5641    156.6293
   672.5000      9.8888    -61.9046      9.5796    154.6751
   672.7500     10.1272    -61.9021      9.6012    152.8968
   673.0000     10.4665    -61.9015      9.6341    149.8864
   673.2500     10.9881    -61.9119      9.6787    147.7917
   673.5000     11.6904    -61.9483      9.7311    144.3715
   673.7500     12.4030    -62.0260      9.7864    141.5730
   674.0000     12.9089    -62.1526      9.8417    136.1228
   674.2500     13.1135    -62.3245      9.8974    131.8316
   674.5000     13.0480    -62.5301      9.9565    125.6877
   674.7500     12.7830    -62.7560     10.0238    122.7592
   675.0000     12.4404    -62.9895     10.1037    121.3223
   675.2500     12.1833    -63.2197     10.1993    122.5687
   675.5000     12.0868    -63.4382     10.3095    127.2701
   675.7500     12.1039    -63.6379     10.4277    131.4406
   676.0000     12.2034    -63.8097     10.5393    137.1206
   676.2500     12.4133    -63.9400     10.6231    139.4755
   676.5000     12.6940    -64.0140     10.6559    140.3663
   676.7500     12.8732    -64.0221     10.6234    139.5617
   677.0000     12.7548    -63.9636     10.5300    137.0570
   677.2500     12.2968    -63.8447     10.4004    134.9812
   677.5000     11.6296    -63.6780     10.2718    132.6178
   677.7500     10.9506    -63.4836     10.1814    132.6201
   678.0000     10.5176    -63.2927     10.1570    135.8415
   678.2500     10.6279    -63.1439     10.2127    139.3517
   678.5000     11.4234    -63.0727     10.3478    143.7899
   678.7500     12.6609    -63.0964     10.5502    144.8261
   679.0000     13.8163    -63.2030     10.8013    143.2563
   679.2500     14.5642    -63.3516     11.0833    140.9907
   679.5000     14.9986    -63.4903     11.3853    137.3024
   679.7500     15.3235    -63.5802     11.7059    134.9836
   680.0000     15.6020    -63.6107     12.0516    131.5538
   680.2500     15.8515    -63.5967     12.4359    129.1582
   680.5000     16.1089    -63.5651     12.8792    125.3245
   680.7500     16.3752    -63.5392     13.4085    122.5963
   681.0000     16.6540    -63.5306     14.0504    118.2164
   681.2500     17.0831    -63.5381     14.8201    115.1553
   681.5000     17.8765    -63.5536     15.7096    110.6310
   681.7500     19.0542    -63.5667     16.6839    107.6883
   682.0000     20.4593    -63.5687     17.6883    102.6602
   682.2500     22.0399    -63.5570     18.6587     98.2772
   682.5000     23.9402    -63.5364     19.5244     90.0096
   682.7500     26.3491    -63.5147     20.2029     84.0514
   683.0000     29.2221    -63.4946     20.6046     76.0319
   683.2500     32.1629    -63.4671     20.6606     71.9266
   683.5000     34.6659    -63.4122     20.3583     68.0427
   683.7500     36.3307    -63.3063     19.7532     67.0430
   684.0000     36.7833    -63.1364     18.9426     68.1581
   684.2500     35.7378    -62.9141     18.0288     70.9135
   684.5000     33.2225    -62.6762     17.0935     78.6016
   684.7500     29.6462    -62.4683     16.1915     86.2272
   685.0000     25.7728    -62.3234     15.3521    100.6633
   685.2500     22.4355    -62.2508     14.5854    111.0585
   685.5000     20.0103    -62.2362     13.8908    125.0396
   685.7500     18.3027    -62.2499     13.2656    132.0997
   686.0000     16.9818    -62.2563     12.7123    138.9050
   686.2500     15.9178    -62.2222     12.2395    141.4674
   686.5000     15.1103    -62.1244     11.8605    143.7064
   686.7500     14.5891    -61.9540     11.5901    144.6823
   687.0000     14.3949    -61.7184     11.4413    145.4513
   687.2500     14.4769    -61.4344     11.4240    145.1584
   687.5000     14.7235    -61.1179     11.5436    142.8073
   687.7500     15.1519    -60.7735     11.8021    139.7419
   688.0000     15.8915    -60.3922     12.2003    133.2529
   688.2500     16.9630    -59.9561     12.7397    128.3749
   688.5000     18.2800    -59.4473     13.4236    121.5341
   688.7500     19.8663    -58.8597     14.2600    117.4895
