~Version Information
VERS.                      2.0: CWLS Log ASCII Standard - VERSION 2.0
WRAP.                       NO: One line per depth step
~Well Information Block
STRT.FT                 0.0000: 
STOP.FT              2792.7500: 
STEP.FT                 0.2500: 
NULL.                -999.2500: 
COMP.          Pioneer Natural Resources: COMPANY
WELL.          Black Cat 13-32: WELL
FLD.           Purgatorie River: FIELD
LOC.           1865' FSL & 1120' FWL: LOCATION
PROV.                 Colorado: PROVINCE
CNTY.               Las Animas: COUNTRY
SRVC.                Patterson: SERVICE COMPANY
DATE.          Fri Aug 19 09:19:21 2005: LOG DATE
UWI.                          : UNIQUE WELL ID
~Curve Information Block
DEPT.FT            0 000 00 00: Depth
CCL.                          : Casing Collar Locator
TT3.usec                      : CBL 3' Travel Time
AMP3.mV                       : CBL 3' Amplitude
GR.GAPI                       : Gamma Ray
~Parameter Information Block
~A  Depth       CCL         TT3         AMP3         GR     
# ...
   167.5000      0.0000   1010.3508      3.9356     67.5179
   167.7500      0.0000   1089.5935      3.9037     67.4607
   168.0000      0.0000   1111.2944      3.9240     65.3932
   168.2500      0.0000   1046.6456      3.9882     61.9279
   168.5000      0.0000    932.4414      4.0793     58.5335
   168.7500      0.0000    837.0958      4.1678     56.6646
   169.0000      0.0000    799.0085      4.2109     56.7970
   169.2500      0.0000    807.2229      4.1836     58.2572
   169.5000      0.0000    829.9996      4.1113     59.8279
   169.7500      0.0000    846.7153      4.0528     60.3898
   170.0000      0.0000    855.9650      4.0498     59.4182
   170.2500      0.0000    862.1056      4.0953     57.4744
   170.5000      0.0000    864.2426      4.1491     56.1231
   170.7500      0.0000    858.8362      4.1912     56.8204
   171.0000      0.0000    844.8582      4.2417     59.6218
   171.2500      0.0000    824.2363      4.3113     63.0600
   171.5000      0.0000    802.1208      4.3694     65.3610
   171.7500      0.0000    784.7363      4.3857     65.7855
   172.0000      0.0000    776.7399      4.3665     64.7943
   172.2500      0.0000    784.4227      4.3411     63.1167
   172.5000      0.0000    814.0609      4.3368     61.0647
   172.7500      0.0000    865.5594      4.3650     58.8979
   173.0000      0.0000    935.7519      4.4167     57.5122
   173.2500      0.0000   1013.0889      4.4702     58.3729
   173.5000      0.0000   1059.1810      4.5108     62.6704
   173.7500      0.0000   1036.3182      4.5440     70.4231
   174.0000      0.0000    959.9688      4.5882     80.1556
   174.2500      0.0000    881.7873      4.6505     89.4685
   174.5000      0.0000    835.9153      4.7164     96.2617
   174.7500      0.0000    822.8448      4.7714     99.6461
   175.0000      0.0000    824.6922      4.8135     99.8335
   175.2500      0.0000    829.3276      4.8374     97.6284
   175.5000      0.0000    837.7440      4.8231     94.2487
   175.7500      0.0000    850.2448      4.7600     90.9914
   176.0000      0.0000    861.5521      4.6729     88.4974
   176.2500      0.0000    866.8467      4.5940     86.6023
   176.5000      0.0000    865.3351      4.5250     85.0896
   176.7500      0.0000    860.5015      4.4643     84.1306
   177.0000      0.0000    856.0657      4.4372     83.9264
   177.2500      0.0000    852.3552      4.4579     84.4987
   177.5000      0.0000    847.7171      4.4990     86.0780
   177.7500      0.0000    842.3254      4.5299     89.2879
   178.0000      0.0000    839.6416      4.5592     94.4325
   178.2500      0.0000    841.9686      4.6198    100.5081
   178.5000      0.0000    846.5804      4.7319    105.3299
   178.7500      0.0000    849.3837      4.8949    107.0330
   179.0000      0.0000    848.2326      5.0922    105.3827
   179.2500      0.0000    841.8366      5.2850    101.5203
   179.5000      0.0000    832.0818      5.4209     96.8055
   179.7500      0.0000    826.9205      5.4676     92.2883
   180.0000      0.0000    832.2817      5.4409     89.0765
   180.2500      0.0000    845.5518      5.3974     88.5502
   180.5000      0.0000    867.4525      5.3894     91.6137
   180.7500      0.0000    908.6074      5.4261     97.5893
   181.0000      0.0000    963.9550      5.4820    104.2052
   181.2500      0.0000    994.3076      5.5217    109.1349
   181.5000      0.0000    973.4761      5.5065    111.7286
   181.7500      0.0000    929.9086      5.4132    113.1869
   182.0000      0.0000    900.0191      5.2668    115.0804
   182.2500      0.0000    886.6089      5.1293    117.6824
   182.5000      0.0000    879.7621      5.0449    119.5818
   182.7500      0.0000    875.1693      5.0147    119.0409
   183.0000      0.0000    871.4062      5.0310    116.0517
   183.2500      0.0000    868.4720      5.1038    112.9439
   183.5000      0.0000    867.1016      5.2256    112.4207
   183.7500      0.0000    863.4696      5.3383    114.7703
   184.0000      0.0000    849.5997      5.3787    117.4890
   184.2500      0.0000    826.2059      5.3474    117.9587
   184.5000      0.0000    810.1984      5.2944    116.0283
   184.7500      0.0000    815.5222      5.2384    113.7019
   185.0000      0.0000    833.2347      5.1484    112.7340
   185.2500      0.0000    847.2261      5.0103    112.9222
   185.5000      0.0000    855.9473      4.8603    112.5981
   185.7500      0.0000    871.9254      4.7495    110.5886
   186.0000      0.0000    910.3727      4.7172    107.5007
   186.2500      0.0000    964.7654      4.7812    104.7460
   186.5000      0.0000    993.7074      4.9144    102.6750
   186.7500      0.0000    969.2847      5.0518    100.6915
   187.0000      0.0000    919.6420      5.1422     99.0325
   187.2500      0.0000    883.1902      5.1827     99.0710
   187.5000      0.0000    863.7555      5.1891    101.4595
   187.7500      0.0000    846.4305      5.1541    104.8985
   188.0000      0.0000    815.8898      5.0671    107.2584
   188.2500      0.0000    765.3177      4.9343    107.5020
   188.5000      0.0000    711.9249      4.7541    106.2002
   188.7500      0.0000    687.3288      4.5288    104.5836
   189.0000      0.0000    697.0107      4.3047    103.5810
   189.2500      0.0000    710.2269      4.1397    103.6632
   189.5000      0.0000    701.5143      4.0426    104.8083
   189.7500      0.0000    678.9598      3.9914    106.1357
   190.0000      0.0000    662.9840      3.9745    106.1023
   190.2500      0.0000    662.0790      3.9863    103.7348
   190.5000      0.0000    674.3280      4.0092     99.5178
   190.7500      0.0000    694.8834      4.0251     94.7556
   191.0000      0.0000    717.5410      4.0484     90.3653
   191.2500      0.0000    734.8132      4.1182     86.5507
   191.5000      0.0000    746.2739      4.2758     83.3165
   191.7500      0.0000    762.9686      4.5488     80.7836
   192.0000      0.0000    788.6786      4.8704     78.9636
   192.2500      0.0000    808.5504      5.1037     77.5881
   192.5000      0.0000    806.8310      5.2199     76.2710
   192.7500      0.0000    785.1000      5.2988     74.8126
   193.0000      0.0000    758.9651      5.3987     73.5779
   193.2500      0.0000    742.1454      5.5370     73.5530
   193.5000      0.0000    737.5124      5.6951     75.4697
   193.7500      0.0000    739.8318      5.8180     78.7571
   194.0000      0.0000    741.5848      5.8693     81.7899
   194.2500      0.0000    738.8833      5.8434     83.3926
   194.5000      0.0000    734.0918      5.7154     83.9445
   194.7500      0.0000    731.2471      5.4749     84.8642
   195.0000      0.0000    732.4168      5.2028     86.9321
   195.2500      0.0000    739.8359      5.0191     89.1916
   195.5000      0.0000    756.3359      4.9463     89.8992
   195.7500      0.0000    780.1470      4.9072     88.7169
   196.0000      0.0000    802.8453      4.8400     87.4807
   196.2500      0.0000    815.4260      4.7363     88.5326
   196.5000      0.0000    812.9332      4.6080     92.6780
   196.7500      0.0000    799.0604      4.4793     98.7881
   197.0000      0.0000    789.7598      4.3751    104.7136
   197.2500      0.0000    798.3204      4.3067    108.3503
   197.5000      0.0000    819.1583      4.2837    108.5562
   197.7500      0.0000    837.5874      4.3000    105.7601
   198.0000      0.0000    847.3212      4.3202    101.6983
   198.2500      0.0000    851.9207      4.3034     98.3069
   198.5000      0.0000    857.2456      4.2239     96.6673
   198.7500      0.0000    865.5211      4.0902     96.6362
   199.0000      0.0000    870.7993      3.9452     97.1966
   199.2500      0.0000    859.9373      3.8244     97.2298
   199.5000      0.0000    825.4886      3.7387     96.2021
   199.7500      0.0000    779.6594      3.7056     94.4753
   200.0000      0.0000    745.4624      3.7537     93.1363
   200.2500      0.0000    730.8932      3.8892     93.3286
   200.5000      0.0000    725.6976      4.0413     95.4583
   200.7500      0.0000    726.0515      4.0427     98.8026
