~Version Information
VERS.                      2.0: CWLS Log ASCII Standard - VERSION 2.0
WRAP.                       NO: One line per depth step
~Well Information Block
STRT.FT                -9.0000: 
STOP.FT              1841.0000: 
STEP.FT                 0.2500: 
NULL.                -999.2500: 
COMP.          Pioneer Natural Resources: COMPANY
WELL.          Cooper 11-13 Tr: WELL
FLD.           Purgatorie River: FIELD
LOC.           476' FNL & 738' FWL: LOCATION
STAT.                       CO: State
CNTY.               Las Animas: COUNTY
CTRY. USA : Country
SECT. 13 : Section
TOWN. 32S : Township
RANG. 67W : Range
SRVC.          Patterson Wireline: SERVICE COMPANY
DATE.          Thu Sep 29 08:59:13 2005: LOG DATE
API.           05 071 08525 00: UNIQUE WELL ID
~Curve Information Block
DEPT.FT            0 000 00 00: Depth
CCL.                          : Casing Collar Locator
TT3.usec                      : CBL 3' Travel Time
AMP3.mV                       : CBL 3' Amplitude
GR.GAPI                       : Gamma Ray
~Parameter Information Block
~A  Depth       CCL         TT3         AMP3         GR     
# ...
  1197.0000      0.0000    322.1461     28.0489     94.8121
  1197.2500      0.0000    322.1436     27.8474     90.2661
  1197.5000      0.0000    322.1520     27.6394     82.7397
  1197.7500      0.0000    322.1534     27.4696     74.3424
  1198.0000      0.0000    322.1255     27.3835     66.6959
  1198.2500      0.0000    322.0589     27.4093     60.7025
  1198.5000      0.0000    321.9603     27.5405     56.9052
  1198.7500      0.0000    321.8464     27.7322     55.5150
  1199.0000      0.0000    321.7423     27.9160     56.1572
  1199.2500      0.0000    321.6809     28.0245     57.9685
  1199.5000      0.0000    321.6951     28.0054     60.1994
  1199.7500      0.0000    321.8029     27.8276     62.6631
  1200.0000      0.0000    321.9934     27.5000     65.4039
  1200.2500      0.0000    322.2221     27.0995     68.0458
  1200.5000      0.0000    322.4255     26.7492     69.7842
  1200.7500      0.0000    322.5573     26.5313     70.1479
  1201.0000      0.0000    322.6159     26.4248     69.6125
  1201.2500      0.0000    322.6359     26.3468     69.4214
  1201.5000      0.0000    322.6530     26.2393     70.8610
  1201.7500      0.0000    322.6836     26.1007     74.4904
  1202.0000      0.0000    322.7307     25.9511     79.6760
  1202.2500      0.0000    322.7974     25.7935     84.8868
  1202.5000      0.0000    322.8928     25.6057     88.6260
  1202.7500      0.0000    323.0241     25.3593     89.9660
  1203.0000      0.0000    323.1801     25.0530     88.3846
  1203.2500      0.0000    323.3214     24.7320     83.9271
  1203.5000      0.0000    323.3965     24.4680     78.0173
  1203.7500      0.0000    323.3740     24.3181     73.5452
  1204.0000      0.0000    323.2608     24.3002     73.3592
  1204.2500      0.0000    323.0947     24.3977     78.4131
  1204.5000      0.0000    322.9214     24.5813     87.3003
  1204.7500      0.0000    322.7733     24.8333     97.3872
  1205.0000      0.0000    322.6591     25.1524    106.6110
  1205.2500      0.0000    322.5698     25.5339    114.7227
  1205.5000      0.0000    322.4923     25.9513    122.7407
  1205.7500      0.0000    322.4162     26.3637    130.9599
  1206.0000      0.0000    322.3370     26.7353    137.8977
  1206.2500      0.0000    322.2617     27.0488    141.6222
  1206.5000      0.0000    322.2089     27.3022    141.5098
  1206.7500      0.0000    322.1945     27.4920    138.0888
  1207.0000      0.0000    322.2169     27.6036    131.8928
  1207.2500      0.0000    322.2574     27.6291    123.5025
  1207.5000      0.0000    322.2895     27.6002    114.4398
  1207.7500      0.0000    322.2873     27.5917    107.0301
  1208.0000      0.0000    322.2317     27.6768    102.9764
  1208.2500      0.0000    322.1193     27.8671    102.2168
  1208.5000      0.0000    321.9696     28.0923    103.1755
  1208.7500      0.0000    321.8239     28.2402    103.9718
  1209.0000      0.0000    321.7322     28.2260    103.5796
  1209.2500      0.0000    321.7312     28.0387    102.2105
  1209.5000      0.0000    321.8283     27.7267    100.7302
  1209.7500      0.0000    322.0047     27.3382     99.7604
  1210.0000      0.0000    322.2288     26.8904     99.4554
  1210.2500      0.0000    322.4614     26.3978     99.9425
  1210.5000      0.0000    322.6586     25.9018    101.6116
  1210.7500      0.0000    322.7862     25.4397    104.9403
  1211.0000      0.0000    322.8384     24.9961    110.0628
  1211.2500      0.0000    322.8409     24.5125    116.2984
  1211.5000      0.0000    322.8323     23.9543    122.2665
  1211.7500      0.0000    322.8405     23.3608    126.8618
  1212.0000      0.0000    322.8697     22.8307    129.9450
  1212.2500      0.0000    322.9019     22.4634    131.7554
  1212.5000      0.0000    322.9128     22.3067    131.9359
  1212.7500      0.0000    322.8923     22.3428    129.7298
  1213.0000      0.0000    322.8502     22.5116    125.2009
  1213.2500      0.0000    322.8052     22.7434    119.9116
  1213.5000      0.0000    322.7686     22.9762    116.1288
  1213.7500      0.0000    322.7407     23.1603    115.2285
  1214.0000      0.0000    322.7172     23.2650    116.6617
  1214.2500      0.0000    322.6967     23.2868    118.3654
  1214.5000      0.0000    322.6854     23.2455    118.4442
  1214.7500      0.0000    322.6933     23.1771    116.7069
  1215.0000      0.0000    322.7234     23.1311    114.5210
  1215.2500      0.0000    322.7633     23.1626    113.1757
  1215.5000      0.0000    322.7907     23.3094    112.8848
  1215.7500      0.0000    322.7879     23.5716    113.5468
  1216.0000      0.0000    322.7515     23.9150    115.7867
  1216.2500      0.0000    322.6931     24.2853    120.4977
  1216.5000      0.0000    322.6318     24.6191    127.3401
  1216.7500      0.0000    322.5857     24.8521    134.2023
  1217.0000      0.0000    322.5643     24.9466    138.5455
  1217.2500      0.0000    322.5633     24.9308    139.4812
  1217.5000      0.0000    322.5628     24.9074    138.5025
  1217.7500      0.0000    322.5366     25.0015    138.0116
  1218.0000      0.0000    322.4676     25.2753    139.0292
  1218.2500      0.0000    322.3595     25.6743    140.4180
  1218.5000      0.0000    322.2339     26.0546    140.2478
  1218.7500      0.0000    322.1204     26.2767    137.5805
  1219.0000      0.0000    322.0478     26.2857    132.9251
  1219.2500      0.0000    322.0386     26.1115    127.6040
  1219.5000      0.0000    322.1033     25.8162    123.1242
  1219.7500      0.0000    322.2360     25.4583    120.6745
  1220.0000      0.0000    322.4121     25.0940    120.6415
  1220.2500      0.0000    322.5965     24.7836    122.4274
  1220.5000      0.0000    322.7601     24.5798    124.6769
  1220.7500      0.0000    322.8941     24.5090    125.8256
  1221.0000      0.0000    323.0023     24.5654    124.9946
  1221.2500      0.0000    323.0822     24.7204    122.7495
  1221.5000      0.0000    323.1195     24.9383    120.6574
  1221.7500      0.0000    323.1024     25.1888    119.7853
  1222.0000      0.0000    323.0373     25.4465    119.9364
  1222.2500      0.0000    322.9439     25.6895    120.5304
  1222.5000      0.0000    322.8363     25.9119    121.6715
  1222.7500      0.0000    322.7170     26.1255    123.9096
  1223.0000      0.0000    322.5948     26.3283    127.2656
  1223.2500      0.0000    322.5025     26.4718    130.8882
  1223.5000      0.0000    322.4848     26.4765    133.5776
  1223.7500      0.0000    322.5656     26.2851    134.4444
  1224.0000      0.0000    322.7520     25.8970    133.1393
  1224.2500      0.0000    323.0953     25.3618    129.8173
  1224.5000      0.0000    324.0055     24.7453    125.2644
  1224.7500      0.0000    326.9499     24.0839    121.1408
  1225.0000      0.0000    335.2645     23.3394    119.6280
  1225.2500      0.0000    353.6681     22.3865    122.0351
  1225.5000      0.0000    384.8300     21.0899    127.3743
  1225.7500      0.0000    425.1200     19.4533    132.7362
  1226.0000      0.0000    465.8517     17.6940    135.6887
  1226.2500      0.0000    500.5324     16.1306    136.2703
  1226.5000      0.0000    527.9355     15.0065    136.2097
  1226.7500      0.0000    546.4747     14.4222    136.1905
  1227.0000      0.0000    551.7400     14.3369    134.3312
  1227.2500      0.0000    544.4016     14.5734    127.6828
  1227.5000      0.0000    535.6839     14.8910    115.3750
  1227.7500      0.0000    538.6909     15.1215    100.2942
  1228.0000      2.0000    554.6315     15.2165     87.4672
  1228.2500      0.0000    570.4562     15.1921     80.5829
  1228.5000      0.0000    571.3477     15.1134     79.9850
  1228.7500      0.0000    554.3181     15.1539     83.5009
  1229.0000      0.0000    527.4694     15.5709     88.3038
  1229.2500      0.0000    497.5037     16.5161     91.8988
  1229.5000      0.0000    463.4857     17.8710     92.4570
  1229.7500      0.0000    424.0360     19.2946     89.5202
  1230.0000      0.0000    384.6511     20.4230     84.4685
  1230.2500      0.0000    353.9623     21.0569     79.6454
