~Version Information
 VERS.                                  2.0 : CWLS LAS VERSION
 WRAP.                                   NO : WRAPING MODE
 SWARE .                 MController 2.5.0J : SOFTWARE VERSION
~Well Information
 WELL.                        Montoya 7-14R : WELL
 COMP.                Petrogulf Corporation : COMPANY
 FLD.                      Purgatoire River : FIELD
 LOC.                 SW/SW Sec 7 T33S R67W : LOCATION
 DATE.                            10/7-8/05 : DATE(S) LOGGED
 SRVC.       BLANCO Geological Services LLC : SERVICE COMPANY
 STAT.                                   CO : STATE
 CNTY.                           Las Animas : COUNTY
 CTRY.                                  USA : COUNTRY
 API.                       05-071-08554-00 : API NUMBER
 STRT.FT                             769.00 : START DEPTH
 STOP.FT                            1960.00 : STOP DEPTH
 STEP.FT                               1.00 : DEPTH INCREMENT
 NULL.                                -9999 : NULL VALUE
~Curve information
 DEPTH.FT                                   :
 ROP.MIN/FT                                 :
 GAS.UNITS                                  :
~ASCII Log data
# ...
      1769.0         0.30        762.5 
      1770.0         0.33        762.8 
      1771.0         0.35        760.3 
      1772.0         2.50        841.5 
      1773.0         0.30        806.0 
      1774.0         0.45        801.9 
      1775.0         0.37        789.8 
      1776.0         0.40        781.5 
      1777.0         0.33        777.1 
      1778.0         0.40        777.7 
      1779.0         0.40        777.4 
      1780.0         0.33        773.0 
      1781.0         0.33        767.3 
      1782.0         0.33        765.4 
      1783.0         0.25        767.3 
      1784.0         0.23        769.8 
      1785.0         0.33        770.4 
      1786.0         0.30        771.4 
      1787.0         0.43        770.4 
      1788.0         0.30        770.1 
      1789.0         0.30        768.9 
      1790.0         0.30        769.2 
      1791.0         0.30        771.7 
      1792.0         0.30        772.0 
      1793.0         0.27        771.4 
      1794.0         0.25        770.8 
      1795.0         0.23        770.4 
      1796.0         0.23        766.9 
      1797.0         0.30        765.4 
      1798.0         0.30        765.7 
      1799.0         0.30        767.9 
      1800.0         0.27        767.9 
      1801.0         0.23        766.6 
      1802.0         3.42        820.6 
      1803.0         0.33        785.0 
      1804.0         0.33        786.6 
      1805.0         0.68        785.4 
      1806.0         0.47        780.9 
      1807.0         0.43        775.5 
      1808.0         0.40        774.6 
      1809.0         0.40        773.3 
      1810.0         0.33        772.7 
      1811.0         0.37        773.9 
      1812.0         0.27        771.1 
      1813.0         0.27        771.7 
      1814.0         0.28        771.7 
      1815.0         0.30        769.5 
      1816.0         0.27        767.6 
      1817.0         0.33        764.4 
      1818.0         0.43        766.3 
      1819.0         0.37        767.9 
      1820.0         0.33        769.5 
      1821.0         0.27        774.2 
      1822.0         0.33        773.3 
      1823.0         0.27        773.3 
      1824.0         0.32        777.1 
      1825.0         0.27        777.1 
      1826.0         0.30        775.8 
      1827.0         0.23        775.2 
      1828.0         0.27        777.1 
      1829.0         0.23        778.4 
      1830.0         0.30        775.5 
      1831.0         0.30        772.7 
      1832.0         2.18        818.7 
      1833.0         0.33        795.8 
      1834.0         0.50        802.8 
      1835.0         0.43        806.6 
      1836.0         0.40        803.4 
      1837.0         0.37        804.1 
      1838.0         0.35        806.0 
      1839.0         0.37        805.7 
      1840.0         0.37        804.1 
      1841.0         0.37        800.3 
      1842.0         0.37        800.0 
      1843.0         0.27        797.1 
      1844.0         0.27        793.6 
      1845.0         0.27        792.3 
      1846.0         0.30        791.1 
      1847.0         0.35        791.1 
      1848.0         0.33        790.8 
      1849.0         0.33        790.1 
      1850.0         0.27        789.2 
      1851.0         0.27        786.6 
      1852.0         0.27        785.0 
      1853.0         0.23        783.8 
      1854.0         0.23        784.4 
      1855.0         0.23        785.7 
      1856.0         0.30        787.3 
      1857.0         0.30        785.7 
      1858.0         0.35        786.6 
      1859.0         0.23        788.8 
      1860.0         0.27        789.2 
      1861.0         0.30        788.5 
      1862.0         3.35        830.7 
      1863.0         0.50        807.9 
      1864.0         0.37        803.1 
      1865.0         0.33        802.5 
      1866.0         0.37        804.4 
      1867.0         0.43        805.0 
      1868.0         0.35        806.6 
      1869.0         0.30        807.3 
      1870.0         0.23        809.2 
      1871.0         0.27        810.1 
      1872.0         0.27        810.7 
      1873.0         0.30        804.7 
      1874.0         0.27        800.9 
      1875.0         0.33        799.6 
      1876.0         0.30        798.4 
      1877.0         0.37        796.1 
      1878.0         0.30        794.2 
      1879.0         0.28        794.2 
      1880.0         0.27        799.0 
      1881.0         0.30        802.8 
      1882.0         0.23        806.6 
      1883.0         0.30        810.7 
      1884.0         0.27        810.4 
      1885.0         0.23        809.5 
      1886.0         0.23        810.4 
      1887.0         0.27        807.6 
      1888.0         0.30        806.9 
      1889.0         0.23        806.0 
      1890.0         0.27        800.9 
      1891.0         0.20        794.2 
      1892.0         2.28        870.1 
      1893.0         0.30        842.2 
      1894.0         0.43        834.6 
      1895.0         0.42        825.3 
      1896.0         0.43        816.8 
      1897.0         0.30        812.3 
      1898.0         0.37        813.3 
      1899.0         0.43        813.9 
      1900.0         0.40        813.9 
      1901.0         0.40        817.4 
      1902.0         0.43        818.0 
      1903.0         0.30        820.0 
      1904.0         0.28        821.5 
      1905.0         0.23        819.3 
      1906.0         0.27        819.6 
      1907.0         0.27        819.0 
      1908.0         0.20        818.0 
      1909.0         0.27        822.5 
      1910.0         0.23        823.4 
      1911.0         0.23        825.0 
      1912.0         0.23        825.7 
      1913.0         0.20        824.7 
      1914.0         0.23        827.6 
      1915.0         0.23        824.7 
      1916.0         0.20        823.8 
      1917.0         0.23        824.4 
      1918.0         0.28        820.3 
      1919.0         0.30        819.6 
      1920.0         0.23        819.0 
      1921.0         0.30        814.2 
      1922.0         3.38        858.7 
      1923.0         0.40        833.9 
      1924.0         0.33        828.5 
      1925.0         0.33        826.3 
      1926.0         0.37        826.3 
      1927.0         0.37        825.7 
      1928.0         0.37        822.2 
      1929.0         0.32        818.7 
      1930.0         0.30        816.5 
      1931.0         0.33        818.4 
      1932.0         0.27        820.6 
      1933.0         0.27        823.8 
      1934.0         0.30        824.1 
      1935.0         0.27        822.2 
      1936.0         0.30        820.6 
      1937.0         0.27        819.0 
      1938.0         0.27        819.3 
      1939.0         0.27        819.0 
      1940.0         0.28        818.4 
      1941.0         0.30        816.1 
      1942.0         0.30        814.6 
      1943.0         0.30        812.3 
      1944.0         0.33        811.4 
      1945.0         0.33        807.6 
      1946.0         0.30        805.0 
      1947.0         0.47        807.6 
      1948.0         0.47        812.3 
      1949.0         0.48        816.1 
      1950.0         0.40        815.2 
      1951.0         0.43        814.2 
      1952.0         2.58        848.5 
      1953.0         0.40        841.2 
      1954.0         0.60        840.9 
      1955.0         0.57        832.6 
      1956.0         0.43        826.9 
      1957.0         0.60        826.9 
      1958.0         0.55        825.3 
      1959.0         0.60        833.9 
      1960.0         0.47        833.0 
