~Version Information
VERS.                      2.0: CWLS Log ASCII Standard - VERSION 2.0
WRAP.                       NO: One line per depth step
~Well Information Block
STRT.FT               625.0000: 
STOP.FT              2053.7000: 
STEP.FT                 0.1000: 
NULL.                -999.2500: 
COMP.          Pioneer Natural Resources: COMPANY
WELL.            Zink 44-10 Tr: WELL
FLD.           Purgatoire River: FIELD
LOC.           486' FSL & 554' FEL--: LOCATION
PROV.                 Colorado: PROVINCE
CNTY.               Las Animas: COUNTRY
SRVC.                Patterson: SERVICE COMPANY
DATE.          Sun Jul 24 08:46:57 2005: LOG DATE
UWI.           05 071 08446 00: UNIQUE WELL ID
~Curve Information Block
DEPT.FT            0 000 00 00: Depth
DCAL.in                       : CDL Caliper
RHOB.g/cc                     : CDL Bulk Density
RHOC.g/cc                     : CDL Density Correction
DPOR.pu                       : CDL Density Porosity
NPOR.pu                       : Neutron Porosity
GR.GAPI                       : Gamma Ray
~Parameter Information Block
~A  Depth       DCAL        RHOB        RHOC        DPOR        NPOR         GR     
# ...
  1373.8000      7.8874      2.4480      0.1827     12.2454     27.3384     53.3558
  1373.9000      7.8874      2.4573      0.1250     11.6786     29.6862     49.0588
  1374.0000      7.8991      2.4388      0.0925     12.8004     31.6077     46.9450
  1374.1000      7.8991      2.4056      0.0880     14.8135     32.1570     49.4304
  1374.2000      7.8991      2.3629      0.1047     17.4017     31.3965     57.1605
  1374.3000      7.9098      2.3049      0.0578     20.9145     29.6725     67.3296
  1374.4000      7.9098      2.2330      0.0192     25.2710     28.1244     75.3821
  1374.5000      7.9179      2.1602     -0.0603     29.6859     27.9165     79.0552
  1374.6000      7.9179      2.0929     -0.0346     33.7638     29.4234     78.4647
  1374.7000      7.9179      2.0228     -0.0556     38.0142     31.5389     76.5551
  1374.8000      7.9241      1.9476     -0.0382     42.5699     31.6743     75.3517
  1374.9000      7.9241      1.8829     -0.0196     46.4925     29.0323     73.6405
  1375.0000      7.9313      1.8451      0.0106     48.7795     27.3392     70.7970
  1375.1000      7.9313      1.8315      0.0895     49.6041     28.4074     66.7683
  1375.2000      7.9313      1.8248      0.1062     50.0110     29.3675     61.4123
  1375.3000      7.9420      1.8158      0.0984     50.5572     28.9496     56.5294
  1375.4000      7.9420      1.8031      0.1249     51.3249     29.9264     56.7497
  1375.5000      7.9466      1.7865      0.1045     52.3341     31.7881     62.3809
  1375.6000      7.9466      1.7668      0.1026     53.5265     31.5042     67.9122
  1375.7000      7.9466      1.7389      0.0748     55.2204     29.3222     71.4302
  1375.8000      7.9406      1.7001      0.0417     57.5695     28.5210     74.0288
  1375.9000      7.9406      1.6640     -0.0202     59.7566     30.1871     73.8167
  1376.0000      7.9335      1.6412      0.0218     61.1370     31.3507     71.7607
  1376.1000      7.9335      1.6266      0.0027     62.0251     30.5014     70.2309
  1376.2000      7.9335      1.6179      0.0302     62.5542     30.5568     66.9870
  1376.3000      7.9337      1.6235      0.0340     62.2150     31.8208     61.5060
  1376.4000      7.9337      1.6564      0.0626     60.2201     31.0276     58.1897
  1376.5000      7.9391      1.7241      0.0859     56.1179     28.1873     59.2289
  1376.6000      7.9391      1.8175      0.1485     50.4560     26.9098     60.7842
  1376.7000      7.9391      1.9215      0.1725     44.1500     27.2660     61.0424
  1376.8000      7.9445      2.0333      0.2124     37.3777     26.7774     64.1969
  1376.9000      7.9445      2.1551      0.2377     29.9915     25.7832     72.2911
  1377.0000      7.9536      2.2758      0.3016     22.6796     26.1242     82.6537
  1377.1000      7.9536      2.3770      0.3184     16.5483     27.1100     92.1294
  1377.2000      7.9536      2.4579      0.2888     11.6428     27.6647     97.6393
  1377.3000      7.9614      2.5236      0.2651      7.6616     28.6883     98.7055
  1377.4000      7.9614      2.5589      0.2633      5.5236     30.0969     98.6387
  1377.5000      7.9540      2.5546      0.1184      5.7796     29.7097    101.7835
  1377.6000      7.9540      2.5382      0.0487      6.7785     27.3752    107.1043
  1377.7000      7.9540      2.5343      0.0473      7.0129     25.8380    110.9973
  1377.8000      7.9387      2.5382      0.0731      6.7771     26.3614    114.3251
  1377.9000      7.9387      2.5398      0.0550      6.6802     28.1163    120.2302
  1378.0000      7.9324      2.5417      0.0323      6.5620     29.3961    130.2039
  1378.1000      7.9324      2.5489      0.0686      6.1279     29.2510    137.9572
  1378.2000      7.9324      2.5528      0.1171      5.8939     28.3573    137.0591
  1378.3000      7.9333      2.5478      0.0479      6.1912     28.1029    130.4578
  1378.4000      7.9333      2.5467      0.0549      6.2591     28.8118    127.0824
  1378.5000      7.9271      2.5544      0.0730      5.7954     28.7498    128.7660
  1378.6000      7.9271      2.5633      0.0659      5.2548     26.7676    127.7146
  1378.7000      7.9271      2.5715      0.0737      4.7602     25.2802    121.6724
  1378.8000      7.9162      2.5822      0.0777      4.1093     25.2874    113.0595
  1378.9000      7.9162      2.5923      0.1091      3.4980     25.2741    104.8180
  1379.0000      7.9107      2.5957      0.1061      3.2935     25.0840    101.9595
  1379.1000      7.9107      2.5997      0.0701      3.0505     25.7030    105.5292
  1379.2000      7.9107      2.6121      0.1015      2.2956     26.2004    109.9907
  1379.3000      7.9092      2.6242      0.1073      1.5666     25.1909    111.0522
  1379.4000      7.9092      2.6300      0.0891      1.2097     23.8877    109.1248
  1379.5000      7.9077      2.6330      0.0842      1.0289     23.4218    105.1083
  1379.6000      7.9077      2.6284      0.0777      1.3062     23.6080     99.9562
  1379.7000      7.9077      2.6115      0.0595      2.3311     24.3548     97.9773
  1379.8000      7.9046      2.5908      0.0301      3.5899     25.4861    100.1848
  1379.9000      7.9046      2.5758      0.0565      4.4954     26.2680    102.3927
  1380.0000      7.8998      2.5688      0.0202      4.9186     26.3088    101.4123
  1380.1000      7.8998      2.5676      0.0447      4.9964     25.8073     99.3855
  1380.2000      7.8998      2.5611      0.0749      5.3884     25.7154    100.9624
  1380.3000      7.8958      2.5480      0.0368      6.1802     26.7104    105.3571
  1380.4000      7.8958      2.5504      0.0236      6.0366     27.9991    108.1696
  1380.5000      7.8952      2.5739      0.0575      4.6111     28.3751    107.4962
  1380.6000      7.8952      2.5866      0.0898      3.8418     27.7658    105.6816
  1380.7000      7.8952      2.5717      0.0459      4.7457     26.3879    105.6410
  1380.8000      7.8995      2.5551      0.0586      5.7504     25.1033    106.4200
  1380.9000      7.8995      2.5579      0.0679      5.5804     25.3572    109.0726
  1381.0000      7.9020      2.5729      0.0549      4.6752     27.3320    115.6312
  1381.1000      7.9020      2.5805      0.0940      4.2118     29.3446    124.3403
  1381.2000      7.9020      2.5737      0.0303      4.6222     30.0025    132.5465
  1381.3000      7.9029      2.5691      0.0473      4.9037     29.8856    135.3156
  1381.4000      7.9029      2.5794      0.0542      4.2784     29.2188    131.8353
  1381.5000      7.9051      2.5968      0.0788      3.2260     27.6369    127.2917
  1381.6000      7.9051      2.6091      0.0983      2.4775     26.3645    126.0579
  1381.7000      7.9051      2.6103      0.1047      2.4069     26.3092    130.0412
  1381.8000      7.9063      2.5975      0.0844      3.1814     26.1168    133.1055
  1381.9000      7.9063      2.5759      0.0545      4.4935     24.9201    127.4814
  1382.0000      7.9048      2.5634      0.0190      5.2510     24.1938    120.4949
  1382.1000      7.9048      2.5731      0.0905      4.6609     24.5613    122.5679
  1382.2000      7.9048      2.5961      0.0907      3.2689     25.2039    129.6658
  1382.3000      7.9031      2.6160      0.0804      2.0580     25.7800    135.4606
  1382.4000      7.9031      2.6246      0.0742      1.5414     26.5479    140.6823
  1382.5000      7.9044      2.6205      0.0998      1.7909     27.0053    140.7113
  1382.6000      7.9044      2.6110      0.0456      2.3621     27.2210    128.2537
  1382.7000      7.9044      2.6069      0.0637      2.6108     27.7601    110.9953
  1382.8000      7.9051      2.6064      0.0602      2.6449     27.9067    102.4812
  1382.9000      7.9051      2.6028      0.0784      2.8586     27.4213    103.8171
  1383.0000      7.9026      2.6002      0.0559      3.0181     27.8403    111.2055
  1383.1000      7.9026      2.6072      0.0544      2.5961     29.6896    122.9957
  1383.2000      7.9026      2.6216      0.0866      1.7228     31.8988    133.8410
  1383.3000      7.8968      2.6364      0.0614      0.8260     32.7892    137.1935
