~Version Information
VERS.                      2.0: CWLS Log ASCII Standard - VERSION 2.0
WRAP.                       NO: One line per depth step
~Well Information Block
STRT.FT               555.0000: 
STOP.FT              2286.5000: 
STEP.FT                 0.1000: 
NULL.                -999.2500: 
COMP.          Pioneer Natural Resources: COMPANY
WELL.          Roadster 41-33 Kv: WELL
FLD.           Purgatoire River: FIELD
LOC.           903' FNL & 248' FEL: LOCATION
PROV.                 Colorado: PROVINCE
CNTY.               Las Animas: COUNTRY
SRVC.                Patterson: SERVICE COMPANY
DATE.          Thu Dec 15 10:28:25 2005: LOG DATE
UWI.           05 071 08615 00: UNIQUE WELL ID
~Curve Information Block
DEPT.FT            0 000 00 00: Depth
DCAL.in                       : CDL Caliper
RHOB.g/cc                     : CDL Bulk Density
RHOC.g/cc                     : CDL Density Correction
DPOR.pu                       : CDL Density Porosity
GR.GAPI                       : Gamma Ray
NPOR.pu                       : Neutron Porosity
~Parameter Information Block
~A  Depth       DCAL        RHOB        RHOC        DPOR         GR         NPOR    
# ...
  2158.2000      8.0069      2.5472      0.0543      6.2299    128.2745     23.0934
  2158.3000      8.0411      2.5550      0.0811      5.7592    137.0349     23.4977
  2158.4000      8.0411      2.5458      0.0309      6.3165    143.1439     23.8397
  2158.5000      8.0575      2.5268      0.0463      7.4673    140.6804     23.6798
  2158.6000      8.0575      2.5051      0.0670      8.7831    130.6511     23.4535
  2158.7000      8.0575      2.4806      0.0607     10.2639    120.6122     23.7806
  2158.8000      8.0708      2.4589      0.0353     11.5822    116.8998     24.5179
  2158.9000      8.0708      2.4403      0.0456     12.7105    119.6335     25.6060
  2159.0000      8.0902      2.4042      0.0989     14.8991    124.8778     26.6541
  2159.1000      8.0902      2.3296      0.0239     19.4166    125.1772     26.9099
  2159.2000      8.0902      2.2131     -0.0318     26.4811    117.3182     26.4664
  2159.3000      8.0985      2.0534     -0.0452     36.1587    107.9160     26.6052
  2159.4000      8.0985      1.8688     -0.1382     47.3484    101.1928     27.9983
  2159.5000      8.1004      1.7115     -0.2256     56.8761     93.7216     29.4053
  2159.6000      8.1004      1.6123     -0.1347     62.8917     82.6733     29.4224
  2159.7000      8.1004      1.5472     -0.1627     66.8338     74.1109     28.6041
  2159.8000      8.1725      1.4915     -0.1523     70.2148     71.8679     28.7037
  2159.9000      8.1725      1.4497     -0.1350     72.7461     66.5292     29.8702
  2160.0000      8.2536      1.4275      0.0268     74.0925     52.9726     30.4493
  2160.1000      8.2536      1.4133      0.0527     74.9486     40.2362     30.4619
  2160.2000      8.2536      1.3997      0.0359     75.7771     36.4538     31.0836
  2160.3000      8.3786      1.3890      0.0379     76.4257     41.0635     31.5508
  2160.4000      8.3786      1.3852      0.0141     76.6563     47.0889     31.1934
  2160.5000      8.3668      1.3883      0.0354     76.4667     47.7673     30.7738
  2160.6000      8.3668      1.3909      0.0441     76.3112     44.1502     30.5446
  2160.7000      8.3668      1.3917      0.0078     76.2617     40.3782     30.5440
  2160.8000      8.2289      1.4014      0.0302     75.6717     38.4324     31.1398
  2160.9000      8.2289      1.4293      0.0660     73.9839     37.9881     32.0496
  2161.0000      8.2049      1.4854      0.0309     70.5795     37.2576     32.2643
  2161.1000      8.2049      1.5757      0.0877     65.1082     36.3211     31.3588
  2161.2000      8.2049      1.6807      0.1071     58.7461     38.3254     30.0186
  2161.3000      8.2744      1.7713      0.1611     53.2525     44.0811     29.3780
  2161.4000      8.2744      1.8481      0.1163     48.6022     48.8962     29.5382
  2161.5000      8.1050      1.9403      0.1327     43.0115     51.1567     29.5514
  2161.6000      8.1050      2.0509      0.2183     36.3120     55.6286     28.8211
  2161.7000      8.1050      2.1473      0.2256     30.4668     64.0200     27.8486
  2161.8000      8.1578      2.2236      0.1910     25.8430     70.6334     27.2629
  2161.9000      8.1578      2.3106      0.1454     20.5705     71.8479     26.6938
  2162.0000      8.1342      2.4177      0.1954     14.0795     71.2675     25.5427
  2162.1000      8.1342      2.5142      0.1563      8.2277     73.7261     23.6611
  2162.2000      8.1342      2.5725      0.1445      4.6940     79.5553     21.2785
  2162.3000      8.0524      2.5883      0.0747      3.7413     84.9329     19.5377
  2162.4000      8.0524      2.5727      0.0379      4.6845     88.6657     19.3714
  2162.5000      8.0358      2.5465      0.0147      6.2713     94.3114     19.8199
  2162.6000      8.0358      2.5282      0.0122      7.3804    102.8074     19.7274
  2162.7000      8.0358      2.5282     -0.0262      7.3788    109.2501     19.3737
  2162.8000      8.0343      2.5485      0.0278      6.1521    110.1963     19.2631
  2162.9000      8.0343      2.5737      0.0591      4.6270    109.1868     19.2634
  2163.0000      8.0328      2.5881      0.0285      3.7522    111.6135     19.0099
  2163.1000      8.0328      2.5929      0.0554      3.4598    116.0509     18.6713
  2163.2000      8.0328      2.5915      0.0872      3.5477    118.5085     18.4960
  2163.3000      8.0152      2.5869      0.0770      3.8265    119.3404     18.7690
  2163.4000      8.0152      2.5900      0.0713      3.6333    118.6989     19.6774
  2163.5000      8.0172      2.6030      0.0932      2.8497    114.9891     20.7260
  2163.6000      8.0172      2.6116      0.1114      2.3270    110.3547     20.8293
  2163.7000      8.0172      2.6091      0.0893      2.4799    109.2249     19.2902
  2163.8000      8.0145      2.6047      0.0685      2.7431    110.8018     16.7945
  2163.9000      8.0145      2.6099      0.0827      2.4278    109.3942     14.7379
  2164.0000      8.0485      2.6212      0.0552      1.7456    103.4599     13.8089
  2164.1000      8.0485      2.6162      0.1202      2.0475    102.3182     13.7755
  2164.2000      8.0485      2.5802      0.0275      4.2303    108.3978     13.8516
  2164.3000      8.0552      2.5349     -0.0293      6.9727    111.7517     13.8847
  2164.4000      8.0552      2.5114     -0.0238      8.3982    108.9262     14.5875
  2164.5000      8.0548      2.5155      0.0051      8.1510    103.3318     16.0101
  2164.6000      8.0548      2.5333      0.0236      7.0721     98.4928     17.3005
  2164.7000      8.0548      2.5440      0.0477      6.4239     95.4206     17.3109
  2164.8000      8.0502      2.5419     -0.0039      6.5512     91.9557     16.0852
  2164.9000      8.0502      2.5444      0.0106      6.4021     88.9379     14.9104
  2165.0000      8.0508      2.5596      0.0424      5.4787     87.7779     14.4264
  2165.1000      8.0508      2.5724      0.0755      4.7027     86.8639     14.6638
  2165.2000      8.0508      2.5710      0.0495      4.7875     84.0600     15.1187
  2165.3000      8.0537      2.5597      0.0793      5.4756     78.2440     14.8986
  2165.4000      8.0537      2.5412      0.0500      6.5966     75.5375     14.1071
  2165.5000      8.0487      2.5182      0.0461      7.9851     78.1341     13.5709
  2165.6000      8.0487      2.5053     -0.0102      8.7708     78.6696     13.4566
  2165.7000      8.0487      2.5116      0.0439      8.3876     76.3119     13.2649
  2165.8000      8.0368      2.5235      0.0584      7.6690     74.9379     12.6720
  2165.9000      8.0368      2.5267      0.0430      7.4727     75.8107     11.7612
  2166.0000      8.0190      2.5266      0.0100      7.4800     78.8297     11.0286
  2166.1000      8.0190      2.5318      0.0579      7.1606     81.7242     11.0067
  2166.2000      8.0190      2.5391      0.0647      6.7225     81.1575     11.5789
  2166.3000      8.0244      2.5417      0.0241      6.5660     80.8485     12.0572
  2166.4000      8.0244      2.5373      0.0652      6.8333     85.2528     11.7439
  2166.5000      8.0410      2.5291      0.0264      7.3283     89.0867     10.7748
  2166.6000      8.0410      2.5283     -0.0069      7.3764     89.0191     10.1413
  2166.7000      8.0410      2.5360      0.0262      6.9114     89.3619     10.3812
  2166.8000      8.0548      2.5364      0.0112      6.8862     91.8821     11.2781
  2166.9000      8.0548      2.5203      0.0230      7.8585     92.2376     12.1283
  2167.0000      8.0535      2.5016     -0.0021      8.9943     85.6572     12.4433
  2167.1000      8.0535      2.5038     -0.0005      8.8622     76.2673     12.5975
  2167.2000      8.0535      2.5267      0.0338      7.4713     72.0139     12.8646
  2167.3000      8.0511      2.5468      0.0475      6.2562     73.6974     12.9871
  2167.4000      8.0511      2.5547      0.0524      5.7767     75.5029     13.0062
  2167.5000      8.0308      2.5631      0.0503      5.2683     73.9540     13.2501
  2167.6000      8.0308      2.5769      0.0812      4.4333     73.0430     13.3580
  2167.7000      8.0308      2.5807      0.0893      4.2010     75.8015     13.0238
