~Version Information
 VERS.                                  2.0 : CWLS LAS VERSION
 WRAP.                                   NO : WRAPING MODE
 SWARE .                 MController 2.5.0E : SOFTWARE VERSION
~Well Information
 WELL.                      Black Cat 13-23 : WELL
 COMP.     Pioneer Natural Resources USA Inc: COMPANY
 FLD.                      Purgatorie River : FIELD
 LOC.                 NW/SW Sec32 T32S R67W : LOCATION
 DATE.                           7/30-31/05 : DATE(S) LOGGED
 SRVC.       Blanco Geological Services LLC : SERVICE COMPANY
 STAT.                                   CO : STATE
 CNTY.                           Las Animas : COUNTY
 CTRY.                                  USA : COUNTRY
 API.                       05-071-08450-00 : API NUMBER
 STRT.FT                             327.00 : START DEPTH
 STOP.FT                            2850.00 : STOP DEPTH
 STEP.FT                               1.00 : DEPTH INCREMENT
 NULL.                                -9999 : NULL VALUE
~Curve information
 DEPTH.FT                                   :
 ROP.MIN/FT                                 :
 GAS.UNITS                                  :
~ASCII Log data
# ...
      1727.0         0.20         30.1 
      1728.0         0.13         29.6 
      1729.0         0.13         29.6 
      1730.0         0.15         30.9 
      1731.0         0.13         29.5 
      1732.0         0.27         29.6 
      1733.0         0.30         29.5 
      1734.0         0.43         30.4 
      1735.0         0.40         30.7 
      1736.0         0.47         31.6 
      1737.0         0.30         32.4 
      1738.0         0.33         32.8 
      1739.0         0.47         34.3 
      1740.0         0.45         35.7 
      1741.0        10.85         40.5 
      1742.0         0.40         29.5 
      1743.0         0.20         28.4 
      1744.0         0.27         29.0 
      1745.0         0.27         28.2 
      1746.0         0.30         29.7 
      1747.0         0.57         34.3 
      1748.0         0.55         38.2 
      1749.0         0.30         38.6 
      1750.0         0.57         41.6 
      1751.0         0.50         40.9 
      1752.0         0.43         43.7 
      1753.0         0.30         43.2 
      1754.0         0.27         42.0 
      1755.0         0.20         39.3 
      1756.0         0.20         38.3 
      1757.0         0.20         36.9 
      1758.0         0.18         34.6 
      1759.0         0.17         34.7 
      1760.0         0.20         32.3 
      1761.0         0.17         31.0 
      1762.0         0.17         30.6 
      1763.0         0.17         30.6 
      1764.0         0.17         32.4 
      1765.0         0.13         33.6 
      1766.0         0.17         33.6 
      1767.0         0.23         32.8 
      1768.0         0.13         34.0 
      1769.0         0.13         34.5 
      1770.0         0.20         35.5 
      1771.0         6.20         37.3 
      1772.0         0.37         29.6 
      1773.0         0.43         29.9 
      1774.0         0.53         29.8 
      1775.0         0.30         29.7 
      1776.0         0.28         29.2 
      1777.0         0.43         30.1 
      1778.0         0.27         30.7 
      1779.0         0.27         32.9 
      1780.0         0.33         34.5 
      1781.0         0.27         36.1 
      1782.0         0.27         34.6 
      1783.0         0.30         32.1 
      1784.0         0.23         30.5 
      1785.0         0.27         28.9 
      1786.0         0.40         29.2 
      1787.0         0.25         30.2 
      1788.0         0.17         30.2 
      1789.0         0.23         30.4 
      1790.0         0.23         31.1 
      1791.0         0.23         29.9 
      1792.0         0.23         30.7 
      1793.0         0.27         31.9 
      1794.0         0.27         32.2 
      1795.0         0.23         32.2 
      1796.0         0.23         34.9 
      1797.0         0.27         34.6 
      1798.0         0.23         35.9 
      1799.0         0.27         37.3 
      1800.0         0.27         39.3 
      1801.0         0.32         39.9 
      1802.0        10.45         45.1 
      1803.0         0.17         29.2 
      1804.0         0.10         29.2 
      1805.0         0.10         29.2 
      1806.0         0.27         28.6 
      1807.0         0.37         30.0 
      1808.0         0.37         29.7 
      1809.0         0.40         30.0 
      1810.0         0.63         30.4 
      1811.0         0.42         30.0 
      1812.0         0.50         33.0 
      1813.0         0.50         36.6 
      1814.0         0.57         38.0 
      1815.0         0.50         33.0 
      1816.0         0.63         28.9 
      1817.0         0.40         30.1 
      1818.0         0.48         31.5 
      1819.0         0.33         30.9 
      1820.0         0.37         29.9 
      1821.0         0.33         26.5 
      1822.0         0.37         27.5 
      1823.0         0.30         28.4 
      1824.0         0.30         29.3 
      1825.0         0.33         30.2 
      1826.0         0.30         32.4 
      1827.0         0.52         34.4 
      1828.0         0.53         36.8 
      1829.0         0.33         40.0 
      1830.0         0.37         41.8 
      1831.0         8.17         42.0 
      1832.0         0.10         24.4 
      1833.0         0.27         24.5 
      1834.0         0.48         26.7 
      1835.0         0.30         28.0 
      1836.0         0.23         27.0 
      1837.0         0.23         28.7 
      1838.0         0.33         30.1 
      1839.0         0.27         34.7 
      1840.0         0.23         36.9 
      1841.0         0.17         37.8 
      1842.0         0.20         37.5 
      1843.0         0.67         35.8 
      1844.0         0.88         27.7 
      1845.0         0.37         24.6 
      1846.0         0.37         23.4 
      1847.0         0.27         24.2 
      1848.0         0.27         24.1 
      1849.0         0.27         24.8 
      1850.0         0.23         23.3 
      1851.0         0.17         25.0 
      1852.0         0.27         24.2 
      1853.0         0.27         24.8 
      1854.0         0.20         24.8 
      1855.0         0.22         26.1 
      1856.0         0.37         25.6 
      1857.0         0.63         26.7 
      1858.0         0.70         28.3 
      1859.0         0.30         28.4 
      1860.0         0.27         29.8 
      1861.0        13.43         50.1 
      1862.0         0.70         35.3 
      1863.0         0.72         26.8 
      1864.0         0.27         23.0 
      1865.0         0.20         23.8 
      1866.0         0.23         22.5 
      1867.0         0.30         23.4 
      1868.0         0.33         22.2 
      1869.0         0.37         22.1 
      1870.0         0.37         22.4 
      1871.0         0.40         24.1 
      1872.0         0.37         22.8 
      1873.0         0.28         23.6 
      1874.0         0.33         22.3 
      1875.0         0.37         23.9 
      1876.0         0.37         24.2 
      1877.0         0.47         24.9 
      1878.0         0.30         26.7 
      1879.0         0.30         27.5 
      1880.0         0.43         28.4 
      1881.0         0.47         30.1 
      1882.0         0.28         29.3 
      1883.0         0.43         31.6 
      1884.0         0.33         32.3 
      1885.0         0.37         33.3 
      1886.0         0.47         32.9 
      1887.0         0.47         28.8 
      1888.0         0.53         28.1 
      1889.0         0.58         27.6 
      1890.0         0.37         28.5 
      1891.0         6.37         44.7 
      1892.0         1.17         49.8 
      1893.0         0.10         38.9 
      1894.0         0.23         37.3 
      1895.0         0.63         33.2 
      1896.0         0.40         25.2 
      1897.0         0.30         23.9 
      1898.0         0.23         23.2 
      1899.0         0.48         23.2 
      1900.0         0.40         22.5 
      1901.0         0.27         22.5 
      1902.0         0.23         23.8 
      1903.0         0.20         24.2 
      1904.0         0.23         24.3 
      1905.0         0.27         24.2 
      1906.0         0.30         24.6 
      1907.0         0.23         24.2 
      1908.0         0.27         23.7 
      1909.0         0.27         24.4 
      1910.0         0.27         24.7 
      1911.0         0.25         23.9 
      1912.0         0.13         25.1 
      1913.0         0.20         24.4 
      1914.0         0.27         24.8 
      1915.0         0.33         26.8 
      1916.0         0.37         26.7 
      1917.0         0.37         24.9 
      1918.0         0.37         27.4 
      1919.0         0.47         28.0 
      1920.0         0.33         29.0 
      1921.0         8.58         33.8 
      1922.0         2.95         49.8 
      1923.0         0.70         24.4 
      1924.0         0.50         23.5 
      1925.0         0.40         22.5 
      1926.0         0.30         23.5 
