~Version Information
 VERS.                                  2.0 : CWLS LAS VERSION
 WRAP.                                   NO : WRAPING MODE
 SWARE .                 MController 2.5.0N : SOFTWARE VERSION
~Well Information
 WELL.                        ROLLS 14-14Tr : WELL
 COMP.   Pioneer Natural Resources, USA INC : COMPANY
 FLD.                      PURGATOIRE RIVER : FIELD
 LOC.                SW/SW SEC 14 T32S R66W : LOCATION
 DATE.                           08/02/2005 : DATE(S) LOGGED
 SRVC.       BLANCO GEOLOGICAL SERVICES LLC : SERVICE COMPANY
 STAT.                             COLORADO : STATE
 CNTY.                           LAS ANIMAS : COUNTY
 CTRY.                                  USA : COUNTRY
 API.                       05-071-08454-00 : API NUMBER
 STRT.FT                             744.00 : START DEPTH
 STOP.FT                            1800.00 : STOP DEPTH
 STEP.FT                               1.00 : DEPTH INCREMENT
 NULL.                                -9999 : NULL VALUE
~Curve information
 DEPTH.FT                                   :
 ROP.MIN/FT                                 :
 GAS.UNITS                                  :
~ASCII Log data
# ...
       944.0         0.10         21.6 
       945.0         0.13         21.9 
       946.0         0.13         25.7 
       947.0         0.13         30.3 
       948.0         0.10         35.5 
       949.0         0.13         44.6 
       950.0         0.42         95.7 
       951.0         0.50        135.0 
       952.0         0.10        125.9 
       953.0         0.07        125.9 
       954.0         0.23        120.2 
       955.0         0.23         89.7 
       956.0         1.13         72.5 
       957.0         0.23         41.0 
       958.0         0.27         37.4 
       959.0         0.27         35.5 
       960.0         0.32         33.6 
       961.0         0.23         31.9 
       962.0         0.17         31.0 
       963.0         0.13         30.0 
       964.0         0.20         29.5 
       965.0         0.17         28.7 
       966.0         0.20         28.6 
       967.0         0.17         28.6 
       968.0         0.17         28.6 
       969.0         0.17         28.6 
       970.0         0.17         27.8 
       971.0         0.13         28.3 
       972.0         0.13         27.3 
       973.0         0.13         26.4 
       974.0         0.23         25.6 
       975.0         0.13         24.2 
       976.0         0.17         23.1 
       977.0         0.13         20.5 
       978.0         0.17         19.5 
       979.0         0.15         19.6 
       980.0         0.17         22.9 
       981.0         0.13         25.9 
       982.0         0.13         33.3 
       983.0         0.40         60.2 
       984.0         0.37         96.1 
       985.0         0.63         99.8 
       986.0         2.52         69.1 
       987.0         0.27         31.7 
       988.0         0.37         30.4 
       989.0         0.20         28.5 
       990.0         0.30         26.7 
       991.0         0.10         25.9 
       992.0         0.53         26.6 
       993.0         0.20         25.7 
       994.0         0.20         24.9 
       995.0         0.12         24.0 
       996.0         0.17         23.1 
       997.0         0.13         21.5 
       998.0         0.07         19.2 
       999.0         0.17         18.7 
      1000.0         0.17         19.0 
      1001.0         0.17         21.3 
      1002.0         0.17         29.1 
      1003.0         0.20         35.8 
      1004.0         0.20         48.7 
      1005.0         0.13         59.8 
      1006.0         0.10         63.4 
      1007.0         0.10         67.1 
      1008.0         0.20         70.2 
      1009.0         0.10         70.1 
      1010.0         0.03         70.1 
      1011.0         0.20         69.9 
      1012.0         0.13         65.1 
      1013.0         0.10         59.2 
      1014.0         0.10         55.3 
      1015.0         0.33         51.5 
      1016.0         1.05         42.2 
      1017.0         0.23         29.9 
      1018.0         0.23         29.2 
      1019.0         0.23         27.9 
      1020.0         0.17         27.0 
      1021.0         0.10         26.0 
      1022.0         0.10         25.6 
      1023.0         0.20         26.0 
      1024.0         0.23         24.5 
      1025.0         0.20         23.4 
      1026.0         0.10         22.4 
      1027.0         0.13         22.3 
      1028.0         0.13         22.1 
      1029.0         0.20         21.6 
      1030.0         0.15         22.1 
      1031.0         0.13         23.7 
      1032.0         0.13         24.1 
      1033.0         0.20         24.2 
      1034.0         0.13         24.4 
      1035.0         0.20         23.5 
      1036.0         0.23         22.3 
      1037.0         0.20         21.1 
      1038.0         0.20         18.3 
      1039.0         0.17         16.5 
      1040.0         0.13         17.6 
      1041.0         0.20         21.5 
      1042.0         0.50         45.0 
      1043.0         0.40         59.9 
      1044.0         0.68         59.0 
      1045.0         0.17         48.5 
      1046.0         1.10         43.2 
      1047.0         0.23         28.3 
      1048.0         0.40         25.7 
      1049.0         0.27         23.3 
      1050.0         0.23         22.7 
      1051.0         0.27         23.0 
      1052.0         0.27         22.9 
      1053.0         0.25         22.3 
      1054.0         0.23         21.5 
      1055.0         0.23         20.1 
      1056.0         0.23         18.4 
      1057.0         0.20         18.4 
      1058.0         0.23         18.0 
      1059.0         0.20         18.2 
      1060.0         0.23         18.3 
      1061.0         0.20         18.5 
      1062.0         0.20         18.4 
      1063.0         0.23         18.5 
      1064.0         0.20         19.2 
      1065.0         0.20         20.5 
      1066.0         0.17         21.5 
      1067.0         0.17         22.2 
      1068.0         0.13         22.7 
      1069.0         0.18         22.4 
      1070.0         0.17         21.1 
      1071.0         0.23         19.4 
      1072.0         0.20         17.4 
      1073.0         0.27         20.5 
      1074.0         0.57         44.1 
      1075.0         0.30         59.3 
      1076.0         1.20         61.2 
      1077.0         0.27         36.0 
      1078.0         0.28         32.0 
      1079.0         0.27         30.0 
      1080.0         0.30         28.0 
      1081.0         0.27         26.7 
      1082.0         0.27         24.6 
      1083.0         0.27         22.9 
      1084.0         0.20         20.8 
      1085.0         0.20         19.8 
      1086.0         0.20         19.0 
      1087.0         0.20         18.5 
      1088.0         0.20         18.8 
      1089.0         0.20         19.1 
      1090.0         0.20         19.1 
      1091.0         0.17         19.6 
      1092.0         0.22         19.8 
      1093.0         0.20         20.5 
      1094.0         0.20         20.5 
      1095.0         0.20         25.5 
      1096.0         0.20         43.0 
      1097.0         0.23        119.1 
      1098.0         0.20        300.0 
      1099.0         0.27        424.9 
      1100.0         0.27        453.2 
      1101.0         0.20        444.8 
      1102.0         0.17        385.8 
      1103.0         0.23        312.9 
      1104.0         0.23        312.7 
      1105.0         0.23        462.5 
      1106.0         1.38       2719.8 
      1107.0         0.20       2053.6 
      1108.0         0.40       1749.1 
      1109.0         0.33       1154.2 
      1110.0         0.27       1036.2 
      1111.0         0.27       1011.4 
      1112.0         0.23        913.8 
      1113.0         0.27        815.2 
      1114.0         0.20        739.1 
      1115.0         0.17        737.2 
      1116.0         0.18        760.1 
      1117.0         0.17        773.9 
      1118.0         0.17        778.4 
      1119.0         0.17        777.1 
      1120.0         0.17        767.8 
      1121.0         0.20        773.9 
      1122.0         0.20        787.1 
      1123.0         0.17        792.9 
      1124.0         0.17        791.3 
      1125.0         0.20        784.2 
      1126.0         0.17        776.2 
      1127.0         0.20        718.2 
      1128.0         0.20        669.2 
      1129.0         0.23        638.2 
      1130.0         0.23        658.2 
      1131.0         0.20        686.3 
      1132.0         0.20        684.3 
      1133.0         0.20        665.3 
      1134.0         0.18        654.7 
      1135.0         0.20        767.5 
      1136.0         1.27       1970.2 
      1137.0         0.13       1843.8 
      1138.0         0.20       1698.5 
      1139.0         0.10       1439.1 
      1140.0         0.10       1308.9 
      1141.0         0.07       1266.7 
      1142.0         0.27       1114.2 
      1143.0         0.27        881.9 
