~Version Information
VERS.                      2.0: CWLS Log ASCII Standard - VERSION 2.0
WRAP.                       NO: One line per depth step
~Well Information Block
STRT.FT                -8.0000: 
STOP.FT              1060.7500: 
STEP.FT                 0.2500: 
NULL.                -999.2500: 
COMP.          Pioneer Natural Resources: COMPANY
WELL.          Pavillion 44-25: WELL
FLD.           Purgatorie River: FIELD
LOC.           719' FSL & 650' FEL--: LOCATION
PROV.                       CO: PROVINCE
CNTY.               Las Animas: COUNTRY
SRVC.          Patterson Wireline: SERVICE COMPANY
DATE.          Mon Dec 19 11:59:26 2005: LOG DATE
UWI.           05 071 08624 00: UNIQUE WELL ID
~Curve Information Block
DEPT.FT            0 000 00 00: Depth
CCL.                          : Casing Collar Locator
TT3.usec                      : CBL 3' Travel Time
AMP3.mV                       : CBL 3' Amplitude
GR.GAPI                       : Gamma Ray
~Parameter Information Block
~A  Depth       CCL         TT3         AMP3         GR     
# ...
  1030.5000      0.0000    609.6381      6.0513    112.6081
  1030.7500      0.0000    589.4620      6.0315    116.7659
  1031.0000      0.0000    564.9686      5.9934    117.4564
  1031.2500      0.0000    548.1360      5.9446    114.6441
  1031.5000      0.0000    543.6876      5.8975    110.4648
  1031.7500      0.0000    551.8156      5.8612    107.4120
  1032.0000      0.0000    572.0724      5.8382    106.5855
  1032.2500      0.0000    602.5023      5.8277    107.4568
  1032.5000      0.0000    636.3247      5.8279    108.6001
  1032.7500      0.0000    663.0248      5.8326    108.4983
  1033.0000      0.0000    675.4596      5.8321    106.4150
  1033.2500      0.0000    675.9290      5.8186    103.0546
  1033.5000      0.0000    673.8361      5.7908    100.0965
  1033.7500      0.0000    676.7581      5.7547     98.8128
  1034.0000      0.0000    684.5434      5.7236     99.3168
  1034.2500      0.0000    691.8358      5.7157    101.0795
  1034.5000      0.0000    694.2396      5.7475    103.5617
  1034.7500      0.0000    691.2737      5.8263    105.9786
  1035.0000      0.0000    685.2350      5.9458    107.1372
  1035.2500      0.0000    678.7506      6.0867    106.4920
  1035.5000      0.0000    673.1417      6.2216    105.2547
  1035.7500      0.0000    668.3030      6.3228    105.6914
  1036.0000      0.0000    663.6936      6.3702    109.1315
  1036.2500      0.0000    659.2343      6.3572    114.7883
  1036.5000      0.0000    655.2873      6.2935    120.3691
  1036.7500      0.0000    652.0850      6.2026    123.8244
  1037.0000      0.0000    649.0574      6.1122    124.6475
  1037.2500      0.0000    644.3582      6.0433    123.6550
  1037.5000      0.0000    634.7155      6.0040    122.0054
  1037.7500      0.0000    615.9866      5.9911    120.8865
  1038.0000      0.0000    585.3440      5.9945    121.4944
  1038.2500      0.0000    545.4884      6.0015    124.1597
  1038.5000      0.0000    506.9600      5.9990    127.4906
  1038.7500      0.0000    483.4060      5.9799    129.1897
  1039.0000      0.0000    482.5426      5.9490    127.8739
  1039.2500      0.0000    502.3383      5.9208    123.8584
  1039.5000      0.0000    535.2509      5.9100    118.6794
  1039.7500      0.0000    573.3381      5.9218    114.4006
  1040.0000      0.0000    609.6060      5.9520    112.8985
  1040.2500      0.0000    638.5187      5.9932    114.7561
  1040.5000      0.0000    657.5995      6.0431    118.5423
  1040.7500      0.0000    667.9343      6.1050    121.6772
  1041.0000      0.0000    672.5790      6.1790    122.3850
  1041.2500      0.0000    674.6724      6.2573    120.7124
  1041.5000      0.0000    676.7103      6.3322    117.6374
  1041.7500      0.0000    680.8141      6.4044    113.7310
  1042.0000      0.0000    688.8970      6.4810    109.1642
  1042.2500      0.0000    701.9639      6.5679    104.6968
  1042.5000      0.0000    718.7834      6.6651    101.8893
  1042.7500      0.0000    735.6230      6.7659    101.9613
  1043.0000      0.0000    748.1976      6.8594    104.6408
  1043.2500      0.0000    754.5676      6.9381    108.5711
  1043.5000      0.0000    756.1526      7.0020    112.8240
  1043.7500      0.0000    756.1147      7.0549    117.4566
  1044.0000      0.0000    757.1743      7.0975    122.5057
  1044.2500      0.0000    760.7119      7.1274    127.1340
  1044.5000      0.0000    766.9020      7.1478    130.2024
  1044.7500      0.0000    774.9601      7.1713    131.2754
  1045.0000      0.0000    783.1615      7.2104    130.6782
  1045.2500      0.0000    788.8970      7.2628    128.7766
  1045.5000      0.0000    789.4935      7.3107    125.5047
  1045.7500      0.0000    783.9647      7.3342    120.4891
  1046.0000      0.0000    774.2090      7.3247    113.0958
  1046.2500      0.0000    763.9630      7.2878    102.1254
  1046.5000      0.0000    756.2192      7.2384     86.1978
  1046.7500      0.0000    751.6013      7.1916     65.5150
  1047.0000      0.0000    748.8063      7.1547     43.2182
  1047.2500      0.0000    746.0310      7.1259     24.0073
  1047.5000      0.0000    742.1844      7.1015     10.9811
  1047.7500      0.0000    737.5749      7.0807      4.0712
  1048.0000      0.0000    733.5992      7.0631      1.2095
  1048.2500      0.0000    731.2361      7.0452      0.2854
  1048.5000      0.0000    729.7672      7.0223      0.0526
  1048.7500      0.0000    727.6224      6.9950      0.0069
  1049.0000      0.0000    724.3971      6.9703      0.0000
  1049.2500      0.0000    721.1696      6.9554   -999.2500
  1049.5000      0.0000    718.7892      6.9534   -999.2500
  1049.7500      0.0000    716.8707      6.9653   -999.2500
  1050.0000      0.0000    714.9177      6.9923   -999.2500
  1050.2500      0.0000    713.6168      7.0311   -999.2500
  1050.5000      0.0000    714.2790      7.0698   -999.2500
  1050.7500      0.0000    717.2825      7.0922   -999.2500
  1051.0000      0.0000    720.9846      7.0838   -999.2500
  1051.2500      0.0000    720.7271      7.0192   -999.2500
  1051.5000      0.0000    706.7567      6.8278   -999.2500
  1051.7500      0.0000    663.5995      6.3752   -999.2500
  1052.0000      0.0000    576.8540      5.5251   -999.2500
  1052.2500      0.0000    447.3370      4.2790   -999.2500
  1052.5000      0.0000    299.0966      2.8597   -999.2500
  1052.7500      0.0000    167.7308      1.6034   -999.2500
  1053.0000      0.0000     77.2764      0.7387   -999.2500
  1053.2500      0.0000     28.8143      0.2754   -999.2500
  1053.5000      0.0000      8.6020      0.0822   -999.2500
  1053.7500      0.0000      2.0373      0.0195   -999.2500
  1054.0000      0.0000      0.3771      0.0036   -999.2500
  1054.2500      0.0000      0.0502      0.0005   -999.2500
  1054.5000      0.0000   -999.2500   -999.2500   -999.2500
  1054.7500      0.0000   -999.2500   -999.2500   -999.2500
  1055.0000      0.0000   -999.2500   -999.2500   -999.2500
  1055.2500      0.0000   -999.2500   -999.2500   -999.2500
  1055.5000      0.0000   -999.2500   -999.2500   -999.2500
  1055.7500      0.0000   -999.2500   -999.2500   -999.2500
  1056.0000      0.0000   -999.2500   -999.2500   -999.2500
  1056.2500      0.0000   -999.2500   -999.2500   -999.2500
  1056.5000      0.0000   -999.2500   -999.2500   -999.2500
  1056.7500      0.0000   -999.2500   -999.2500   -999.2500
  1057.0000      0.0000   -999.2500   -999.2500   -999.2500
  1057.2500      0.0000   -999.2500   -999.2500   -999.2500
  1057.5000      0.0000   -999.2500   -999.2500   -999.2500
  1057.7500      0.0000   -999.2500   -999.2500   -999.2500
  1058.0000      0.0000   -999.2500   -999.2500   -999.2500
  1058.2500      0.0000   -999.2500   -999.2500   -999.2500
  1058.5000      0.0000   -999.2500   -999.2500   -999.2500
  1058.7500      0.0000   -999.2500   -999.2500   -999.2500
  1059.0000      0.0000   -999.2500   -999.2500   -999.2500
  1059.2500      0.0000   -999.2500   -999.2500   -999.2500
  1059.5000      0.0000   -999.2500   -999.2500   -999.2500
  1059.7500      0.0000   -999.2500   -999.2500   -999.2500
  1060.0000   -999.2500   -999.2500   -999.2500   -999.2500
  1060.2500   -999.2500   -999.2500   -999.2500   -999.2500
  1060.5000   -999.2500   -999.2500   -999.2500   -999.2500
  1060.7500   -999.2500   -999.2500   -999.2500   -999.2500
