~Version Information
VERS.                      2.0: CWLS Log ASCII Standard - VERSION 2.0
WRAP.                       NO: One line per depth step
~Well Information Block
STRT.FT               -16.0000: 
STOP.FT              2827.7500: 
STEP.FT                 0.2500: 
NULL.                -999.2500: 
COMP.          Pioneer Natural Resources: COMPANY
WELL.          Touchstone 11-32: WELL
FLD.           Purgatorie River: FIELD
LOC.           853' FNL & 407' FWL--: LOCATION
CNTY.               Las Animas: COUNTY
SRVC.          Patterson Wireline: SERVICE COMPANY
DATE.          Wed Mar 15 10:09:19 2006: LOG DATE
UWI.           05 071 08564 00: UNIQUE WELL ID
STAT.                       CO: STATE
~Curve Information Block
DEPT.FT            0 000 00 00: Depth
CCL.                          : Casing Collar Locator
TT3.usec                      : CBL 3' Travel Time
AMP3.mV                       : CBL 3' Amplitude
GR.GAPI                       : Gamma Ray
~Parameter Information Block
~A  Depth       CCL         TT3         AMP3         GR     
# ...
  2798.0000      0.0000    392.2794      4.3965     63.5525
  2798.2500      0.0000    392.6045      4.4428     62.1597
  2798.5000      0.0000    392.8312      4.4843     61.3545
  2798.7500      0.0000    392.9686      4.5186     61.8333
  2799.0000      0.0000    393.0661      4.5506     63.5427
  2799.2500      0.0000    393.1815      4.5850     65.8204
  2799.5000      0.0000    393.3889      4.6194     67.4406
  2799.7500      0.0000    393.8417      4.6442     67.0040
  2800.0000      0.0000    394.8662      4.6504     63.8920
  2800.2500      0.0000    396.9141      4.6373     58.8388
  2800.5000      0.0000    400.2482      4.6139     53.5073
  2800.7500      0.0000    404.5693      4.5918     49.6121
  2801.0000      0.0000    409.2153      4.5778     48.2757
  2801.2500      0.0000    414.1336      4.5718     49.6165
  2801.5000      0.0000    420.8786      4.5726     52.5177
  2801.7500      0.0000    432.4666      4.5839     55.0850
  2802.0000      0.0000    451.7937      4.6112     55.9032
  2802.2500      0.0000    479.4606      4.6539     55.0886
  2802.5000      0.0000    512.6490      4.7028     54.0773
  2802.7500      0.0000    546.1473      4.7498     54.2808
  2803.0000      0.0000    574.5672      4.7930     55.8403
  2803.2500      0.0000    593.6531      4.8291     57.6222
  2803.5000      0.0000    600.5190      4.8452     58.3668
  2803.7500      0.0000    594.7005      4.8257     57.7368
  2804.0000      0.0000    579.6688      4.7667     56.2655
  2804.2500      0.0000    561.7018      4.6817     54.5769
  2804.5000      0.0000    546.3294      4.5924     53.0552
  2804.7500      0.0000    536.5229      4.5160     52.1805
  2805.0000      0.0000    534.0714      4.4605     52.5666
  2805.2500      0.0000    540.9431      4.4256     54.4037
  2805.5000      0.0000    558.2375      4.4074     57.2471
  2805.7500      0.0000    584.0835      4.4005     60.4479
  2806.0000      0.0000    612.9348      4.3970     63.3811
  2806.2500      0.0000    637.4028      4.3872     65.1965
  2806.5000      0.0000    652.2050      4.3661     64.9684
  2806.7500      0.0000    657.8117      4.3432     62.6608
  2807.0000      0.0000    660.0311      4.3410     59.7740
  2807.2500      0.0000    664.7617      4.3768     58.3661
  2807.5000      0.0000    673.1774      4.4458     59.1326
  2807.7500      0.0000    682.5792      4.5252     60.7773
  2808.0000      0.0000    690.5357      4.5952     61.4671
  2808.2500      0.0000    696.5607      4.6508     60.5837
  2808.5000      0.0000    700.6259      4.6964     58.9444
  2808.7500      0.0000    701.8800      4.7361     57.7715
  2809.0000      0.0000    699.0729      4.7717     57.7742
  2809.2500      0.0000    690.8552      4.8037     58.8911
  2809.5000      0.0000    675.1095      4.8301     60.4529
  2809.7500      0.0000    649.6688      4.8442     61.6424
  2810.0000      0.0000    615.7597      4.8388     62.0550
  2810.2500      0.0000    580.5859      4.8122     61.8841
  2810.5000      0.0000    554.7908      4.7692     61.6555
  2810.7500      0.0000    546.5888      4.7164     61.9338
  2811.0000      0.0000    557.6681      4.6609     63.1512
  2811.2500      0.0000    582.4022      4.6171     65.3116
  2811.5000      0.0000    609.8139      4.6061     67.6724
  2811.7500      0.0000    629.3483      4.6441     68.9656
  2812.0000      0.0000    638.4001      4.7271     68.2960
  2812.2500      0.0000    644.1061      4.8301     65.9474
  2812.5000      0.0000    655.7157      4.9176     63.2663
  2812.7500      0.0000    675.1407      4.9533     61.6085
  2813.0000      0.0000    695.7216      4.9027     61.1515
  2813.2500      0.0000    708.0643      4.7405     60.4619
  2813.5000      0.0000    704.4389      4.4641     57.2186
  2813.7500      0.0000    680.1302      4.1052     49.7218
  2814.0000      0.0000    636.7794      3.7245     38.2641
  2814.2500      0.0000    586.3425      3.3873     25.3054
  2814.5000      0.0000    547.8008      3.1324     14.0347
  2814.7500      0.0000    536.1793      2.9521      6.4038
  2815.0000      0.0000    553.6541      2.8010      2.3692
  2815.2500      0.0000    590.2356      2.6310      0.7029
  2815.5000      0.0000    631.6058      2.4234      0.1656
  2815.7500      0.0000    666.9261      2.1932      0.0305
  2816.0000      0.0000    691.9836      1.9705      0.0040
  2816.2500      0.0000    707.7896      1.7833      0.0000
  2816.5000      0.0000    717.3895      1.6540   -999.2500
  2816.7500      0.0000    723.9401      1.5975   -999.2500
  2817.0000      0.0000    730.8344      1.6144   -999.2500
  2817.2500      0.0000    741.5985      1.6838   -999.2500
  2817.5000      0.0000    757.4674      1.7689   -999.2500
  2817.7500      0.0000    774.5694      1.8361   -999.2500
  2818.0000      0.0000    784.2140      1.8715   -999.2500
  2818.2500      0.0000    776.5203      1.8763   -999.2500
  2818.5000      0.0000    743.2338      1.8450   -999.2500
  2818.7500      0.0000    677.2526      1.7467   -999.2500
  2819.0000      0.0000    573.5606      1.5387   -999.2500
  2819.2500      0.0000    437.0149      1.2114   -999.2500
  2819.5000      0.0000    289.4062      0.8213   -999.2500
  2819.7500      0.0000    161.6324      0.4659   -999.2500
  2820.0000      0.0000     74.3899      0.2165   -999.2500
  2820.2500      0.0000     27.7499      0.0813   -999.2500
  2820.5000      0.0000      8.2910      0.0244   -999.2500
  2820.7500      0.0000      1.9659      0.0058   -999.2500
  2821.0000      0.0000      0.3644      0.0011   -999.2500
  2821.2500      0.0000      0.0487      0.0001   -999.2500
  2821.5000      0.0000   -999.2500   -999.2500   -999.2500
  2821.7500      0.0000   -999.2500   -999.2500   -999.2500
  2822.0000      0.0000   -999.2500   -999.2500   -999.2500
  2822.2500      0.0000   -999.2500   -999.2500   -999.2500
  2822.5000      0.0000   -999.2500   -999.2500   -999.2500
  2822.7500      0.0000   -999.2500   -999.2500   -999.2500
  2823.0000      0.0000   -999.2500   -999.2500   -999.2500
  2823.2500      0.0000   -999.2500   -999.2500   -999.2500
  2823.5000      0.0000   -999.2500   -999.2500   -999.2500
  2823.7500      0.0000   -999.2500   -999.2500   -999.2500
  2824.0000      0.0000   -999.2500   -999.2500   -999.2500
  2824.2500      0.0000   -999.2500   -999.2500   -999.2500
  2824.5000      0.0000   -999.2500   -999.2500   -999.2500
  2824.7500      0.0000   -999.2500   -999.2500   -999.2500
  2825.0000      0.0000   -999.2500   -999.2500   -999.2500
  2825.2500      0.0000   -999.2500   -999.2500   -999.2500
  2825.5000      0.0000   -999.2500   -999.2500   -999.2500
  2825.7500      0.0000   -999.2500   -999.2500   -999.2500
  2826.0000      0.0000   -999.2500   -999.2500   -999.2500
  2826.2500      0.0000   -999.2500   -999.2500   -999.2500
  2826.5000      0.0000   -999.2500   -999.2500   -999.2500
  2826.7500      0.0000   -999.2500   -999.2500   -999.2500
  2827.0000      0.0000   -999.2500   -999.2500   -999.2500
  2827.2500   -999.2500   -999.2500   -999.2500   -999.2500
  2827.5000   -999.2500   -999.2500   -999.2500   -999.2500
  2827.7500   -999.2500   -999.2500   -999.2500   -999.2500
