~Version Information
VERS.                      2.0: CWLS Log ASCII Standard - VERSION 2.0
WRAP.                       NO: One line per depth step
~Well Information Block
STRT.FT               970.0000: 
STOP.FT              1882.0000: 
STEP.FT                 0.2500: 
NULL.                -999.2500: 
COMP.          Petrogulf Corporation: COMPANY
WELL.             Norton 9-14R: WELL
FLD.           Purgatorie River: FIELD
LOC.           725' FSL & 1103' FWL: LOCATION
PROV.                 Colorado: PROVINCE
CNTY.               Las Animas: COUNTRY
SRVC.                Patterson: SERVICE COMPANY
DATE.          Thu Oct 06 16:10:47 2005: LOG DATE
UWI.                          : UNIQUE WELL ID
~Curve Information Block
DEPT.FT            0 000 00 00: Depth
SP.mV                         : DIL Spontaneous Potential
RILD.Ohm-m                    : DIL Deep Resistivity
RILM.Ohm-m                    : DIL Medium Resistivity
RLL3.Ohm-m                    : DIL Shallow Resistivity
GR.GAPI                       : Gamma Ray
~Parameter Information Block
~A  Depth        SP         RILD        RILM        RLL3         GR     
# ...
  1614.0000    183.1604     12.7439     16.1425     23.2404     96.4154
  1614.2500    183.7814     12.5058     15.5507     21.1500     98.4147
  1614.5000    184.3996     12.1867     14.7724     18.9977    101.8581
  1614.7500    184.9662     11.8024     13.8895     16.7696    104.9690
  1615.0000    185.4503     11.3708     12.9777     14.5773    111.8177
  1615.2500    185.8441     10.9084     12.0948     12.5985    117.9344
  1615.5000    186.1542     10.4298     11.2773     10.9938    128.5793
  1615.7500    186.3887      9.9490     10.5428      9.8415    135.7762
  1616.0000    186.5528      9.4800      9.8953      9.1154    145.3100
  1616.2500    186.6490      9.0359      9.3310      8.7120    150.4723
  1616.5000    186.6822      8.6273      8.8421      8.5017    156.7644
  1616.7500    186.6673      8.2613      8.4200      8.3757    160.4279
  1617.0000    186.6343      7.9413      8.0565      8.2682    165.8302
  1617.2500    186.6235      7.6675      7.7444      8.1555    169.5658
  1617.5000    186.6717      7.4376      7.4778      8.0417    174.5974
  1617.7500    186.7940      7.2483      7.2517      7.9429    176.4399
  1618.0000    186.9733      7.0960      7.0619      7.8748    175.5880
  1618.2500    187.1641      6.9783      6.9049      7.8434    173.1870
  1618.5000    187.3092      6.8948      6.7782      7.8388    169.5915
  1618.7500    187.3602      6.8463      6.6801      7.8358    168.4756
  1619.0000    187.2917      6.8335      6.6107      7.8071    168.6774
  1619.2500    187.1023      6.8568      6.5710      7.7420    169.0977
  1619.5000    186.8037      6.9156      6.5638      7.6569    168.7426
  1619.7500    186.4078      7.0087      6.5929      7.5856    167.7637
  1620.0000    185.9213      7.1348      6.6630      7.5609    166.1583
  1620.2500    185.3494      7.2923      6.7794      7.6034    165.7830
  1620.5000    184.7009      7.4792      6.9478      7.7301    166.9702
  1620.7500    183.9907      7.6928      7.1733      7.9794    168.6232
  1621.0000    183.2387      7.9312      7.4604      8.4286    171.0332
  1621.2500    182.4691      8.1938      7.8119      9.1764    171.7855
  1621.5000    181.7119      8.4829      8.2283     10.2767    170.5570
  1621.7500    181.0074      8.8032      8.7076     11.6576    167.7680
  1622.0000    180.4074      9.1603      9.2451     13.0902    160.8051
  1622.2500    179.9630      9.5588      9.8340     14.2664    154.9190
  1622.5000    179.7008     10.0001     10.4656     14.9735    145.2869
  1622.7500    179.6010     10.4804     11.1298     15.2518    138.7322
  1623.0000    179.5956     10.9905     11.8146     15.3863    129.6858
  1623.2500    179.5902     11.5158     12.5047     15.7075    125.0293
  1623.5000    179.4998     12.0371     13.1804     16.3598    120.7614
  1623.7500    179.2765     12.5314     13.8179     17.2251    118.9973
  1624.0000    178.9174     12.9765     14.3915     18.0274    115.6469
  1624.2500    178.4526     13.3563     14.8790     18.4970    112.1523
  1624.5000    177.9245     13.6663     15.2671     18.4821    105.8203
  1624.7500    177.3686     13.9124     15.5550     17.9871    102.0892
  1625.0000    176.8004     14.1050     15.7540     17.1633     98.7294
  1625.2500    176.2111     14.2523     15.8831     16.2676     97.9891
  1625.5000    175.5779     14.3588     15.9635     15.5860     98.1945
  1625.7500    174.8842     14.4272     16.0133     15.3204     98.6404
  1626.0000    174.1377     14.4626     16.0453     15.4887     98.9032
  1626.2500    173.3709     14.4731     16.0663     15.9194     98.2096
  1626.5000    172.6289     14.4694     16.0791     16.3666     95.0908
  1626.7500    171.9550     14.4608     16.0843     16.6544     91.6964
  1627.0000    171.3809     14.4537     16.0819     16.7430     85.6631
  1627.2500    170.9197     14.4507     16.0728     16.6956     81.8712
  1627.5000    170.5604     14.4522     16.0582     16.6040     77.8879
  1627.7500    170.2716     14.4578     16.0398     16.5313     76.8088
  1628.0000    170.0144     14.4678     16.0187     16.4907     77.3678
  1628.2500    169.7644     14.4828     15.9957     16.4583     78.6386
  1628.5000    169.5303     14.5029     15.9713     16.3983     80.6307
  1628.7500    169.3528     14.5260     15.9458     16.2893     81.2753
  1629.0000    169.2753     14.5479     15.9197     16.1389     80.2085
  1629.2500    169.3106     14.5631     15.8933     15.9820     78.0244
  1629.5000    169.4317     14.5666     15.8663     15.8611     73.6802
  1629.7500    169.5925     14.5554     15.8375     15.8009     71.3030
  1630.0000    169.7557     14.5286     15.8047     15.7974     70.1959
  1630.2500    169.9086     14.4880     15.7653     15.8247     71.2079
  1630.5000    170.0650     14.4382     15.7168     15.8507     73.9626
  1630.7500    170.2592     14.3872     15.6577     15.8455     75.3249
  1631.0000    170.5322     14.3440     15.5883     15.7875     74.8490
  1631.2500    170.9115     14.3151     15.5106     15.6709     72.6876
  1631.5000    171.3956     14.3014     15.4279     15.5134     68.0701
  1631.7500    171.9501     14.2990     15.3447     15.3481     65.2574
  1632.0000    172.5159     14.3024     15.2653     15.2043     62.8396
  1632.2500    173.0256     14.3067     15.1932     15.0937     62.6368
  1632.5000    173.4240     14.3080     15.1307     15.0136     63.9098
  1632.7500    173.6871     14.3029     15.0787     14.9578     65.1518
  1633.0000    173.8277     14.2887     15.0371     14.9214     66.5703
  1633.2500    173.8797     14.2667     15.0051     14.9001     67.1078
  1633.5000    173.8756     14.2443     14.9823     14.8917     67.9870
  1633.7500    173.8329     14.2322     14.9685     14.8985     68.9729
  1634.0000    173.7589     14.2393     14.9643     14.9248     70.6126
  1634.2500    173.6627     14.2680     14.9707     14.9719     71.1221
  1634.5000    173.5661     14.3144     14.9888     15.0339     70.3538
  1634.7500    173.5015     14.3708     15.0193     15.0994     69.1315
  1635.0000    173.4980     14.4297     15.0622     15.1590     67.3473
  1635.2500    173.5628     14.4856     15.1167     15.2121     66.5980
  1635.5000    173.6726     14.5356     15.1809     15.2662     66.0641
  1635.7500    173.7777     14.5801     15.2524     15.3311     65.8734
  1636.0000    173.8208     14.6213     15.3284     15.4157     65.6409
  1636.2500    173.7598     14.6632     15.4063     15.5259     65.5548
  1636.5000    173.5809     14.7103     15.4836     15.6645     65.6513
  1636.7500    173.2917     14.7662     15.5586     15.8328     65.9086
  1637.0000    172.9055     14.8345     15.6308     16.0288     66.5036
  1637.2500    172.4377     14.9179     15.7014     16.2303     66.8594
  1637.5000    171.9179     15.0186     15.7744     16.3797     66.8446
  1637.7500    171.3959     15.1360     15.8564     16.4080     66.2130
  1638.0000    170.9289     15.2656     15.9563     16.2976     64.3246
  1638.2500    170.5564     15.4005     16.0844     16.1184     62.8087
  1638.5000    170.2852     15.5356     16.2506     15.9950     61.0453
  1638.7500    170.0943     15.6721     16.4634     16.0407     60.4132
  1639.0000    169.9534     15.8178     16.7285     16.3204     59.8391
  1639.2500    169.8412     15.9838     17.0480     16.8549     59.4196
  1639.5000    169.7577     16.1801     17.4202     17.6320     58.8566
  1639.7500    169.7216     16.4111     17.8385     18.6143     58.7577
  1640.0000    169.7529     16.6722     18.2920     19.7541     59.0307
  1640.2500    169.8520     16.9479     18.7653     21.0051     59.2401
  1640.5000    169.9948     17.2164     19.2396     22.2907     59.2266
  1640.7500    170.1479     17.4586     19.6954     23.4514     59.0503
  1641.0000    170.2877     17.6665     20.1147     24.2580     59.0198
  1641.2500    170.4044     17.8456     20.4840     24.5381     59.3815
  1641.5000    170.4902     18.0084     20.7955     24.3230     60.3007
  1641.7500    170.5259     18.1646     21.0462     23.8685     60.8443
