~Version Information
VERS.                      2.0: CWLS Log ASCII Standard - VERSION 2.0
WRAP.                       NO: One line per depth step
~Well Information Block
STRT.FT               615.0000: 
STOP.FT              1607.0000: 
STEP.FT                 0.1000: 
NULL.                -999.2500: 
COMP.          Pioneer Natural Resources: COMPANY
WELL.          Galloway 32-13 Tr: WELL
FLD.           Purgatoire River: FIELD
LOC.           1910' FNL & 2002' FEL: LOCATION
PROV.                 Colorado: PROVINCE
CNTY.               Las Animas: COUNTRY
SRVC.                Patterson: SERVICE COMPANY
DATE.          Mon Nov 14 07:13:22 2005: LOG DATE
UWI.           05 071 08608 00: UNIQUE WELL ID
~Curve Information Block
DEPT.FT            0 000 00 00: Depth
DCAL.in                       : CDL Caliper
RHOB.g/cc                     : CDL Bulk Density
RHOC.g/cc                     : CDL Density Correction
DPOR.pu                       : CDL Density Porosity
GR.GAPI                       : Gamma Ray
NPOR.pu                       : Neutron Porosity
~Parameter Information Block
~A  Depth       DCAL        RHOB        RHOC        DPOR         GR         NPOR    
# ...
   682.2000      8.0857      2.4277      0.1181     13.4698    158.2580     23.8019
   682.3000      8.0658      2.3990      0.0623     15.2102    160.6948     24.2134
   682.4000      8.0658      2.3714      0.0195     16.8847    160.9025     24.7286
   682.5000      8.0359      2.3631     -0.0014     17.3876    158.5627     25.7291
   682.6000      8.0359      2.3782      0.0337     16.4719    155.0345     27.1537
   682.7000      8.0359      2.4101      0.0540     14.5411    153.9978     28.0148
   682.8000      8.0190      2.4490      0.0826     12.1843    154.5383     28.1564
   682.9000      8.0190      2.4885      0.0789      9.7892    153.0741     28.1950
   683.0000      8.0482      2.5221      0.1304      7.7534    149.0340     28.2322
   683.1000      8.0482      2.5362      0.1796      6.8995    146.0743     28.4478
   683.2000      8.0482      2.5260      0.0818      7.5156    146.7660     28.9855
   683.3000      8.0546      2.5118      0.0394      8.3743    147.9326     29.5287
   683.4000      8.0546      2.5161     -0.0149      8.1166    146.7837     29.6266
   683.5000      8.0353      2.5337      0.0534      7.0490    143.0558     28.9718
   683.6000      8.0353      2.5463      0.0505      6.2875    134.4874     28.0648
   683.7000      8.0353      2.5494      0.0126      6.0942    122.9067     27.8264
   683.8000      7.9982      2.5461      0.0407      6.2946    116.7857     28.2022
   683.9000      7.9982      2.5388     -0.0097      6.7401    116.9813     28.4687
   684.0000      7.9829      2.5341     -0.0441      7.0219    115.4104     28.2963
   684.1000      7.9829      2.5341      0.0266      7.0220    110.2492     27.8337
   684.2000      7.9829      2.5355      0.0291      6.9376    108.5587     27.3851
   684.3000      7.9699      2.5357      0.0602      6.9256    110.9258     27.0462
   684.4000      7.9699      2.5297      0.0139      7.2908    110.7849     26.6625
   684.5000      7.9683      2.5243     -0.0284      7.6171    108.8808     26.3345
   684.6000      7.9683      2.5287      0.0353      7.3514    106.8367     25.8611
   684.7000      7.9683      2.5329      0.0355      7.0977    102.1142     24.9750
   684.8000      7.9653      2.5272      0.0220      7.4432     97.1552     24.3227
   684.9000      7.9653      2.5102      0.0025      8.4702     94.3211     24.2391
   685.0000      7.9620      2.4856     -0.0093      9.9623     90.8208     24.2687
   685.1000      7.9620      2.4677     -0.0314     11.0491     85.1382     24.4141
   685.2000      7.9620      2.4662      0.0256     11.1422     79.4770     24.6782
   685.3000      7.9518      2.4815      0.0067     10.2132     76.1896     24.5153
   685.4000      7.9518      2.5171      0.0465      8.0545     75.3854     23.7456
   685.5000      7.9603      2.5601      0.1050      5.4510     75.8229     22.9743
   685.6000      7.9603      2.5803      0.1171      4.2259     74.6681     22.4058
   685.7000      7.9603      2.5691      0.1290      4.9003     70.8632     21.7071
   685.8000      7.9576      2.5472      0.1159      6.2274     67.2279     21.1237
   685.9000      7.9576      2.5286      0.0934      7.3554     65.7962     21.1101
   686.0000      7.9465      2.5045      0.1284      8.8206     67.3654     21.3302
   686.1000      7.9465      2.4713      0.0698     10.8322     71.1078     21.1830
   686.2000      7.9465      2.4472      0.0515     12.2901     75.0352     20.7925
   686.3000      7.9327      2.4385      0.0980     12.8154     79.4229     20.7213
   686.4000      7.9327      2.4387      0.0447     12.8064     84.2622     21.1279
   686.5000      7.9340      2.4589      0.0626     11.5814     85.1275     21.7760
   686.6000      7.9340      2.4952      0.1882      9.3802     79.5740     22.1571
   686.7000      7.9340      2.5159      0.1434      8.1279     74.0279     22.0702
   686.8000      7.9697      2.5184      0.0113      7.9733     75.4913     21.9490
   686.9000      7.9697      2.5282      0.0377      7.3822     82.9450     22.0312
   687.0000      7.9970      2.5521      0.0499      5.9326     90.1376     22.3785
   687.1000      7.9970      2.5822      0.0722      4.1070     91.6586     23.0621
   687.2000      7.9970      2.6015      0.1038      2.9421     88.9855     23.6826
   687.3000      7.9755      2.5878      0.1008      3.7715     87.4975     23.4149
   687.4000      7.9755      2.5517      0.0429      5.9557     88.5655     22.3223
   687.5000      7.9704      2.5240      0.0251      7.6353     89.0994     21.3094
   687.6000      7.9704      2.5074      0.0396      8.6424     86.3576     20.9000
   687.7000      7.9704      2.4972     -0.0474      9.2614     80.1013     20.8034
   687.8000      7.9719      2.4972      0.0368      9.2586     73.8338     20.7915
   687.9000      7.9719      2.4986      0.0162      9.1780     73.2665     21.1771
   688.0000      7.9790      2.4990     -0.0009      9.1532     77.1727     21.6213
   688.1000      7.9790      2.5024      0.0434      8.9477     80.3969     21.3803
   688.2000      7.9790      2.5015      0.0408      9.0028     83.1017     20.4125
   688.3000      7.9855      2.4964      0.0236      9.3067     86.2556     19.6063
   688.4000      7.9855      2.4966      0.0674      9.2973     87.6395     19.6083
   688.5000      7.9861      2.5023      0.0588      8.9504     86.4667     20.1045
   688.6000      7.9861      2.5082      0.0842      8.5916     84.4156     20.4907
   688.7000      7.9861      2.5055      0.1162      8.7577     83.5746     20.5697
   688.8000      7.9875      2.4938      0.0347      9.4653     83.0457     20.2938
   688.9000      7.9875      2.4914      0.0262      9.6142     77.7878     19.5536
   689.0000      7.9850      2.5045      0.0345      8.8194     68.1188     18.6013
   689.1000      7.9850      2.5221      0.0418      7.7518     62.1247     17.8680
   689.2000      7.9850      2.5342      0.0980      7.0199     63.0160     17.5689
   689.3000      7.9884      2.5290      0.1220      7.3354     67.7604     17.9451
   689.4000      7.9884      2.5024      0.0415      8.9436     72.9171     18.9615
   689.5000      7.9848      2.4695      0.0426     10.9399     76.0175     19.7760
   689.6000      7.9848      2.4486      0.0190     12.2090     76.2502     19.8388
   689.7000      7.9848      2.4491      0.0033     12.1786     74.8972     19.7054
   689.8000      7.9743      2.4741      0.0056     10.6624     75.9481     19.8622
   689.9000      7.9743      2.5121      0.0312      8.3563     78.9711     20.0802
   690.0000      7.9722      2.5384      0.0415      6.7629     77.6919     20.1203
   690.1000      7.9722      2.5451      0.0218      6.3547     72.5705     19.9623
   690.2000      7.9722      2.5423      0.0622      6.5278     71.2298     19.6433
   690.3000      7.9694      2.5370      0.0461      6.8499     76.3468     19.2522
   690.4000      7.9694      2.5348      0.0477      6.9834     81.6872     18.7977
   690.5000      7.9660      2.5319      0.0854      7.1582     82.7057     18.4301
   690.6000      7.9660      2.5185      0.0514      7.9697     79.4488     18.5203
   690.7000      7.9660      2.5007      0.0556      9.0472     74.9406     19.1871
   690.8000      7.9577      2.4912      0.0360      9.6260     74.1326     20.0271
   690.9000      7.9577      2.4977      0.0536      9.2307     76.5311     20.6754
   691.0000      7.9639      2.5253      0.0643      7.5591     78.7485     20.9515
   691.1000      7.9639      2.5656      0.1197      5.1171     80.5025     20.7154
   691.2000      7.9639      2.5959      0.1062      3.2815     80.2685     20.3216
   691.3000      7.9627      2.6055      0.0992      2.6948     76.5408     20.2083
   691.4000      7.9627      2.6069      0.0985      2.6125     73.3174     20.3628
   691.5000      7.9566      2.6107      0.1018      2.3799     72.7637     20.6751
   691.6000      7.9566      2.6108      0.0528      2.3753     71.8431     21.1241
   691.7000      7.9566      2.6002      0.0624      3.0188     69.0763     21.5607
