~Version Information
VERS.                      2.0: CWLS Log ASCII Standard - VERSION 2.0
WRAP.                       NO: One line per depth step
~Well Information Block
STRT.FT               370.0000: 
STOP.FT              2832.5000: 
STEP.FT                 0.1000: 
NULL.                -999.2500: 
COMP.          Pioneer Natural Resources: COMPANY
WELL.          Black Cat 13-32: WELL
FLD.           Purgatoire River: FIELD
LOC.           1865' FSL & 1120' FWL--: LOCATION
PROV.                 Colorado: PROVINCE
CNTY.               Las Animas: COUNTRY
SRVC.                Patterson: SERVICE COMPANY
DATE.          Sun Jul 31 08:38:44 2005: LOG DATE
UWI.           05 071 08450 00: UNIQUE WELL ID
~Curve Information Block
DEPT.FT            0 000 00 00: Depth
DCAL.in                       : CDL Caliper
DPOR.pu                       : CDL Density Porosity
NPOR.pu                       : Neutron Porosity
RHOB.g/cc                     : CDL Bulk Density
RHOC.g/cc                     : CDL Density Correction
GR.GAPI                       : Gamma Ray
~Parameter Information Block
~A  Depth       DCAL        DPOR        NPOR        RHOB        RHOC         GR     
# ...
  2818.0000      7.8194      1.5008     19.9412      2.6252      0.0770   -999.2500
  2818.1000      7.8194      1.4659     19.5244      2.6258      0.0490   -999.2500
  2818.2000      7.8194      2.1866     19.3475      2.6139      0.1060   -999.2500
  2818.3000      7.8203      3.9096     19.5136      2.5855      0.0360   -999.2500
  2818.4000      7.8203      4.8620     19.5979      2.5698      0.0060   -999.2500
  2818.5000      7.8208      3.4303     19.5644      2.5934      0.0411   -999.2500
  2818.6000      7.8208      1.0420     19.7127      2.6328      0.0797   -999.2500
  2818.7000      7.8208      0.1581     20.0565      2.6474      0.0959   -999.2500
  2818.8000      7.8208      1.5054     20.3842      2.6252      0.0546   -999.2500
  2818.9000      7.8208      3.9852     20.6771      2.5842      0.0441   -999.2500
  2819.0000      7.8205      6.1172     21.2354      2.5491      0.0009   -999.2500
  2819.1000      7.8205      7.0929     22.2855      2.5330      0.0075   -999.2500
  2819.2000      7.8205      7.0755     23.7269      2.5333     -0.0031   -999.2500
  2819.3000      7.8202      6.8701     25.1339      2.5366      0.0504   -999.2500
  2819.4000      7.8202      7.2757     25.6403      2.5300      0.0516   -999.2500
  2819.5000      7.8196      8.0682     25.0951      2.5169      0.0188   -999.2500
  2819.6000      7.8196      8.4344     24.4106      2.5108      0.0293   -999.2500
  2819.7000      7.8196      8.3417     23.9651      2.5124      0.0269   -999.2500
  2819.8000      7.8177      8.2758     23.8769      2.5134      0.0305   -999.2500
  2819.9000      7.8177      8.5529     25.9249      2.5089      0.0991   -999.2500
  2820.0000      7.8169      8.8731     32.5165      2.5036      0.0327   -999.2500
  2820.1000      7.8169      8.3743     41.6706      2.5118      0.0407   -999.2500
  2820.2000      7.8169      7.0546     47.8577      2.5336      0.0615   -999.2500
  2820.3000      7.8165      5.8901     50.0513      2.5528      0.0724   -999.2500
  2820.4000      7.8165      5.3443     50.4777      2.5618      0.0718   -999.2500
  2820.5000      7.8150      4.8802     50.5225      2.5695      0.0830   -999.2500
  2820.6000      7.8150      4.0459     50.5250      2.5832      0.0931   -999.2500
  2820.7000      7.8150      3.1663   -999.2500      2.5978      0.0969   -999.2500
  2820.8000      7.8050      2.5578   -999.2500      2.6078      0.1050   -999.2500
  2820.9000      7.8050      2.4685   -999.2500      2.6093      0.1362   -999.2500
  2821.0000      7.7725      3.1917   -999.2500      2.5973      0.0882   -999.2500
  2821.1000      7.7725      4.0018   -999.2500      2.5840      0.0522   -999.2500
  2821.2000      7.7725      3.7219   -999.2500      2.5886      0.0471   -999.2500
  2821.3000      7.7265      2.5091   -999.2500      2.6086      0.0956   -999.2500
  2821.4000      7.7265      1.8762   -999.2500      2.6190      0.0930   -999.2500
  2821.5000      7.6959      2.7974   -999.2500      2.6038      0.0577   -999.2500
  2821.6000      7.6959      4.3832   -999.2500      2.5777     -0.0000   -999.2500
  2821.7000      7.6959      5.0779   -999.2500      2.5662      0.0341   -999.2500
  2821.8000      7.6871      4.8405   -999.2500      2.5701      0.0296   -999.2500
  2821.9000      7.6871      4.6425   -999.2500      2.5734      0.0185   -999.2500
  2822.0000      7.6854      4.4242   -999.2500      2.5770     -0.0052   -999.2500
  2822.1000      7.6854      3.5697   -999.2500      2.5911      0.0663   -999.2500
  2822.2000      7.6854      2.8486   -999.2500      2.6030      0.0730   -999.2500
  2822.3000      7.6847      3.0457   -999.2500      2.5997      0.0376   -999.2500
  2822.4000      7.6847      3.7452   -999.2500      2.5882      0.0529   -999.2500
  2822.5000      7.6855      4.5670   -999.2500      2.5746      0.0332   -999.2500
  2822.6000      7.6855      5.6740   -999.2500      2.5564      0.0735   -999.2500
  2822.7000      7.6855      7.3617   -999.2500      2.5285      0.0682   -999.2500
  2822.8000      7.6857      8.8100   -999.2500      2.5046      0.0229   -999.2500
  2822.9000      7.6857      8.4915   -999.2500      2.5099      0.0117   -999.2500
  2823.0000      7.6847      6.7363   -999.2500      2.5389      0.0815   -999.2500
  2823.1000      7.6847      5.6540   -999.2500      2.5567      0.0924   -999.2500
  2823.2000      7.6847      6.5333   -999.2500      2.5422      0.0784   -999.2500
  2823.3000      7.6850      8.7796   -999.2500      2.5051      0.0452   -999.2500
  2823.4000      7.6850     10.4092   -999.2500      2.4782     -0.0211   -999.2500
  2823.5000      7.6855     10.1556   -999.2500      2.4824      0.0321   -999.2500
  2823.6000      7.6855      8.6518   -999.2500      2.5072      0.0687   -999.2500
  2823.7000      7.6855      6.5019   -999.2500      2.5427      0.0455   -999.2500
  2823.8000      7.6856      3.9493   -999.2500      2.5848      0.1157   -999.2500
  2823.9000      7.6856      2.0457   -999.2500      2.6162      0.1261   -999.2500
  2824.0000      7.6856      1.7521   -999.2500      2.6211      0.1463   -999.2500
  2824.1000      7.6856      2.9238   -999.2500      2.6018      0.1001   -999.2500
  2824.2000      7.6856      4.4370   -999.2500      2.5768      0.0420   -999.2500
  2824.3000      7.6857      5.1719   -999.2500      2.5647      0.0659   -999.2500
  2824.4000      7.6857      4.9022   -999.2500      2.5691      0.0524   -999.2500
  2824.5000      7.6853      4.2302   -999.2500      2.5802      0.0999   -999.2500
  2824.6000      7.6853      3.7612   -999.2500      2.5879      0.0300   -999.2500
  2824.7000      7.6853      3.2873   -999.2500      2.5958      0.0202   -999.2500
  2824.8000      7.6842      2.4929   -999.2500      2.6089      0.0382   -999.2500
  2824.9000      7.6842      1.4527   -999.2500      2.6260      0.0673   -999.2500
  2825.0000      7.6828      0.4875   -999.2500      2.6420      0.0755   -999.2500
  2825.1000      7.6828     -0.0417   -999.2500      2.6507      0.0822   -999.2500
  2825.2000      7.6828      0.0875   -999.2500      2.6486      0.1046   -999.2500
  2825.3000      7.6825      0.9700   -999.2500      2.6340      0.0767   -999.2500
  2825.4000      7.6825      2.3225   -999.2500      2.6117      0.0638   -999.2500
  2825.5000      7.6839      3.9139   -999.2500      2.5854      0.0451   -999.2500
  2825.6000      7.6839      5.8361   -999.2500      2.5537      0.0368   -999.2500
  2825.7000      7.6839      7.4968   -999.2500      2.5263     -0.0117   -999.2500
  2825.8000      7.6848      7.7562   -999.2500      2.5220     -0.0168   -999.2500
  2825.9000      7.6848      7.1350   -999.2500      2.5323      0.0461   -999.2500
  2826.0000      7.6839      7.4298   -999.2500      2.5274      0.0536   -999.2500
  2826.1000      7.6839      8.9429   -999.2500      2.5024      0.0248   -999.2500
  2826.2000      7.6839      9.9349   -999.2500      2.4861     -0.0684   -999.2500
  2826.3000      7.6826      8.9725   -999.2500      2.5020     -0.0091   -999.2500
  2826.4000      7.6826      6.8501   -999.2500      2.5370      0.0575   -999.2500
  2826.5000      7.6835      4.9487   -999.2500      2.5683      0.0708   -999.2500
  2826.6000      7.6835      3.5893   -999.2500      2.5908      0.0473   -999.2500
  2826.7000      7.6835      2.9577   -999.2500      2.6012      0.0873   -999.2500
  2826.8000      7.6836      3.1889   -999.2500      2.5974      0.0444   -999.2500
  2826.9000      7.6836      4.1294   -999.2500      2.5819      0.0558   -999.2500
  2827.0000      7.6698      6.0437   -999.2500      2.5503      0.0501   -999.2500
  2827.1000      7.6698      8.5684   -999.2500      2.5086     -0.0041   -999.2500
  2827.2000      7.6698     10.4524   -999.2500      2.4775     -0.0124   -999.2500
  2827.3000      7.5885     11.4504   -999.2500      2.4611      0.0504   -999.2500
  2827.4000      7.5885     11.3051   -999.2500      2.4635      0.0307   -999.2500
  2827.5000      7.3295      7.7669   -999.2500      2.5218     -0.0099   -999.2500
