~Version Information
VERS.                      2.0: CWLS Log ASCII Standard - VERSION 2.0
WRAP.                       NO: One line per depth step
~Well Information Block
STRT.FT               -12.0000: 
STOP.FT              1728.0000: 
STEP.FT                 0.2500: 
NULL.                -999.2500: 
COMP.          XTO Energy Inc.: COMPANY
WELL.          Apache Canyon 35-06: WELL
FLD.              Vermejo Coal: FIELD
LOC.           2422' FNL & 1889' FWL--: LOCATION
STAT.                       CO: State
CNTY.               Las Animas: COUNTY
CTRY. USA : Country
SECT.  : Section
TOWN.  : Township
RANG.  : Range
SRVC.          Patterson Wireline: SERVICE COMPANY
DATE.          Fri Jan 06 08:11:44 2006: LOG DATE
API.              05 071 08540: UNIQUE WELL ID
~Curve Information Block
DEPT.FT            0 000 00 00: Depth
CCL.                          : Casing Collar Locator
TT3.usec                      : CBL 3' Travel Time
AMP3.mV                       : CBL 3' Amplitude
GR.GAPI                       : Gamma Ray
~Parameter Information Block
~A  Depth       CCL         TT3         AMP3         GR     
# ...
   457.0000      0.0000    959.3287      5.3428    145.8985
   457.2500      0.0000    965.3830      5.4616    149.4094
   457.5000      0.0000    969.4297      5.5857    151.0491
   457.7500      0.0000    966.9788      5.6966    150.3300
   458.0000      0.0000    956.0427      5.7770    147.3950
   458.2500      0.0000    937.8241      5.8175    143.2123
   458.5000      0.0000    915.8767      5.8200    139.9295
   458.7500      0.0000    893.5989      5.7929    139.7422
   459.0000      0.0000    872.7524      5.7460    142.8032
   459.2500      0.0000    855.2653      5.6909    146.7531
   459.5000      0.0000    844.7991      5.6428    148.6505
   459.7500      0.0000    843.9752      5.6170    147.0388
   460.0000      0.0000    850.6336      5.6221    142.3104
   460.2500      0.0000    858.7242      5.6551    135.9732
   460.5000      0.0000    862.8894      5.7013    129.8716
   460.7500      0.0000    861.6129      5.7417    125.2961
   461.0000      0.0000    856.3959      5.7639    122.3839
   461.2500      0.0000    848.6396      5.7682    120.7578
   461.5000      0.0000    837.5813      5.7626    120.5761
   461.7500      0.0000    820.9032      5.7522    122.2290
   462.0000      0.0000    796.9088      5.7355    125.4161
   462.2500      0.0000    766.3187      5.7102    129.5060
   462.5000      0.0000    732.1552      5.6791    134.2901
   462.7500      0.0000    697.6039      5.6502    139.2575
   463.0000      0.0000    664.4457      5.6305    142.6781
   463.2500      0.0000    634.2138      5.6206    142.8817
   463.5000      0.0000    609.5635      5.6148    140.4337
   463.7500      0.0000    592.8546      5.6078    137.8838
   464.0000      0.0000    583.9969      5.6008    137.0769
   464.2500      0.0000    580.7593      5.5992    137.2801
   464.5000      0.0000    580.8078      5.6049    136.2471
   464.7500      0.0000    583.0198      5.6141    132.9093
   465.0000      0.0000    587.5545      5.6219    128.7233
   465.2500      0.0000    595.8705      5.6275    126.1240
   465.5000      0.0000    611.3333      5.6343    125.7719
   465.7500      0.0000    638.6511      5.6454    125.6614
   466.0000      0.0000    679.8935      5.6596    123.0252
   466.2500      0.0000    729.4402      5.6727    116.8788
   466.5000      0.0000    774.4366      5.6810    108.5735
   466.7500      0.0000    802.1754      5.6817    100.2008
   467.0000      0.0000    807.3734      5.6714     92.9477
   467.2500      0.0000    793.4081      5.6468     86.9639
   467.5000      0.0000    769.1431      5.6099     82.0343
   467.7500      0.0000    744.8472      5.5685     77.6024
   468.0000      0.0000    728.1711      5.5337     72.4492
   468.2500      0.0000    720.8652      5.5143     65.4065
   468.5000      0.0000    718.9371      5.5128     56.8300
   468.7500      0.0000    717.7960      5.5217     48.8540
   469.0000      0.0000    718.4171      5.5276     43.8882
   469.2500      0.0000    726.8571      5.5230     43.0427
   469.5000      0.0000    746.1703      5.5153     45.9562
   469.7500      0.0000    770.7537      5.5212     51.5697
   470.0000      0.0000    790.4578      5.5519     58.5273
   470.2500      0.0000    798.3491      5.6035     64.9618
   470.5000      0.0000    793.4990      5.6615     68.8173
   470.7500      0.0000    779.2584      5.7107     69.2783
   471.0000      0.0000    761.1068      5.7420     67.7697
   471.2500      0.0000    744.6129      5.7536     67.0291
   471.5000      0.0000    733.2222      5.7492     69.0818
   471.7500      0.0000    727.4753      5.7351     73.9912
   472.0000      0.0000    726.4782      5.7168     79.9914
   472.2500      0.0000    729.7828      5.6990     84.6128
   472.5000      0.0000    737.6478      5.6886     86.1665
   472.7500      0.0000    749.4098      5.6928     84.4943
   473.0000      0.0000    761.9581      5.7117     80.4595
   473.2500      0.0000    770.9738      5.7332     75.1770
   473.5000      0.0000    774.7865      5.7410     69.9630
   473.7500      0.0000    776.5728      5.7306     66.3822
   474.0000      0.0000    781.3950      5.7136     65.5432
   474.2500      0.0000    791.0274      5.7053     67.1553
   474.5000      0.0000    802.3965      5.7100     69.6084
   474.7500      0.0000    810.1799      5.7186     71.4212
   475.0000      0.0000    809.5582      5.7195     72.8076
   475.2500      0.0000    797.7548      5.7108     75.5917
   475.5000      0.0000    775.8856      5.6995     81.3078
   475.7500      0.0000    750.0707      5.6936     89.4387
   476.0000      0.0000    729.1174      5.6948     97.6401
   476.2500      0.0000    719.8930      5.6995    103.5125
   476.5000      0.0000    724.1489      5.7021    105.9516
   476.7500      0.0000    738.4183      5.6962    105.2853
   477.0000      0.0000    756.4002      5.6742    102.9182
   477.2500      0.0000    772.5809      5.6289    100.8721
   477.5000      0.0000    784.1596      5.5560    101.0481
   477.7500      0.0000    789.4904      5.4575    104.5641
   478.0000      0.0000    786.4871      5.3426    111.4070
   478.2500      0.0000    774.5801      5.2290    120.1319
   478.5000      0.0000    757.4985      5.1409    128.0945
   478.7500      0.0000    742.3566      5.1039    132.7318
   479.0000      0.0000    735.8953      5.1422    132.8303
   479.2500      0.0000    742.2004      5.2807    128.5211
   479.5000      0.0000    763.6392      5.5473    120.5116
   479.7500      0.0000    801.7065      5.9682    109.5863
   480.0000      0.0000    853.8583      6.5686     96.4630
   480.2500      0.0000    908.8668      7.3910     81.9077
   480.5000      0.0000    947.8596      8.5125     67.1702
   480.7500      0.0000    951.4866     10.0202     54.1778
   481.0000      0.0000    907.0383     11.9283     44.7762
   481.2500      0.0000    814.4866     14.0755     39.6468
   481.5000      0.0000    692.3511     16.0834     38.2357
   481.7500      0.0000    576.5101     17.4521     39.6730
   482.0000      0.0000    506.3073     17.7921     43.3260
   482.2500      0.0000    505.4644     17.0464     48.5116
   482.5000      0.0000    570.5012     15.5110     54.3669
   482.7500      0.0000    672.4510     13.6324     60.4378
   483.0000      0.0000    770.9274     11.7769     67.3664
   483.2500      0.0000    834.1349     10.1406     76.7168
   483.5000      0.0000    852.9535      8.7857     89.6364
   483.7500      0.0000    839.7644      7.7036    105.3514
   484.0000      0.0000    814.4905      6.8578    121.1902
   484.2500      0.0000    791.0544      6.2108    134.3712
   484.5000      0.0000    774.9835      5.7335    143.6170
   484.7500      0.0000    768.3060      5.4039    149.1074
   485.0000      0.0000    771.3086      5.2016    151.4824
   485.2500      0.0000    780.4221      5.1038    151.3057
   485.5000      0.0000    788.8090      5.0807    149.3607
   485.7500      0.0000    790.6689      5.0980    147.0476
   486.0000      0.0000    784.2999      5.1265    145.9639
   486.2500      0.0000    771.7227      5.1499    146.6929
   486.5000      0.0000    756.9232      5.1624    148.1031
   486.7500      0.0000    744.1354      5.1615    148.1549
   487.0000      0.0000    736.1183      5.1468    145.5875
   487.2500      0.0000    732.9126      5.1250    141.1069
   487.5000      0.0000    731.9364      5.1096    137.1980
   487.7500      0.0000    729.4551      5.1123    136.3260
   488.0000      0.0000    722.8035      5.1334    138.7140
   488.2500      0.0000    712.4302      5.1620    142.2247
   488.5000      0.0000    702.3141      5.1868    144.9431
   488.7500      0.0000    697.5596      5.2047    147.1503
   489.0000      0.0000    700.4375      5.2225    149.8670
   489.2500      0.0000    708.8269      5.2526    152.3032
   489.5000      0.0000    719.0174      5.3041    152.1638
   489.7500      0.0000    729.1119      5.3724    148.1699
   490.0000      0.0000    738.6492      5.4377    141.0992
   490.2500      0.0000    745.4810      5.4795    132.5016
