~Version Information
VERS.                      2.0: CWLS Log ASCII Standard - VERSION 2.0
WRAP.                       NO: One line per depth step
~Well Information Block
STRT.FT               240.0000: 
STOP.FT              1456.0000: 
STEP.FT                 0.1000: 
NULL.                -999.2500: 
COMP.          Pioneer Natural Resources: COMPANY
WELL.              Darren 11-7: WELL
FLD.           Purgatoire River: FIELD
LOC.           230' FNL & 596' FWL: LOCATION
CNTY.               Las Animas: COUNTY
SRVC.                Patterson: SERVICE COMPANY
DATE.          Mon Mar 20 07:16:06 2006: LOG DATE
UWI.           05 071 08720 00: UNIQUE WELL ID
STAT.                 Colorado: STATE
~Curve Information Block
DEPT.FT            0 000 00 00: Depth
DCAL.in                       : CDL Caliper
RHOB.g/cc                     : CDL Bulk Density
RHOC.g/cc                     : CDL Density Correction
DPOR.pu                       : CDL Density Porosity
GR.GAPI                       : Gamma Ray
NPOR.pu                       : Neutron Porosity
~Parameter Information Block
~A  Depth       DCAL        RHOB        RHOC        DPOR         GR         NPOR    
# ...
   883.2000      7.8866      2.4892      0.0994      9.7445     79.3646     23.2834
   883.3000      7.8838      2.4940      0.0818      9.4520     80.5396     23.0261
   883.4000      7.8838      2.4914      0.0496      9.6105     83.0155     22.5363
   883.5000      7.8788      2.4800      0.0688     10.3006     81.6810     22.1256
   883.6000      7.8788      2.4537      0.0621     11.8984     76.2407     22.1063
   883.7000      7.8788      2.4172      0.0025     14.1072     71.5287     22.4172
   883.8000      7.8907      2.3887     -0.0024     15.8360     68.9052     22.7605
   883.9000      7.8907      2.3814      0.0197     16.2809     67.8190     22.9720
   884.0000      7.8979      2.3934      0.0265     15.5490     70.2647     23.0544
   884.1000      7.8979      2.4138      0.0516     14.3159     75.2042     23.0875
   884.2000      7.8979      2.4325      0.0736     13.1796     78.6443     23.2481
   884.3000      7.8928      2.4493      0.0626     12.1637     81.2389     23.3959
   884.4000      7.8928      2.4713      0.0627     10.8326     82.8591     23.3393
   884.5000      7.8812      2.4960      0.1006      9.3326     79.7641     23.3202
   884.6000      7.8812      2.5103      0.1097      8.4693     74.5723     23.3544
   884.7000      7.8812      2.5080      0.0850      8.6056     74.3038     23.3390
   884.8000      7.8528      2.4916      0.0917      9.5978     78.6972     23.3525
   884.9000      7.8528      2.4686      0.0634     10.9963     80.4038     23.5242
   885.0000      7.8385      2.4553      0.0149     11.8018     76.1335     23.8893
   885.1000      7.8385      2.4610      0.0301     11.4542     70.4002     24.1911
   885.2000      7.8385      2.4741      0.0445     10.6581     67.0980     24.2612
   885.3000      7.8515      2.4753      0.0527     10.5878     67.0086     24.3978
   885.4000      7.8515      2.4580      0.0378     11.6353     69.5610     24.7110
   885.5000      7.8534      2.4368     -0.0195     12.9219     73.9374     24.7479
   885.6000      7.8534      2.4233      0.0092     13.7381     78.3937     24.4259
   885.7000      7.8534      2.4155     -0.0128     14.2094     81.3375     24.1996
   885.8000      7.8658      2.4172     -0.0198     14.1079     84.6828     24.2126
   885.9000      7.8658      2.4297      0.0094     13.3507     87.2877     24.2063
   886.0000      7.8777      2.4463      0.0109     12.3462     84.5780     24.2347
   886.1000      7.8777      2.4624      0.0566     11.3691     78.8901     24.5586
   886.2000      7.8777      2.4746      0.0787     10.6274     76.7866     25.0824
   886.3000      7.8874      2.4832      0.0380     10.1094     80.3279     25.5288
   886.4000      7.8874      2.4950      0.0308      9.3961     88.3775     25.7579
   886.5000      7.8770      2.5151      0.0563      8.1774     98.6739     25.7103
   886.6000      7.8770      2.5381      0.1053      6.7843    105.8182     25.3116
   886.7000      7.8770      2.5489      0.1202      6.1243    106.1282     24.6195
   886.8000      7.9023      2.5419      0.0909      6.5519    103.5175     23.9638
   886.9000      7.9023      2.5286      0.1046      7.3557    102.4828     23.6566
   887.0000      7.9047      2.5201      0.1243      7.8724    102.8346     23.6583
   887.1000      7.9047      2.5224      0.1427      7.7321    104.7260     23.7331
   887.2000      7.9047      2.5390      0.1479      6.7263    107.5840     23.8968
   887.3000      7.8733      2.5631      0.1554      5.2670    106.5496     24.2097
   887.4000      7.8733      2.5825      0.1725      4.0883     98.7940     24.3529
   887.5000      7.8436      2.5923      0.1146      3.4958     90.0191     23.9511
   887.6000      7.8436      2.5974      0.1659      3.1881     85.4597     23.1089
   887.7000      7.8436      2.6048      0.1085      2.7379     80.7458     22.3514
   887.8000      7.8409      2.6177      0.1799      1.9549     72.9062     22.1632
   887.9000      7.8409      2.6300      0.1495      1.2141     66.3752     22.3822
   888.0000      7.8587      2.6299      0.1380      1.2188     64.2130     22.4686
   888.1000      7.8587      2.6117      0.1055      2.3240     65.0405     22.3979
   888.2000      7.8587      2.5892      0.0590      3.6865     66.5326     22.4470
   888.3000      7.8830      2.5825      0.1029      4.0880     67.6489     22.6935
   888.4000      7.8830      2.5873      0.0828      3.8004     67.3069     22.8664
   888.5000      7.8910      2.5804      0.1186      4.2202     64.9591     22.7438
   888.6000      7.8910      2.5490      0.0442      6.1232     64.2011     22.4511
   888.7000      7.8910      2.5075      0.0178      8.6369     66.6853     22.1545
   888.8000      7.8954      2.4795      0.0281     10.3310     69.0303     21.9305
   888.9000      7.8954      2.4717      0.0184     10.8078     69.0820     21.8325
   889.0000      7.8876      2.4774      0.0393     10.4630     67.9596     21.8991
   889.1000      7.8876      2.4897      0.0528      9.7140     67.4884     21.9549
   889.2000      7.8876      2.5012      0.0339      9.0166     67.5023     21.9344
   889.3000      7.8817      2.5079      0.0675      8.6152     67.1222     22.0594
   889.4000      7.8817      2.5125      0.0815      8.3340     66.7598     22.3245
   889.5000      7.8754      2.5121      0.1073      8.3573     68.9233     22.3819
   889.6000      7.8754      2.4969      0.1229      9.2793     73.0695     22.2127
   889.7000      7.8754      2.4768      0.0213     10.4965     74.0108     22.1835
   889.8000      7.8741      2.4778      0.0454     10.4337     69.8691     22.3904
   889.9000      7.8741      2.5031      0.0205      8.9006     66.2244     22.6518
   890.0000      7.8682      2.5266      0.1373      7.4778     66.4028     22.6936
   890.1000      7.8682      2.5262      0.1012      7.5041     66.8552     22.2499
   890.2000      7.8682      2.5125      0.0930      8.3338     66.2512     21.4756
   890.3000      7.8540      2.4996      0.1008      9.1123     66.9151     20.9274
   890.4000      7.8540      2.4850      0.0509      9.9980     67.6471     20.8872
   890.5000      7.8562      2.4752      0.0311     10.5949     65.9671     21.1935
   890.6000      7.8562      2.4838      0.0463     10.0712     62.4257     21.7554
   890.7000      7.8562      2.5099      0.0777      8.4906     58.4361     22.4497
   890.8000      7.8646      2.5347      0.1237      6.9886     56.2016     22.8624
   890.9000      7.8646      2.5368      0.1156      6.8587     57.7481     22.8004
   891.0000      7.8935      2.5139      0.1094      8.2460     61.9414     22.5800
   891.1000      7.8935      2.4795      0.0954     10.3359     64.2183     22.5200
   891.2000      7.8935      2.4462      0.0334     12.3489     61.9832     22.5823
   891.3000      7.9146      2.4222      0.0414     13.8079     60.1581     22.3333
   891.4000      7.9146      2.4125      0.0020     14.3927     62.5610     21.7042
   891.5000      7.9022      2.4198      0.0567     13.9519     66.7623     21.2966
   891.6000      7.9022      2.4402      0.0658     12.7145     69.9502     21.2718
   891.7000      7.9022      2.4649      0.1388     11.2212     71.6196     21.3778
   891.8000      7.8882      2.4898      0.0952      9.7103     72.1912     21.7203
   891.9000      7.8882      2.5210      0.1269      7.8203     73.1605     22.1699
   892.0000      7.8689      2.5538      0.1610      5.8329     75.7010     22.4725
   892.1000      7.8689      2.5716      0.1519      4.7499     76.3998     22.9000
   892.2000      7.8689      2.5672      0.1201      5.0179     72.5213     23.3397
   892.3000      7.8618      2.5407      0.1513      6.6213     68.9025     23.2421
   892.4000      7.8618      2.4965      0.1103      9.3041     70.2875     22.7627
   892.5000      7.8670      2.4531      0.0541     11.9315     73.1993     22.6113
   892.6000      7.8670      2.4257      0.0776     13.5936     73.4681     22.8199
   892.7000      7.8670      2.4135      0.0469     14.3318     73.6672     22.9311
