~Version Information
VERS.                      2.0: CWLS Log ASCII Standard - VERSION 2.0
WRAP.                       NO: One line per depth step
~Well Information Block
STRT.FT               795.0000: 
STOP.FT              2276.0000: 
STEP.FT                 0.1000: 
NULL.                -999.2500: 
COMP.          Pioneer Natural Resources: COMPANY
WELL.            Wildcard 31-5: WELL
FLD.           Purgatoire River: FIELD
LOC.           624' FNL & 1852' FEL--: LOCATION
CNTY.               Las Animas: COUNTY
SRVC.                Patterson: SERVICE COMPANY
DATE.          Tue Mar 07 07:04:10 2006: LOG DATE
UWI.           05 071 08707 00: UNIQUE WELL ID
STAT.                 Colorado: STATE
~Curve Information Block
DEPT.FT            0 000 00 00: Depth
DCAL.in                       : CDL Caliper
DPOR.pu                       : CDL Density Porosity
NPOR.pu                       : Neutron Porosity
RHOB.g/cc                     : CDL Bulk Density
RHOC.g/cc                     : CDL Density Correction
GR.GAPI                       : Gamma Ray
~Parameter Information Block
~A  Depth       DCAL        DPOR        NPOR        RHOB        RHOC         GR     
# ...
  2263.8000      7.8544      5.7497     21.0615      2.5551      0.0425   -999.2500
  2263.9000      7.8544      5.5456     20.4518      2.5585      0.0435   -999.2500
  2264.0000      7.8635      5.2549     19.9674      2.5633      0.0825   -999.2500
  2264.1000      7.8635      5.4073     19.7885      2.5608      0.0456   -999.2500
  2264.2000      7.8635      5.6623     19.7820      2.5566      0.0653   -999.2500
  2264.3000      7.8669      6.0541     20.1500      2.5501      0.0673   -999.2500
  2264.4000      7.8669      6.4028     20.8134      2.5444      0.0458   -999.2500
  2264.5000      7.8619      6.2669     21.1171      2.5466      0.0813   -999.2500
  2264.6000      7.8619      5.7440     20.7762      2.5552      0.0607   -999.2500
  2264.7000      7.8619      4.8568     20.2442      2.5699      0.0616   -999.2500
  2264.8000      7.8529      3.5730     19.8342      2.5910      0.0907   -999.2500
  2264.9000      7.8529      2.2515     19.6319      2.6129      0.1041   -999.2500
  2265.0000      7.8459      1.3584     19.7702      2.6276      0.0762   -999.2500
  2265.1000      7.8459      1.3955     20.1372      2.6270      0.1089   -999.2500
  2265.2000      7.8459      2.6239     20.4152      2.6067      0.0755   -999.2500
  2265.3000      7.8398      4.0477     20.5022      2.5832      0.0458   -999.2500
  2265.4000      7.8398      4.3891     20.5631      2.5776      0.0493   -999.2500
  2265.5000      7.8349      3.8905     20.6397      2.5858      0.0563   -999.2500
  2265.6000      7.8349      3.7281     20.4918      2.5885      0.0607   -999.2500
  2265.7000      7.8349      4.3758     20.0220      2.5778      0.0696   -999.2500
  2265.8000      7.8307      5.3304     19.6097      2.5620      0.0273   -999.2500
  2265.9000      7.8307      5.8527     19.6344      2.5534      0.0318   -999.2500
  2266.0000      7.8242      5.7890     20.0374      2.5545      0.0385   -999.2500
  2266.1000      7.8242      5.5458     20.5349      2.5585      0.0702   -999.2500
  2266.2000      7.8242      5.1901     20.9493      2.5644      0.0524   -999.2500
  2266.3000      7.8226      4.4747     21.1830      2.5762      0.0663   -999.2500
  2266.4000      7.8226      3.7687     21.0174      2.5878      0.0698   -999.2500
  2266.5000      7.8272      3.7264     20.6374      2.5885      0.0326   -999.2500
  2266.6000      7.8272      4.4483     20.5454      2.5766      0.0394   -999.2500
  2266.7000      7.8272      5.4524     20.7602      2.5600      0.0343   -999.2500
  2266.8000      7.8294      5.6574     21.3862      2.5567      0.0388   -999.2500
  2266.9000      7.8294      4.1453     23.8496      2.5816      0.0624   -999.2500
  2267.0000      7.8256      1.3542     30.4193      2.6277      0.0809   -999.2500
  2267.1000      7.8256     -0.5941     39.7181      2.6598      0.1568   -999.2500
  2267.2000      7.8256      0.2133     46.3497      2.6465      0.1532   -999.2500
  2267.3000      7.8242      2.9022     48.8060      2.6021      0.0944   -999.2500
  2267.4000      7.8242      4.7983     49.2942      2.5708      0.0408   -999.2500
  2267.5000      7.8295      4.8414     49.3460      2.5701      0.0575   -999.2500
  2267.6000      7.8295      4.4772     49.3489      2.5761      0.0680   -999.2500
  2267.7000      7.8295      5.0381   -999.2500      2.5669      0.1073   -999.2500
  2267.8000      7.8378      5.7474   -999.2500      2.5552      0.0235   -999.2500
  2267.9000      7.8378      5.3306   -999.2500      2.5620      0.0429   -999.2500
  2268.0000      7.8438      4.3739   -999.2500      2.5778      0.0765   -999.2500
  2268.1000      7.8438      3.7474   -999.2500      2.5882      0.0138   -999.2500
  2268.2000      7.8438      3.1242   -999.2500      2.5985      0.0871   -999.2500
  2268.3000      7.8459      2.6447   -999.2500      2.6064      0.0857   -999.2500
  2268.4000      7.8459      2.7807   -999.2500      2.6041      0.0683   -999.2500
  2268.5000      7.8449      3.4799   -999.2500      2.5926      0.0533   -999.2500
  2268.6000      7.8449      4.6437   -999.2500      2.5734      0.0658   -999.2500
  2268.7000      7.8449      5.9801   -999.2500      2.5513      0.0660   -999.2500
  2268.8000      7.8386      7.1109   -999.2500      2.5327      0.0762   -999.2500
  2268.9000      7.8386      7.8276   -999.2500      2.5208      0.0146   -999.2500
  2269.0000      7.8212      7.8662   -999.2500      2.5202      0.0251   -999.2500
  2269.1000      7.8212      7.5141   -999.2500      2.5260      0.0478   -999.2500
  2269.2000      7.8212      7.3756   -999.2500      2.5283      0.0657   -999.2500
  2269.3000      7.7976      7.0894   -999.2500      2.5330      0.0230   -999.2500
  2269.4000      7.7976      6.0324   -999.2500      2.5505      0.0713   -999.2500
  2269.5000      7.7852      4.6547   -999.2500      2.5732      0.1191   -999.2500
  2269.6000      7.7852      3.7495   -999.2500      2.5881      0.1181   -999.2500
  2269.7000      7.7852      3.5039   -999.2500      2.5922      0.0949   -999.2500
  2269.8000      7.7935      3.8980   -999.2500      2.5857      0.1073   -999.2500
  2269.9000      7.7935      4.7757   -999.2500      2.5712      0.0503   -999.2500
  2270.0000      7.8098      5.6679   -999.2500      2.5565      0.0531   -999.2500
  2270.1000      7.8098      6.4116   -999.2500      2.5442      0.0363   -999.2500
  2270.2000      7.8098      6.9039   -999.2500      2.5361      0.0504   -999.2500
  2270.3000      7.8252      6.5555   -999.2500      2.5418      0.0281   -999.2500
  2270.4000      7.8252      5.3056   -999.2500      2.5625      0.0649   -999.2500
  2270.5000      7.8410      4.5648   -999.2500      2.5747      0.0771   -999.2500
  2270.6000      7.8410      5.2898   -999.2500      2.5627      0.0204   -999.2500
  2270.7000      7.8410      6.4686   -999.2500      2.5433     -0.0050   -999.2500
  2270.8000      7.8541      6.9907   -999.2500      2.5347      0.0148   -999.2500
  2270.9000      7.8541      7.1371   -999.2500      2.5322      0.0465   -999.2500
  2271.0000      7.8637      7.1803   -999.2500      2.5315      0.0011   -999.2500
  2271.1000      7.8637      6.5375   -999.2500      2.5421     -0.0015   -999.2500
  2271.2000      7.8637      5.2698   -999.2500      2.5630      0.0070   -999.2500
  2271.3000      7.8676      4.2775   -999.2500      2.5794      0.0455   -999.2500
  2271.4000      7.8676      3.9124   -999.2500      2.5854      0.0610   -999.2500
  2271.5000      7.8665      3.7274   -999.2500      2.5885      0.0121   -999.2500
  2271.6000      7.8665      3.5145   -999.2500      2.5920      0.0608   -999.2500
  2271.7000      7.8665      3.8824   -999.2500      2.5859      0.0657   -999.2500
  2271.8000      7.8638      4.9044   -999.2500      2.5691      0.0373   -999.2500
  2271.9000      7.8638      5.6924   -999.2500      2.5561      0.0381   -999.2500
  2272.0000      7.8572      6.0025   -999.2500      2.5510      0.0669   -999.2500
  2272.1000      7.8572      6.1307   -999.2500      2.5488      0.0142   -999.2500
  2272.2000      7.8572      5.7435   -999.2500      2.5552      0.0350   -999.2500
  2272.3000      7.8513      4.9778   -999.2500      2.5679      0.0648   -999.2500
  2272.4000      7.8513      4.7107   -999.2500      2.5723      0.0632   -999.2500
  2272.5000      7.8436      5.0962   -999.2500      2.5659      0.0390   -999.2500
  2272.6000      7.8436      5.5536   -999.2500      2.5584      0.0673   -999.2500
  2272.7000      7.8436      5.8155   -999.2500      2.5540      0.0635   -999.2500
  2272.8000      7.8220      6.0123   -999.2500      2.5508      0.0775   -999.2500
  2272.9000      7.8220      6.1743   -999.2500      2.5481      0.0596   -999.2500
  2273.0000      7.7874      6.2499   -999.2500      2.5469      0.0794   -999.2500
  2273.1000      7.7874      6.6596   -999.2500      2.5401      0.0470   -999.2500
  2273.2000      7.7874      7.5375   -999.2500      2.5256      0.0102   -999.2500
  2273.3000      7.7551      8.2215   -999.2500      2.5143      0.0060   -999.2500
