~Version Information
VERS.                      2.0: CWLS Log ASCII Standard - VERSION 2.0
WRAP.                       NO: One line per depth step
~Well Information Block
STRT.FT               230.0000: 
STOP.FT               707.5000: 
STEP.FT                 0.2500: 
NULL.                -999.2500: 
COMP.          Pioneer Natural Resources: COMPANY
WELL.          Razor Clam 23-27: WELL
FLD.           Purgatoire River: FIELD
LOC.           2499' FSL & 2636' FWL: LOCATION
CNTY.               Las Animas: COUNTY
SRVC.                Patterson: SERVICE COMPANY
DATE.          Sun Feb 12 15:35:16 2006: LOG DATE
UWI.           05 071 08667 00: UNIQUE WELL ID
STAT.                 Colorado: STATE
~Curve Information Block
DEPT.FT            0 000 00 00: Depth
SN.Ohm-m                      : IEL Short Normal
SP.mV                         : IEL Spontaneous Potential
DIR.Ohm-m                     : IEL Induction Resistivity
GR.GAPI                       : Gamma Ray
~Parameter Information Block
~A  Depth        SN          SP         DIR          GR     
# ...
   565.0000     22.1785     28.3021     21.7264     78.4033
   565.2500     22.2574     28.3365     21.6465     79.7922
   565.5000     22.4364     28.3836     21.6263     82.2249
   565.7500     22.6372     28.4499     21.6991     83.5882
   566.0000     22.7963     28.5465     21.8795     84.2671
   566.2500     22.9406     28.6789     22.1688     83.4031
   566.5000     23.1974     28.8363     22.5698     80.1768
   566.7500     23.6851     28.9944     23.0918     77.2730
   567.0000     24.4084     29.1281     23.7342     73.2347
   567.2500     25.3129     29.2176     24.4629     71.4374
   567.5000     26.3577     29.2468     25.2017     70.0310
   567.7500     27.4378     29.2008     25.8567     69.2678
   568.0000     28.3973     29.0698     26.3648     67.5120
   568.2500     29.2423     28.8530     26.7258     66.1658
   568.5000     30.1817     28.5595     26.9875     64.7471
   568.7500     31.3555     28.2042     27.1967     64.2353
   569.0000     32.6105     27.8059     27.3668     63.5958
   569.2500     33.6637     27.3876     27.4886     63.3175
   569.5000     34.4020     26.9683     27.5671     63.9047
   569.7500     34.8692     26.5544     27.6440     65.1216
   570.0000     35.0819     26.1425     27.7839     67.4429
   570.2500     34.9702     25.7323     28.0365     68.7667
   570.5000     34.5054     25.3267     28.3996     69.9454
   570.7500     33.8297     24.9179     28.7999     70.1154
   571.0000     33.1187     24.4810     29.1024     69.5180
   571.2500     32.3641     23.9884     29.1616     68.8211
   571.5000     31.4517     23.4313     28.8993     68.0766
   571.7500     30.3881     22.8284     28.3542     68.1146
   572.0000     29.3352     22.2196     27.6558     69.0702
   572.2500     28.4474     21.6547     26.9440     70.1494
   572.5000     27.7380     21.1816     26.3072     71.9812
   572.7500     27.1285     20.8337     25.7748     73.0252
   573.0000     26.5610     20.6199     25.3467     73.8235
   573.2500     26.0299     20.5214     25.0214     73.7331
   573.5000     25.5499     20.5038     24.8042     73.0209
   573.7500     25.1357     20.5388     24.6975     72.6497
   574.0000     24.8157     20.6132     24.6892     73.1048
   574.2500     24.6173     20.7200     24.7492     74.2115
   574.5000     24.5204     20.8473     24.8344     76.2062
   574.7500     24.5132     20.9799     24.9007     76.8416
   575.0000     24.6197     21.1077     24.9190     75.8080
   575.2500     24.7581     21.2308     24.8862     74.1760
   575.5000     24.7575     21.3582     24.8226     72.0515
   575.7500     24.5855     21.5026     24.7577     71.5779
   576.0000     24.3819     21.6722     24.7148     71.9741
   576.2500     24.2390     21.8663     24.7033     72.1607
   576.5000     24.1073     22.0796     24.7188     71.1914
   576.7500     23.9561     22.3043     24.7468     69.6993
   577.0000     23.8294     22.5252     24.7691     67.1107
   577.2500     23.7310     22.7160     24.7739     65.7541
   577.5000     23.6195     22.8491     24.7611     64.8048
   577.7500     23.5059     22.9097     24.7346     64.9898
   578.0000     23.4510     22.9022     24.6817     66.5602
   578.2500     23.4602     22.8460     24.5634     68.3257
   578.5000     23.4692     22.7672     24.3326     71.2649
   578.7500     23.4371     22.6908     23.9779     72.8808
   579.0000     23.3659     22.6396     23.5568     74.3881
   579.2500     23.2462     22.6349     23.1813     74.8885
   579.5000     23.0491     22.6969     22.9607     75.2163
   579.7500     22.7895     22.8406     22.9431     75.2416
   580.0000     22.5796     23.0701     23.0917     74.9243
   580.2500     22.5307     23.3736     23.3078     74.4121
   580.5000     22.5871     23.7243     23.4850     73.2841
   580.7500     22.5717     24.0897     23.5594     72.4219
   581.0000     22.4150     24.4444     23.5273     70.9458
   581.2500     22.2192     24.7785     23.4272     69.7250
   581.5000     22.0922     25.1002     23.3095     67.8267
   581.7500     22.0369     25.4344     23.2122     67.0245
   582.0000     21.9947     25.8142     23.1529     67.0409
   582.2500     21.9220     26.2634     23.1340     67.5888
   582.5000     21.8159     26.7806     23.1533     68.2880
   582.7500     21.7024     27.3336     23.2103     68.4231
   583.0000     21.6116     27.8673     23.3026     68.5453
   583.2500     21.5418     28.3195     23.4241     68.9966
   583.5000     21.4793     28.6447     23.5656     70.4422
   583.7500     21.4583     28.8327     23.7180     71.6283
   584.0000     21.5230     28.9073     23.8720     73.0190
   584.2500     21.6284     28.9061     24.0171     73.4102
   584.5000     21.6834     28.8611     24.1424     73.1420
   584.7500     21.6768     28.7956     24.2409     72.6594
   585.0000     21.6590     28.7248     24.3122     72.4867
   585.2500     21.6603     28.6499     24.3625     73.4128
   585.5000     21.6828     28.5560     24.4016     76.7539
   585.7500     21.7144     28.4244     24.4361     79.7505
   586.0000     21.7657     28.2441     24.4626     83.7420
   586.2500     21.8766     28.0098     24.4653     85.3260
   586.5000     21.9967     27.7135     24.4245     85.8323
   586.7500     21.9882     27.3419     24.3325     85.1942
   587.0000     21.8306     26.8806     24.2070     83.3822
   587.2500     21.6665     26.3213     24.0889     81.8907
   587.5000     21.6416     25.6708     24.0251     79.4855
   587.7500     21.7893     24.9583     24.0451     77.7903
   588.0000     22.0218     24.2321     24.1443     75.2156
   588.2500     22.2015     23.5461     24.2839     73.7167
   588.5000     22.2693     22.9448     24.4043     72.1981
   588.7500     22.2948     22.4545     24.4493     71.6218
   589.0000     22.3532     22.0800     24.3893     70.9593
   589.2500     22.4028     21.8067     24.2312     70.5424
   589.5000     22.3634     21.6050     24.0102     70.2341
   589.7500     22.2564     21.4379     23.7706     70.4467
   590.0000     22.1608     21.2724     23.5493     71.5172
   590.2500     22.1067     21.0895     23.3719     72.7407
   590.5000     22.0904     20.8870     23.2542     75.2597
   590.7500     22.1114     20.6749     23.2027     77.1469
   591.0000     22.1505     20.4674     23.2105     79.3412
   591.2500     22.1636     20.2778     23.2567     79.6329
   591.5000     22.1180     20.1149     23.3181     77.4112
   591.7500     22.0404     19.9799     23.3869     74.3652
   592.0000     22.0092     19.8583     23.4763     69.4305
   592.2500     22.0551     19.7140     23.6044     67.4655
   592.5000     22.1550     19.4968     23.7702     67.9879
   592.7500     22.3190     19.1658     23.9448     70.1913
   593.0000     22.5422     18.7168     24.0881     73.9789
   593.2500     22.7794     18.1928     24.1777     75.5564
   593.5000     23.0553     17.6687     24.2236     75.5053
   593.7500     23.3958     17.2179     24.2570     73.9573
   594.0000     23.6906     16.8802     24.3046     70.3609
   594.2500     23.8376     16.6503     24.3700     67.9272
   594.5000     23.8885     16.4905     24.4370     65.2253
   594.7500     23.9532     16.3514     24.4857     64.1167
   595.0000     24.0857     16.1858     24.5065     63.1832
   595.2500     24.2555     15.9539     24.5009     63.0963
   595.5000     24.3668     15.6247     24.4691     64.0006
   595.7500     24.3161     15.1763     24.3985     64.9535
   596.0000     24.0658     14.5909     24.2639     65.5809
   596.2500     23.6647     13.8512     24.0425     65.0613
   596.5000     23.1883     12.9425     23.7334     63.8069
   596.7500     22.7065     11.8623     23.3641     63.7026
   597.0000     22.2989     10.6201     22.9770     65.6146
   597.2500     22.0155      9.2227     22.6064     67.8272
   597.5000     21.8091      7.6551     22.2672     70.5896
   597.7500     21.5928      5.8743     21.9591     71.0853
   598.0000     21.3706      3.8093     21.6809     69.6702
   598.2500     21.2258      1.3612     21.4359     67.9222
