~Version Information
VERS.                      2.0: CWLS Log ASCII Standard - VERSION 2.0
WRAP.                       NO: One line per depth step
~Well Information Block
STRT.FT                -8.2500: 
STOP.FT              1580.5000: 
STEP.FT                 0.2500: 
NULL.                -999.2500: 
COMP.          Pioneer Natural Resources: COMPANY
WELL.          Daytona 31-14 Tr: WELL
FLD.           Purgatorie River: FIELD
LOC.           683' FNL & 1943' FEL--: LOCATION
CNTY.               Las Animas: COUNTY
SRVC.          Patterson Wireline: SERVICE COMPANY
DATE.          Thu Feb 02 08:47:22 2006: LOG DATE
UWI.           05 071 08681 00: UNIQUE WELL ID
STAT.                       CO: STATE
~Curve Information Block
DEPT.FT            0 000 00 00: Depth
CCL.                          : Casing Collar Locator
TT3.usec                      : CBL 3' Travel Time
AMP3.mV                       : CBL 3' Amplitude
GR.GAPI                       : Gamma Ray
~Parameter Information Block
~A  Depth       CCL         TT3         AMP3         GR     
# ...
    92.2500      0.0000    738.5187      7.0776     88.5629
    92.5000      0.0000    738.4246      7.0349     85.7424
    92.7500      0.0000    738.3036      6.9719     85.4788
    93.0000      0.0000    738.0201      6.9041     88.1599
    93.2500      0.0000    737.2961      6.8623     92.7746
    93.5000      0.0000    735.7621      6.8747     97.9417
    93.7500      0.0000    733.2639      6.9507    102.7125
    94.0000      0.0000    730.1099      7.0794    106.4914
    94.2500      0.0000    726.6990      7.2428    108.8364
    94.5000      0.0000    722.8227      7.4256    109.6367
    94.7500      0.0000    717.8455      7.6120    109.1904
    95.0000      0.0000    711.8362      7.7813    107.8822
    95.2500      0.0000    706.0073      7.9147    105.9896
    95.5000      0.0000    701.7137      8.0089    103.9285
    95.7500      0.0000    699.3661      8.0805    102.4673
    96.0000      0.0000    698.4933      8.1580    102.3885
    96.2500      0.0000    698.5112      8.2645    103.8167
    96.5000      0.0000    699.2492      8.4008    105.8955
    96.7500      0.0000    700.8563      8.5419    107.1752
    97.0000      0.0000    703.2659      8.6505    106.4921
    97.2500      0.0000    705.8016      8.6979    103.7267
    97.5000      0.0000    707.6865      8.6766     99.8761
    97.7500      0.0000    709.2039      8.5980     96.3613
    98.0000      0.0000    711.8876      8.4811     94.0420
    98.2500      0.0000    716.9807      8.3496     92.6732
    98.5000      0.0000    723.8878      8.2336     91.3686
    98.7500      0.0000    730.5897      8.1594     89.7957
    99.0000      0.0000    735.4053      8.1288     88.6750
    99.2500      0.0000    738.0250      8.1146     88.7709
    99.5000      0.0000    739.1258      8.0827     89.7426
    99.7500      0.0000    739.5136      8.0193     90.6121
   100.0000      0.0000    739.6854      7.9369     91.1659
   100.2500      0.0000    739.8481      7.8604     92.1116
   100.5000      0.0000    740.0701      7.8140     93.6950
   100.7500      0.0000    740.3480      7.8121     95.0923
   101.0000      0.0000    740.6213      7.8542     95.7764
   101.2500      0.0000    740.8254      7.9242     96.5042
   101.5000      0.0000    740.9737      7.9984     97.9281
   101.7500      0.0000    741.1596      8.0543     99.0137
   102.0000      0.0000    741.4641      8.0744     98.0790
   102.2500      0.0000    741.8729      8.0486     95.0517
   102.5000      0.0000    742.2866      7.9818     91.5848
   102.7500      0.0000    742.5993      7.8970     88.9347
   103.0000      0.0000    742.7661      7.8254     86.8443
   103.2500      0.0000    742.8207      7.7909     85.0346
   103.5000      0.0000    742.8428      7.7995     84.9047
   103.7500      0.0000    742.9000      7.8375     88.7107
   104.0000      0.0000    742.9974      7.8776     96.9396
   104.2500      0.0000    743.0713      7.8917    106.9804
   104.5000      0.0000    743.0321      7.8674    114.7728
   104.7500      0.0000    742.8267      7.8161    117.8717
   105.0000      0.0000    742.4783      7.7615    116.8263
   105.2500      0.0000    742.0743      7.7179    113.7709
   105.5000      0.0000    741.7051      7.6784    110.3899
   105.7500      0.0000    741.3806      7.6257    107.5434
   106.0000      0.0000    740.9381      7.5519    105.9148
   106.2500      0.0000    739.9492      7.4692    106.0097
   106.5000      0.0000    737.7685      7.3996    107.5595
   106.7500      0.0000    733.9945      7.3564    109.5142
   107.0000      0.0000    729.1878      7.3354    110.7631
   107.2500      0.0000    724.8543      7.3241    110.6637
   107.5000      0.0000    722.0788      7.3159    109.0300
   107.7500      0.0000    720.1900      7.3158    106.0432
   108.0000      0.0000    717.4373      7.3312    102.3087
   108.2500      0.0000    713.0529      7.3549     98.8046
   108.5000      0.0000    708.0419      7.3610     96.4682
   108.7500      0.0000    703.9446      7.3239     95.5818
   109.0000      0.0000    701.4457      7.2434     95.5781
   109.2500      0.0000    700.2553      7.1466     95.6477
   109.5000      0.0000    699.7727      7.0645     95.4422
   109.7500      0.0000    699.5693      7.0097     95.0459
   110.0000      0.0000    699.4565      6.9764     94.5883
   110.2500      0.0000    699.3799      6.9568     94.0560
   110.5000      0.0000    699.3385      6.9527     93.1205
   110.7500      0.0000    699.3503      6.9697     91.1969
   111.0000      0.0000    699.4164      7.0048     88.0909
   111.2500      0.0000    699.4848      7.0441     84.5329
   111.5000      0.0000    699.4712      7.0730     81.7564
   111.7500      0.0000    699.3308      7.0862     80.5862
   112.0000      0.0000    699.1085      7.0898     80.9865
   112.2500      0.0000    698.9115      7.0974     82.2081
   112.5000      0.0000    698.8395      7.1219     83.1865
   112.7500      0.0000    698.9392      7.1650     83.0607
   113.0000      0.0000    699.2347      7.2133     81.6262
   113.2500      0.0000    699.8044      7.2505     79.3402
   113.5000      0.0000    700.8592      7.2748     76.9557
   113.7500      0.0000    702.6650      7.3011     75.3268
   114.0000      0.0000    705.1613      7.3459     75.2122
   114.2500      0.0000    707.5615      7.4125     76.5155
   114.5000      0.0000    708.6508      7.4896     77.8146
   114.7500      0.0000    707.8253      7.5593     77.4394
   115.0000      0.0000    705.7348      7.6062     75.2454
   115.2500      0.0000    703.7458      7.6230     72.8975
   115.5000      0.0000    702.9335      7.6125     72.2633
   115.7500      0.0000    703.4638      7.5826     73.7183
   116.0000      0.0000    704.1672      7.5410     76.1420
   116.2500      0.0000    702.3763      7.4931     78.4608
   116.5000      0.0000    695.5756      7.4452     80.9757
   116.7500      0.0000    684.9303      7.4052     84.9366
   117.0000      0.0000    676.4193      7.3775     90.7940
   117.2500      0.0000    675.9680      7.3577     97.1934
   117.5000      0.0000    683.3217      7.3360    102.1021
   117.7500      0.0000    692.6814      7.3038    104.7969
   118.0000      0.0000    699.0278      7.2574    106.1574
   118.2500      0.0000    701.8990      7.1959    106.9685
   118.5000      0.0000    703.6550      7.1194    106.6316
   118.7500      0.0000    706.2927      7.0305    103.8510
   119.0000      0.0000    710.0935      6.9312     98.2383
   119.2500      0.0000    713.9653      6.8180     91.0806
   119.5000      0.0000    716.3775      6.6827     84.8139
   119.7500      0.0000    716.0664      6.5363     81.7034
   120.0000      0.0000    712.3679      6.4341     82.4225
   120.2500      0.0000    705.8422      6.4440     85.5233
   120.5000      0.0000    699.2928      6.5610     88.4508
   120.7500      0.0000    697.5677      6.6808     89.2151
   121.0000      0.0000    705.0552      6.7017     87.1950
   121.2500      0.0000    722.7936      6.6308     82.7850
   121.5000      0.0000    748.0453      6.5564     76.9216
   121.7500      0.0000    776.1832      6.5407     71.0013
   122.0000      0.0000    802.2245      6.5746     66.6464
   122.2500      2.0000    821.0494      6.6140     65.0770
   122.5000      0.0000    828.1686      6.6418     66.6192
   122.7500      0.0000    821.9193      6.7034     70.7206
   123.0000      0.0000    804.7392      6.8838     76.4208
   123.2500      0.0000    781.7524      7.2290     82.9320
   123.5000      0.0000    758.3664      7.6912     89.6756
   123.7500      0.0000    739.0094      8.1702     95.6981
   124.0000      0.0000    726.5496      8.5874     99.5207
   124.2500      0.0000    721.5836      8.9051    100.1232
   124.5000      0.0000    722.4175      9.1101     98.0149
   124.7500      0.0000    726.1410      9.2130     95.0424
   125.0000      0.0000    729.8497      9.2452     93.1226
   125.2500      0.0000    731.4346      9.2397     93.1305
   125.5000      0.0000    729.9925      9.2176     94.7392
