~Version Information
VERS.                      2.0: CWLS Log ASCII Standard - VERSION 2.0
WRAP.                       NO: One line per depth step
~Well Information Block
STRT.FT               260.0000: 
STOP.FT              1229.5000: 
STEP.FT                 0.1000: 
NULL.                -999.2500: 
COMP.          Pioneer Natural Resources: COMPANY
WELL.             Mahalo 12-20: WELL
FLD.           Purgatoire River: FIELD
LOC.           1689' FNL & 479' FWL: LOCATION
CNTY.               Las Animas: COUNTY
SRVC.                Patterson: SERVICE COMPANY
DATE.          Mon Feb 27 07:00:19 2006: LOG DATE
UWI.           05 071 08700 00: UNIQUE WELL ID
STAT.                 Colorado: STATE
~Curve Information Block
DEPT.FT            0 000 00 00: Depth
DCAL.in                       : CDL Caliper
RHOB.g/cc                     : CDL Bulk Density
RHOC.g/cc                     : CDL Density Correction
DPOR.pu                       : CDL Density Porosity
GR.GAPI                       : Gamma Ray
NPOR.pu                       : Neutron Porosity
~Parameter Information Block
~A  Depth       DCAL        RHOB        RHOC        DPOR         GR         NPOR    
# ...
  1152.8000      7.7887      2.5125      0.0157      8.3325    108.3069     21.2848
  1152.9000      7.7887      2.5104      0.0415      8.4583    115.1354     20.7346
  1153.0000      7.7938      2.4994      0.0366      9.1268    116.3194     20.3484
  1153.1000      7.7938      2.4804      0.0205     10.2818    110.8200     20.2535
  1153.2000      7.7938      2.4688     -0.0062     10.9805    102.7152     20.3265
  1153.3000      7.7955      2.4731      0.0135     10.7228     96.1934     20.9627
  1153.4000      7.7955      2.4787      0.0295     10.3819     94.1900     22.1545
  1153.5000      7.8040      2.4714      0.0023     10.8256     97.0503     23.1439
  1153.6000      7.8040      2.4569      0.0339     11.7030    100.5280     23.1778
  1153.7000      7.8040      2.4471      0.0127     12.2991    100.0555     22.1245
  1153.8000      7.8032      2.4473      0.0089     12.2835     96.6691     21.1204
  1153.9000      7.8032      2.4577      0.0007     11.6573     93.0981     21.1139
  1154.0000      7.8026      2.4719      0.0337     10.7914     89.6383     21.2839
  1154.1000      7.8026      2.4789      0.0372     10.3710     89.0554     20.9453
  1154.2000      7.8026      2.4750      0.0243     10.6031     92.4934     20.8568
  1154.3000      7.8042      2.4664      0.0124     11.1267     93.2834     21.6989
  1154.4000      7.8042      2.4600      0.0256     11.5164     86.7755     22.9838
  1154.5000      7.8030      2.4622      0.0152     11.3814     78.5050     23.7351
  1154.6000      7.8030      2.4685      0.0737     10.9998     76.6818     24.0243
  1154.7000      7.8030      2.4621      0.0304     11.3869     80.6067     24.6908
  1154.8000      7.8012      2.4417      0.0053     12.6225     83.3600     25.6073
  1154.9000      7.8012      2.4252     -0.0092     13.6258     83.9255     25.9517
  1155.0000      7.8009      2.4232      0.0206     13.7470     86.1942     25.3608
  1155.1000      7.8009      2.4309      0.0302     13.2805     90.1521     24.5750
  1155.2000      7.8009      2.4400      0.0089     12.7281     91.9826     24.2683
  1155.3000      7.8038      2.4493     -0.0062     12.1655     88.2659     23.7471
  1155.4000      7.8038      2.4649      0.0104     11.2202     82.6041     22.7791
  1155.5000      7.7967      2.4886      0.0563      9.7806     83.3649     22.6579
  1155.6000      7.7967      2.5124      0.0438      8.3379     91.2717     23.6348
  1155.7000      7.7967      2.5313      0.0503      7.1949     99.5311     24.0561
  1155.8000      7.7918      2.5435      0.0949      6.4522    105.0146     23.0833
  1155.9000      7.7918      2.5419      0.0765      6.5514    108.3113     21.6361
  1156.0000      7.7760      2.5233      0.0421      7.6801    110.8490     20.6854
  1156.1000      7.7760      2.4999      0.0322      9.0974    113.5577     20.4703
  1156.2000      7.7760      2.4885      0.0235      9.7902    110.9495     20.8716
  1156.3000      7.7692      2.4988      0.0047      9.1613    101.1725     21.5610
  1156.4000      7.7692      2.5256      0.0796      7.5381     94.0738     22.0432
  1156.5000      7.7668      2.5461      0.0977      6.2959     95.8047     22.0433
  1156.6000      7.7668      2.5511      0.0495      5.9920     97.7294     21.3995
  1156.7000      7.7668      2.5506      0.0731      6.0213     91.0112     20.6634
  1156.8000      7.7611      2.5475      0.0724      6.2122     80.2645     20.5297
  1156.9000      7.7611      2.5406      0.0547      6.6297     75.3534     20.6961
  1157.0000      7.7839      2.5330      0.0575      7.0888     78.5894     20.9435
  1157.1000      7.7839      2.5288      0.0261      7.3430     82.4500     21.1807
  1157.2000      7.7839      2.5308      0.0118      7.2243     81.7014     20.7619
  1157.3000      7.7786      2.5334      0.0588      7.0646     79.8780     19.5357
  1157.4000      7.7786      2.5254      0.0476      7.5515     80.1989     18.2529
  1157.5000      7.7774      2.5071      0.0457      8.6589     80.7154     17.4743
  1157.6000      7.7774      2.4926      0.0491      9.5394     79.0461     17.4420
  1157.7000      7.7774      2.4870      0.0573      9.8782     77.8943     18.1635
  1157.8000      7.7943      2.4851      0.0363      9.9947     79.8888     18.9924
  1157.9000      7.7943      2.4853      0.0440      9.9840     86.2247     19.3772
  1158.0000      7.7896      2.4834      0.0379     10.0944     94.4463     19.5844
  1158.1000      7.7896      2.4733      0.0280     10.7097     94.4144     20.2944
  1158.2000      7.7896      2.4629      0.0243     11.3365     86.9518     21.6273
  1158.3000      7.7818      2.4621      0.0390     11.3865     85.1279     22.7104
  1158.4000      7.7818      2.4634      0.0670     11.3104     91.7191     23.1015
  1158.5000      7.7951      2.4603      0.0399     11.4998     98.1913     23.0903
  1158.6000      7.7951      2.4583      0.0456     11.6191    100.3252     22.8579
  1158.7000      7.7951      2.4629      0.0262     11.3409    100.6460     22.5247
  1158.8000      7.7938      2.4739      0.0334     10.6721    101.0186     22.2429
  1158.9000      7.7938      2.4858      0.0661      9.9511     99.2453     22.2101
  1159.0000      7.7880      2.4868      0.1046      9.8906     93.9318     22.4872
  1159.1000      7.7880      2.4676      0.0726     11.0527     88.9400     22.6201
  1159.2000      7.7880      2.4388      0.0119     12.8027     87.8278     22.0797
  1159.3000      7.7921      2.4211      0.0258     13.8748     88.6982     21.4781
  1159.4000      7.7921      2.4193      0.0332     13.9820     90.9315     21.6861
  1159.5000      7.7931      2.4250      0.0525     13.6374     96.4038     22.2814
  1159.6000      7.7931      2.4313      0.0506     13.2537    101.3013     22.4414
  1159.7000      7.7931      2.4344      0.0296     13.0649    102.4072     22.1605
  1159.8000      7.7955      2.4344      0.0282     13.0656    102.7380     22.0611
  1159.9000      7.7955      2.4368      0.0372     12.9238    102.8248     22.3689
  1160.0000      7.7971      2.4383      0.0376     12.8321    102.8616     22.4527
  1160.1000      7.7971      2.4267      0.0579     13.5342    105.0811     22.2552
  1160.2000      7.7971      2.4062      0.0418     14.7732    106.6865     22.4852
  1160.3000      7.7884      2.3958      0.0376     15.4055    106.0246     23.0649
  1160.4000      7.7884      2.3971      0.0644     15.3302    106.3829     23.4816
  1160.5000      7.7486      2.4029      0.0167     14.9772    107.9172     23.6260
  1160.6000      7.7486      2.4174      0.0392     14.0954    105.9641     23.6261
  1160.7000      7.7486      2.4362      0.0865     12.9578    100.8687     23.7642
  1160.8000      7.7401      2.4496      0.0449     12.1472    100.6856     23.7454
  1160.9000      7.7401      2.4559      0.0610     11.7624    104.7979     23.2471
  1161.0000      7.7650      2.4541      0.0824     11.8747    104.2274     22.8110
  1161.1000      7.7650      2.4523      0.0232     11.9798    100.3242     22.8711
  1161.2000      7.7650      2.4606      0.0834     11.4808    100.9563     23.2192
  1161.3000      7.7839      2.4677      0.0660     11.0483    106.3226     23.5868
  1161.4000      7.7839      2.4631      0.0172     11.3287    110.0892     23.7374
  1161.5000      7.7960      2.4573      0.0128     11.6776    110.2701     23.2499
  1161.6000      7.7960      2.4660      0.0235     11.1510    107.4928     22.4163
  1161.7000      7.7960      2.4833      0.0843     10.1001    101.7408     22.0516
  1161.8000      7.7973      2.4911      0.0336      9.6289     96.7932     22.2016
  1161.9000      7.7973      2.4960     -0.0070      9.3352     98.4707     22.4346
  1162.0000      7.7845      2.5116      0.0581      8.3891    106.9603     22.5551
  1162.1000      7.7845      2.5224      0.0816      7.7325    115.3851     22.7979
  1162.2000      7.7845      2.5117      0.0434      8.3799    116.1132     23.4928
  1162.3000      7.7895      2.4873      0.0275      9.8585    106.6961     24.3744
