~Version Information
VERS.                      2.0: CWLS Log ASCII Standard - VERSION 2.0
WRAP.                       NO: One line per depth step
~Well Information Block
STRT.FT               597.2500: 
STOP.FT              1567.2500: 
STEP.FT                 0.2500: 
NULL.                -999.2500: 
COMP.          Pioneer Natural Resources: COMPANY
WELL.           Butch 33-10 Tr: WELL
FLD.           Purgatoire River: FIELD
LOC.           2309' FSL & 1337' FEL--: LOCATION
PROV.                 Colorado: PROVINCE
CNTY.               Las Animas: COUNTRY
SRVC.                Patterson: SERVICE COMPANY
DATE.          Sat Jan 14 05:18:29 2006: LOG DATE
UWI.           05 071 08649 00: UNIQUE WELL ID
~Curve Information Block
DEPT.FT            0 000 00 00: Depth
SN.Ohm-m                      : IEL Short Normal
SP.mV                         : IEL Spontaneous Potential
DIR.Ohm-m                     : IEL Induction Resistivity
GR.GAPI                       : Gamma Ray
~Parameter Information Block
~A  Depth        SN          SP         DIR          GR     
# ...
  1401.2500     22.6358     57.0896     16.7854     79.8300
  1401.5000     24.1349     57.7048     17.8519     83.5806
  1401.7500     25.1326     58.2917     18.6675     86.2583
  1402.0000     25.7095     58.8200     19.1726     89.4215
  1402.2500     25.9481     59.2866     19.3901     90.5116
  1402.5000     25.9163     59.7116     19.4042     90.7285
  1402.7500     25.6849     60.1295     19.3181     90.5976
  1403.0000     25.3313     60.5774     19.2178     91.5135
  1403.2500     24.9265     61.0845     19.1563     93.4488
  1403.5000     24.5241     61.6639     19.1543     98.4132
  1403.7500     24.1576     62.3100     19.2089    102.8168
  1404.0000     23.8400     63.0001     19.3012    110.5180
  1404.2500     23.5646     63.6989     19.4023    116.0151
  1404.5000     23.3095     64.3664     19.4795    123.7862
  1404.7500     23.0512     64.9646     19.5062    127.8456
  1405.0000     22.7843     65.4632     19.4740    131.0687
  1405.2500     22.5374     65.8433     19.3996    131.0091
  1405.5000     22.3727     66.0986     19.3221    127.8422
  1405.7500     22.3670     66.2343     19.2933    124.1499
  1406.0000     22.5803     66.2654     19.3652    117.4169
  1406.2500     23.0270     66.2130     19.5796    112.9192
  1406.5000     23.6627     66.1012     19.9601    107.3024
  1406.7500     24.3982     65.9536     20.5025    104.5586
  1407.0000     25.1343     65.7894     21.1670    101.3409
  1407.2500     25.8013     65.6212     21.8784     99.1124
  1407.5000     26.3823     65.4535     22.5448     95.0302
  1407.7500     26.9058     65.2823     23.0934     92.1021
  1408.0000     27.4151     65.0967     23.4987     88.4019
  1408.2500     27.9371     64.8808     23.7836     86.7209
  1408.5000     28.4737     64.6180     23.9944     85.1742
  1408.7500     29.0133     64.2934     24.1779     84.4653
  1409.0000     29.5459     63.8977     24.3753     83.3864
  1409.2500     30.0696     63.4292     24.6248     82.5044
  1409.5000     30.5875     62.8949     24.9571     81.0345
  1409.7500     31.0992     62.3099     25.3825     80.1565
  1410.0000     31.5936     61.6952     25.8770     79.0415
  1410.2500     32.0460     61.0741     26.3830     78.1212
  1410.5000     32.4255     60.4675     26.8332     75.8003
  1410.7500     32.7069     59.8897     27.1858     73.5008
  1411.0000     32.8788     59.3462     27.4433     69.3612
  1411.2500     32.9459     58.8336     27.6386     66.6257
  1411.5000     32.9252     58.3439     27.8047     63.3513
  1411.7500     32.8421     57.8712     27.9552     62.0165
  1412.0000     32.7245     57.4191     28.0836     61.5633
  1412.2500     32.5934     57.0067     28.1707     62.3856
  1412.5000     32.4505     56.6686     28.1917     65.0422
  1412.7500     32.2708     56.4487     28.1220     67.1103
  1413.0000     32.0128     56.3873     27.9445     69.0466
  1413.2500     31.6457     56.5062     27.6599     69.0527
  1413.5000     31.1740     56.7967     27.2914     67.9391
  1413.7500     30.6390     57.2155     26.8787     67.5550
  1414.0000     30.1020     57.6912     26.4618     69.0615
  1414.2500     29.6221     58.1394     26.0624     71.6420
  1414.5000     29.2391     58.4812     25.6761     76.9170
  1414.7500     28.9631     58.6594     25.2785     80.3710
  1415.0000     28.7797     58.6467     24.8423     83.8190
  1415.2500     28.6633     58.4454     24.3546     84.4044
  1415.5000     28.5918     58.0805     23.8284     82.6685
  1415.7500     28.5528     57.5892     23.2999     80.2082
  1416.0000     28.5434     57.0118     22.8143     75.7552
  1416.2500     28.5638     56.3857     22.4055     72.9961
  1416.5000     28.6088     55.7436     22.0832     70.1697
  1416.7500     28.6620     55.1149     21.8343     69.5060
  1417.0000     28.6967     54.5284     21.6327     70.2225
  1417.2500     28.6758     54.0163     21.4479     71.3765
  1417.5000     28.5416     53.6170     21.2433     73.4805
  1417.7500     28.2031     53.3770     20.9683     75.2637
  1418.0000     27.5409     53.3494     20.5584     79.2124
  1418.2500     26.4499     53.5901     19.9521     82.7850
  1418.5000     24.9121     54.1499     19.1211     88.7384
  1418.7500     23.0478     55.0645     18.0952     92.4218
  1419.0000     21.0847     56.3441     16.9573     97.0141
  1419.2500     19.2537     57.9659     15.8098     99.7865
  1419.5000     17.6862     59.8726     14.7349    104.7548
  1419.7500     16.3855     61.9762     13.7755    109.3640
  1420.0000     15.2782     64.1703     12.9391    119.0881
  1420.2500     14.2960     66.3443     12.2137    127.3930
  1420.5000     13.4244     68.3988     11.5837    140.9954
  1420.7500     12.6923     70.2581     11.0401    149.2334
  1421.0000     12.1295     71.8766     10.5817    157.9126
  1421.2500     11.7392     73.2395     10.2120    160.6304
  1421.5000     11.5034     74.3578      9.9329    160.3795
  1421.7500     11.4027     75.2605      9.7408    158.0149
  1422.0000     11.4215     75.9849      9.6257    153.0129
  1422.2500     11.5382     76.5680      9.5729    149.9045
  1422.5000     11.7141     77.0398      9.5664    146.9074
  1422.7500     11.8990     77.4183      9.5924    146.0637
  1423.0000     12.0476     77.7098      9.6415    145.7386
  1423.2500     12.1394     77.9100      9.7106    145.6005
  1423.5000     12.1890     78.0097      9.8035    144.9166
  1423.7500     12.2416     78.0009      9.9293    143.9956
  1424.0000     12.3529     77.8828     10.0989    141.9058
  1424.2500     12.5605     77.6669     10.3197    140.1468
  1424.5000     12.8580     77.3786     10.5914    136.9254
  1424.7500     13.1882     77.0558     10.9016    133.9304
  1425.0000     13.4674     76.7438     11.2240    127.0910
  1425.2500     13.6374     76.4887     11.5238    121.0355
  1425.5000     13.7073     76.3288     11.7683    111.8296
  1425.7500     13.7490     76.2875     11.9412    107.3636
  1426.0000     13.8464     76.3675     12.0481    105.1997
  1426.2500     14.0416     76.5495     12.1093    106.9494
  1426.5000     14.3182     76.7944     12.1470    113.1692
  1426.7500     14.6217     77.0494     12.1754    118.5042
  1427.0000     14.8940     77.2573     12.1994    126.0873
  1427.2500     15.0954     77.3658     12.2195    129.9136
  1427.5000     15.2127     77.3375     12.2377    133.2505
  1427.7500     15.2538     77.1560     12.2585    134.1999
  1428.0000     15.2304     76.8300     12.2861    134.6331
  1428.2500     15.1383     76.3919     12.3200    134.2719
  1428.5000     14.9547     75.8939     12.3527    131.3091
  1428.7500     14.6637     75.3997     12.3710    126.7359
  1429.0000     14.2858     74.9743     12.3592    116.1198
  1429.2500     13.8881     74.6722     12.3035    108.0236
  1429.5000     13.5607     74.5273     12.1968     98.0858
  1429.7500     13.3727     74.5453     12.0419     94.9141
  1430.0000     13.3268     74.7016     11.8505     97.2601
  1430.2500     13.3442     74.9459     11.6356    103.4303
  1430.5000     13.2963     75.2127     11.4025    117.1029
  1430.7500     13.0767     75.4364     11.1453    126.9575
  1431.0000     12.6685     75.5677     10.8535    139.4292
  1431.2500     12.1610     75.5864     10.5257    144.9136
  1431.5000     11.7001     75.5066     10.1772    147.9979
  1431.7500     11.4079     75.3732      9.8353    146.9481
  1432.0000     11.3194     75.2484      9.5268    142.7084
  1432.2500     11.3711     75.1932      9.2683    139.6306
  1432.5000     11.4448     75.2494      9.0640    136.7117
  1432.7500     11.4349     75.4263      8.9089    136.5712
  1433.0000     11.2925     75.6988      8.7923    139.4382
  1433.2500     11.0245     76.0151      8.7011    143.1465
  1433.5000     10.6661     76.3115      8.6221    150.1735
  1433.7500     10.2628     76.5298      8.5432    154.9024
  1434.0000      9.8712     76.6299      8.4561    160.7824
  1434.2500      9.5620     76.5964      8.3579    163.5162
  1434.5000      9.4080     76.4362      8.2542    165.6194
