~Version Information
VERS.                      2.0: CWLS Log ASCII Standard - VERSION 2.0
WRAP.                       NO: One line per depth step
~Well Information Block
STRT.FT                -9.0000: 
STOP.FT              1754.0000: 
STEP.FT                 0.2500: 
NULL.                -999.2500: 
COMP.          Pioneer Natural Resources: COMPANY
WELL.          Touchstone 11-32 Tr: WELL
FLD.           Purgatorie River: FIELD
LOC.           782' FNL & 840' FWL--: LOCATION
CNTY.               Las Animas: COUNTY
SRVC.          Patterson Wireline: SERVICE COMPANY
DATE.          Mon Mar 06 09:18:09 2006: LOG DATE
UWI.           05 071 08626 00: UNIQUE WELL ID
STAT.                       CO: STATE
~Curve Information Block
DEPT.FT            0 000 00 00: Depth
CCL.                          : Casing Collar Locator
TT3.usec                      : CBL 3' Travel Time
AMP3.mV                       : CBL 3' Amplitude
GR.GAPI                       : Gamma Ray
~Parameter Information Block
~A  Depth       CCL         TT3         AMP3         GR     
# ...
   225.5000      0.0000    761.4340      7.9273     92.4899
   225.7500      0.0000    755.3292      7.9490     93.1620
   226.0000      0.0000    748.5984      7.9471     92.9174
   226.2500      0.0000    743.6520      7.9200     91.1889
   226.5000      0.0000    741.7009      7.8681     87.9774
   226.7500      0.0000    743.1393      7.7962     83.7609
   227.0000      0.0000    747.9863      7.7142     79.0951
   227.2500      0.0000    755.5623      7.6338     74.4772
   227.5000      0.0000    764.1404      7.5633     70.2463
   227.7500      0.0000    771.5812      7.5065     66.1613
   228.0000      0.0000    776.5800      7.4646     61.4350
   228.2500      0.0000    779.2008      7.4366     55.7055
   228.5000      0.0000    780.3012      7.4196     49.8291
   228.7500      0.0000    780.6962      7.4082     45.3221
   229.0000      0.0000    780.8138      7.3979     43.0911
   229.2500      0.0000    780.7974      7.3876     42.9179
   229.5000      0.0000    780.7009      7.3817     43.9699
   229.7500      0.0000    780.5987      7.3894     45.4698
   230.0000      0.0000    780.5870      7.4192     47.0093
   230.2500      0.0000    780.7281      7.4726     48.6526
   230.5000      0.0000    781.0347      7.5399     50.9249
   230.7500      0.0000    781.5103      7.6042     54.5246
   231.0000      0.0000    782.2468      7.6509     59.8276
   231.2500      0.0000    783.5676      7.6740     66.5236
   231.5000      0.0000    786.2706      7.6750     73.6128
   231.7500      0.0000    791.6300      7.6571     79.7315
   232.0000      0.0000    800.6646      7.6214     83.7722
   232.2500      0.0000    812.9848      7.5712     85.5172
   232.5000      0.0000    826.5349      7.5177     85.6781
   232.7500      0.0000    838.7212      7.4796     85.2038
   233.0000      0.0000    847.6681      7.4731     84.5713
   233.2500      0.0000    852.5954      7.5030     83.7194
   233.5000      0.0000    853.6319      7.5623     82.4289
   233.7500      0.0000    851.5042      7.6385     80.5583
   234.0000      0.0000    847.4963      7.7197     77.8666
   234.2500      0.0000    844.2089      7.8010     73.8685
   234.5000      0.0000    846.3789      7.8853     68.3427
   234.7500      0.0000    860.1434      7.9782     62.1552
   235.0000      0.0000    890.3796      8.0809     57.1779
   235.2500      0.0000    937.3438      8.1911     54.8492
   235.5000      0.0000    994.1060      8.3063     54.8068
   235.7500      0.0000   1047.0309      8.4222     55.3511
   236.0000      0.0000   1081.1088      8.5296     55.2464
   236.2500      0.0000   1088.1115      8.6203     54.5833
   236.5000      0.0000   1071.9272      8.6930     53.9066
   236.7500      0.0000   1046.6615      8.7527     53.1930
   237.0000      0.0000   1027.1881      8.8033     52.0539
   237.2500      0.0000   1018.4630      8.8458     50.5988
   237.5000      0.0000   1014.5175      8.8812     49.6458
   237.7500      0.0000   1008.6602      8.9096     49.9931
   238.0000      0.0000   1001.4317      8.9269     51.6445
   238.2500      0.0000    997.1001      8.9245     53.9463
   238.5000      0.0000    996.2830      8.8942     56.4063
   238.7500      0.0000    993.4446      8.8340     59.0872
   239.0000      0.0000    978.8355      8.7506     62.2735
   239.2500      0.0000    944.7942      8.6563     66.0620
   239.5000      0.0000    894.3748      8.5641     70.2887
   239.7500      0.0000    841.8904      8.4796     74.7742
   240.0000      0.0000    801.8527      8.3987     79.5924
   240.2500      0.0000    779.0349      8.3137     84.9180
   240.5000      0.0000    769.4391      8.2216     90.5436
   240.7500      0.0000    767.1801      8.1262     95.8100
   241.0000      0.0000    768.6033      8.0334    100.0396
   241.2500      0.0000    771.8880      7.9453    102.7965
   241.5000      0.0000    775.0288      7.8604    103.8722
   241.7500      0.0000    775.1533      7.7785    103.4417
   242.0000      0.0000    770.2221      7.7057    102.1172
   242.2500      0.0000    761.0982      7.6531    100.3620
   242.5000      0.0000    751.1052      7.6240     97.9842
   242.7500      0.0000    743.3181      7.6047     94.7441
   243.0000      0.0000    738.5267      7.5730     91.3604
   243.2500      0.0000    735.4168      7.5191     89.2082
   243.5000      0.0000    731.8912      7.4565     88.7870
   243.7500      0.0000    726.2916      7.4082     88.9414
   244.0000      0.0000    718.2885      7.3846     87.9938
   244.2500      0.0000    709.1581      7.3759     85.7046
   244.5000      0.0000    700.9666      7.3639     83.9222
   244.7500      0.0000    695.1616      7.3388     85.0363
   245.0000      0.0000    691.8717      7.3074     89.6456
   245.2500      0.0000    690.3585      7.2885     95.7900
   245.5000      0.0000    689.8715      7.2976    100.5878
   245.7500      0.0000    690.1337      7.3320    102.5022
   246.0000      0.0000    691.4200      7.3750    101.8230
   246.2500      0.0000    694.4359      7.4157     99.4644
   246.5000      0.0000    699.9011      7.4595     96.2126
   246.7500      0.0000    707.7622      7.5151     92.9212
   247.0000      0.0000    716.6679      7.5776     90.3288
   247.2500      0.0000    724.5425      7.6313     88.5211
   247.5000      0.0000    729.8766      7.6663     87.2268
   247.7500      0.0000    732.3440      7.6847     86.4630
   248.0000      0.0000    732.2124      7.6949     86.3647
   248.2500      0.0000    729.4959      7.7030     86.8654
   248.5000      0.0000    723.9404      7.7123     88.0776
   248.7500      0.0000    715.8573      7.7242     90.5346
   249.0000      0.0000    706.7399      7.7392     94.5265
   249.2500      0.0000    698.7009      7.7555     99.1703
   249.5000      0.0000    693.1734      7.7691    102.3772
   249.7500      0.0000    690.2333      7.7772    102.2930
   250.0000      0.0000    689.0521      7.7802     99.2428
   250.2500      0.0000    688.7264      7.7821     95.9485
   250.5000      0.0000    688.7151      7.7876     95.1978
   250.7500      0.0000    688.8559      7.7986     97.3718
   251.0000      0.0000    689.3080      7.8129    100.6741
   251.2500      0.0000    690.6126      7.8267    103.2695
   251.5000      0.0000    693.6682      7.8393    104.3956
   251.7500      0.0000    699.2687      7.8555    103.8796
   252.0000      0.0000    707.2292      7.8806    101.8402
   252.2500      0.0000    715.9034      7.9124     99.1148
   252.5000      0.0000    722.8608      7.9385     97.2500
   252.7500      0.0000    726.3640      7.9460     97.5428
   253.0000      0.0000    726.4533      7.9333     99.9800
   253.2500      0.0000    724.8842      7.9102    103.0190
   253.5000      0.0000    723.9511      7.8880    104.5872
   253.7500      0.0000    724.9275      7.8707    103.6937
   254.0000      0.0000    727.4487      7.8572    101.0651
   254.2500      0.0000    730.4482      7.8467     98.1209
   254.5000      0.0000    733.5653      7.8378     95.7248
   254.7500      0.0000    737.6025      7.8267     94.1772
   255.0000      0.0000    743.7552      7.8081     94.0023
   255.2500      0.0000    752.4161      7.7783     96.1418
   255.5000      0.0000    762.6323      7.7346    101.0625
   255.7500      0.0000    772.8188      7.6732    107.6720
   256.0000      0.0000    781.7880      7.5820    113.3532
   256.2500      0.0000    788.5734      7.4358    115.4342
   256.5000      0.0000    792.0894      7.2165    113.0778
   256.7500      0.0000    792.7857      6.9568    107.8652
   257.0000      0.0000    794.9756      6.7451    102.2815
   257.2500      0.0000    805.7854      6.6472     97.5327
   257.5000      0.0000    830.9771      6.6321     92.9989
   257.7500      0.0000    871.4374      6.6138     87.5725
   258.0000      0.0000    921.3547      6.5524     81.0491
   258.2500      0.0000    968.6359      6.4740     74.3341
   258.5000      0.0000   1000.1098      6.4113     68.8173
   258.7500      2.0000   1009.3337      6.3716     65.6221
