~Version Information
VERS.                      2.0: CWLS Log ASCII Standard - VERSION 2.0
WRAP.                       NO: One line per depth step
~Well Information Block
STRT.FT               880.0000: 
STOP.FT              1996.5000: 
STEP.FT                 0.1000: 
NULL.                -999.2500: 
COMP.          Petrogulf Corporation: COMPANY
WELL.          Collister 17-31R: WELL
FLD.           Purgatorie River: FIELD
LOC.           962' FNL & 1520' FEL: LOCATION
PROV.                 Colorado: PROVINCE
CNTY.               Las Animas: COUNTRY
SRVC.                Patterson: SERVICE COMPANY
DATE.          Mon Sep 26 09:28:52 2005: LOG DATE
UWI.                          : UNIQUE WELL ID
~Curve Information Block
DEPT.FT            0 000 00 00: Depth
DCAL.in                       : CDL Caliper
RHOB.g/cc                     : CDL Bulk Density
RHOC.g/cc                     : CDL Density Correction
DPOR.pu                       : CDL Density Porosity
GR.GAPI                       : Gamma Ray
NPOR.pu                       : Neutron Porosity
~Parameter Information Block
~A  Depth       DCAL        RHOB        RHOC        DPOR         GR         NPOR    
   880.0000      8.1253      1.3042     -0.8336     81.5653     58.5406     37.1366
   880.1000      8.1253      1.3348     -0.8339     79.7061     56.0774     37.0595
   880.2000      8.1253      1.3627     -0.8886     78.0184     56.4020     36.6564
   880.3000      8.1253      1.3952     -0.8170     76.0507     59.1703     36.5515
   880.4000      8.1253      1.4246     -0.7571     74.2696     61.5061     36.6900
   880.5000      8.1218      1.4444     -0.8057     73.0650     61.6026     36.6159
   880.6000      8.1218      1.4719     -0.7935     71.3970     60.3660     36.2819
   880.7000      8.1218      1.5195     -0.7705     68.5167     61.1373     35.9044
   880.8000      8.1255      1.5835     -0.7898     64.6342     64.8467     35.7284
   880.9000      8.1255      1.6588     -0.7046     60.0710     67.4497     35.7690
   881.0000      8.1271      1.7352     -0.6465     55.4416     67.2002     35.8594
   881.1000      8.1271      1.8028     -0.6537     51.3449     67.9937     35.9666
   881.2000      8.1271      1.8568     -0.6339     48.0717     71.4537     36.1272
   881.3000      8.1273      1.8908     -0.6741     46.0095     75.4400     36.2823
   881.4000      8.1273      1.9036     -0.6858     45.2391     78.9537     36.4247
   881.5000      8.1287      1.9031     -0.6163     45.2668     81.5902     36.6092
   881.6000      8.1287      1.8993     -0.6044     45.4985     81.4518     36.6849
   881.7000      8.1287      1.8944     -0.5652     45.7948     78.6978     36.5885
   881.8000      8.1305      1.8658     -0.5061     47.5254     77.1088     36.5842
   881.9000      8.1305      1.7866     -0.5574     52.3255     77.7797     36.8544
   882.0000      8.1286      1.6725     -0.6735     59.2401     77.3468     37.0835
   882.1000      8.1286      1.5677     -0.7238     65.5961     74.4029     36.9249
   882.2000      8.1286      1.5001     -0.7198     69.6919     71.2312     36.5853
   882.3000      8.1347      1.4852     -0.8264     70.5931     69.7990     36.3817
   882.4000      8.1347      1.5278     -0.7225     68.0093     70.5312     36.2548
   882.5000      8.1314      1.6012     -0.6592     63.5630     71.9227     36.0574
   882.6000      8.1314      1.6777     -0.6879     58.9297     73.4573     35.9505
   882.7000      8.1314      1.7620     -0.7123     53.8182     78.3514     36.1875
   882.8000      8.1376      1.8650     -0.7038     47.5776     85.2389     36.5412
   882.9000      8.1376      1.9768     -0.6567     40.7997     89.0184     36.5870
   883.0000      8.1435      2.0810     -0.6169     34.4837     89.3632     36.3344
   883.1000      8.1435      2.1673     -0.5773     29.2542     88.5947     35.9740
   883.2000      8.1435      2.2326     -0.6221     25.2995     89.2487     35.6247
   883.3000      8.1433      2.2872     -0.5948     21.9870     92.7821     35.5241
   883.4000      8.1433      2.3311     -0.4316     19.3301     97.4716     35.6982
   883.5000      8.1440      2.3527     -0.5187     18.0175     99.4160     35.9641
   883.6000      8.1440      2.3575     -0.5720     17.7257     96.8019     36.2923
   883.7000      8.1440      2.3414     -0.4668     18.7008     91.7913     36.4834
   883.8000      8.1426      2.2963     -0.5622     21.4355     88.0285     36.2565
   883.9000      8.1426      2.2497     -0.5431     24.2616     86.6989     35.8730
   884.0000      8.1393      2.2255     -0.5321     25.7264     86.5256     35.7442
   884.1000      8.1393      2.2038     -0.4963     27.0408     87.7831     35.8085
   884.2000      8.1393      2.1509     -0.4982     30.2515     90.2693     35.9095
   884.3000      8.1454      2.0636     -0.5737     35.5394     92.3995     36.0382
   884.4000      8.1454      1.9774     -0.7171     40.7638     93.4665     36.1684
   884.5000      8.1422      1.9148     -0.6602     44.5575     91.6634     36.2867
   884.6000      8.1422      1.8476     -0.5869     48.6288     86.1673     36.3306
   884.7000      8.1422      1.7629     -0.7593     53.7642     80.4917     36.3091
   884.8000      8.1422      1.6993     -0.7034     57.6211     77.5995     36.2650
   884.9000      8.1422      1.6780     -0.6787     58.9110     74.9842     36.1108
   885.0000      8.1462      1.6802     -0.6361     58.7734     71.2584     35.9015
   885.1000      8.1462      1.6924     -0.7531     58.0359     68.5179     35.9272
   885.2000      8.1462      1.7180     -0.6528     56.4823     68.9612     36.1890
   885.3000      8.1455      1.7547     -0.6529     54.2629     71.2010     36.3915
   885.4000      8.1455      1.8050     -0.6463     51.2124     71.8712     36.4946
   885.5000      8.1435      1.8792     -0.6361     46.7138     71.4404     36.7054
   885.6000      8.1435      1.9605     -0.5756     41.7872     72.2441     36.9296
   885.7000      8.1435      2.0088     -0.5315     38.8618     74.6308     36.8904
   885.8000      8.1445      2.0168     -0.5572     38.3773     77.2683     36.7133
   885.9000      8.1445      2.0124     -0.5613     38.6437     78.6166     36.5922
   886.0000      8.1390      2.0080     -0.5509     38.9063     80.7859     36.5274
   886.1000      8.1390      2.0041     -0.6299     39.1440     85.1296     36.4789
   886.2000      8.1390      2.0188     -0.6475     38.2558     86.8969     36.3830
   886.3000      8.1413      2.0596     -0.5946     35.7842     85.9498     36.2227
   886.4000      8.1413      2.1001     -0.5593     33.3253     86.4773     36.0000
   886.5000      8.1418      2.1260     -0.5501     31.7553     86.0033     35.7161
   886.6000      8.1418      2.1634     -0.6068     29.4913     82.5020     35.5720
   886.7000      8.1418      2.2294     -0.5923     25.4903     79.7556     35.6842
   886.8000      8.1431      2.2998     -0.5511     21.2269     81.1234     35.8227
   886.9000      8.1431      2.3441     -0.4910     18.5372     84.9844     35.8620
   887.0000      8.1453      2.3699     -0.5504     16.9739     87.0852     35.8460
   887.1000      8.1453      2.4024     -0.4784     15.0079     86.8535     35.7094
   887.2000      8.1453      2.4359     -0.4484     12.9734     86.2980     35.4977
   887.3000      8.1452      2.4472     -0.5140     12.2894     86.8171     35.3051
   887.4000      8.1452      2.4365     -0.5211     12.9405     88.0672     35.1544
   887.5000      8.1421      2.4323     -0.5533     13.1949     87.5410     34.9723
   887.6000      8.1421      2.4594     -0.5524     11.5513     84.6390     34.5584
   887.7000      8.1421      2.5097     -0.4555      8.5010     81.2597     33.9888
   887.8000      8.1417      2.5492     -0.4357      6.1107     79.0337     33.6766
   887.9000      8.1417      2.5436     -0.4028      6.4494     79.2811     33.6634
   888.0000      8.1421      2.4951     -0.5172      9.3885     80.3399     33.4942
   888.1000      8.1421      2.4525     -0.5842     11.9711     79.5039     33.1428
   888.2000      8.1421      2.4486     -0.5085     12.2069     77.1231     33.1618
   888.3000      8.1446      2.4619     -0.4907     11.4010     75.0497     33.7055
   888.4000      8.1446      2.4745     -0.5809     10.6360     74.7553     34.2089
   888.5000      8.1411      2.4964     -0.5142      9.3082     75.7530     34.2135
   888.6000      8.1411      2.5163     -0.4802      8.1023     75.9722     33.9100
   888.7000      8.1411      2.5074     -0.4990      8.6404     74.9186     33.7508
   888.8000      8.1411      2.4665     -0.4926     11.1188     74.1731     33.9004
   888.9000      8.1411      2.4105     -0.5560     14.5159     75.1151     34.1614
   889.0000      8.1384      2.3714     -0.6314     16.8877     78.3251     34.4638
   889.1000      8.1384      2.3731     -0.6147     16.7826     81.6585     34.6958
   889.2000      8.1384      2.3966     -0.5792     15.3563     83.3640     34.6116
   889.3000      8.1406      2.4085     -0.5597     14.6350     86.0397     34.3712
   889.4000      8.1406      2.4052     -0.6234     14.8353     89.5348     34.2220
   889.5000      8.1444      2.3970     -0.5580     15.3337     89.8584     34.0356
