~Version Information
VERS.                      2.0: CWLS Log ASCII Standard - VERSION 2.0
WRAP.                       NO: One line per depth step
~Well Information Block
STRT.FT               230.0000: 
STOP.FT               707.5000: 
STEP.FT                 0.2500: 
NULL.                -999.2500: 
COMP.          Pioneer Natural Resources: COMPANY
WELL.          Razor Clam 23-27: WELL
FLD.           Purgatoire River: FIELD
LOC.           2499' FSL & 2636' FWL: LOCATION
CNTY.               Las Animas: COUNTY
SRVC.                Patterson: SERVICE COMPANY
DATE.          Sun Feb 12 15:35:16 2006: LOG DATE
UWI.           05 071 08667 00: UNIQUE WELL ID
STAT.                 Colorado: STATE
~Curve Information Block
DEPT.FT            0 000 00 00: Depth
SN.Ohm-m                      : IEL Short Normal
SP.mV                         : IEL Spontaneous Potential
DIR.Ohm-m                     : IEL Induction Resistivity
GR.GAPI                       : Gamma Ray
~Parameter Information Block
~A  Depth        SN          SP         DIR          GR     
# ...
   464.5000     26.6782     22.9714     22.8909     78.2667
   464.7500     26.9787     22.1635     22.9863     78.0762
   465.0000     27.2473     21.2859     23.1227     77.4254
   465.2500     27.4974     20.3715     23.3092     77.3424
   465.5000     27.6113     19.4550     23.5702     78.8681
   465.7500     27.4900     18.5652     23.9324     81.3984
   466.0000     27.1488     17.7206     24.4063     87.5233
   466.2500     26.7146     16.9377     24.9754     92.6707
   466.5000     26.4333     16.2476     25.5983    100.2189
   466.7500     26.5942     15.7033     26.2213    103.9514
   467.0000     27.3306     15.3683     26.7949    106.0549
   467.2500     28.5861     15.2900     27.2857    104.5471
   467.5000     30.3014     15.4798     27.6792     97.5396
   467.7500     32.4936     15.9141     27.9671     90.1346
   468.0000     35.2085     16.5503     28.1274     76.9283
   468.2500     38.3935     17.3426     28.1187     68.2356
   468.5000     41.7146     18.2495     27.9019     57.5651
   468.7500     44.6112     19.2338     27.4708     52.7252
   469.0000     46.5448     20.2608     26.8586     48.9222
   469.2500     47.0403     21.2925     26.1140     48.4045
   469.5000     45.6981     22.2817     25.2774     50.6206
   469.7500     42.5449     23.1749     24.3801     54.4063
   470.0000     38.3031     23.9267     23.4598     63.6279
   470.2500     34.0346     24.5161     22.5659     71.4506
   470.5000     30.4621     24.9528     21.7434     83.6910
   470.7500     27.7055     25.2683     21.0098     91.1412
   471.0000     25.6004     25.5010     20.3484    100.1847
   471.2500     24.0207     25.6831     19.7255    104.4833
   471.5000     22.8993     25.8335     19.1163    108.3051
   471.7500     22.1838     25.9554     18.5183    109.4854
   472.0000     21.7929     26.0397     17.9449    110.2336
   472.2500     21.5710     26.0747     17.4116    110.4655
   472.5000     21.3827     26.0584     16.9320    110.5899
   472.7500     21.1953     26.0058     16.5207    110.5922
   473.0000     21.0011     25.9458     16.1959    110.8848
   473.2500     20.7778     25.9118     15.9744    111.5373
   473.5000     20.5168     25.9319     15.8642    113.2211
   473.7500     20.1915     26.0226     15.8618    114.5108
   474.0000     19.7791     26.1858     15.9550    115.9927
   474.2500     19.3722     26.4086     16.1295    116.4149
   474.5000     19.1618     26.6659     16.3726    116.0186
   474.7500     19.2515     26.9259     16.6740    114.9122
   475.0000     19.5845     27.1588     17.0238    111.7839
   475.2500     20.0942     27.3475     17.4107    109.1271
   475.5000     20.7679     27.4941     17.8189    106.0196
   475.7500     21.5455     27.6189     18.2225    105.2447
   476.0000     22.3072     27.7514     18.5814    104.8593
   476.2500     22.9834     27.9197     18.8456    103.1959
   476.5000     23.6084     28.1438     18.9748     95.6318
   476.7500     24.1816     28.4343     18.9610     87.0603
   477.0000     24.5487     28.7924     18.8380     71.8238
   477.2500     24.6058     29.2100     18.6632     62.6016
   477.5000     24.4761     29.6710     18.4886     53.3758
   477.7500     24.3216     30.1567     18.3404     50.9116
   478.0000     24.1532     30.6511     18.2190     52.2985
   478.2500     23.8755     31.1402     18.1105     56.0857
   478.5000     23.3813     31.6084     17.9951     65.1295
   478.7500     22.5910     32.0355     17.8446     72.7826
   479.0000     21.4644     32.4004     17.6228     85.6099
   479.2500     20.0738     32.6870     17.2995     94.5288
   479.5000     18.6781     32.8908     16.8716    107.5094
   479.7500     17.5736     33.0216     16.3727    115.0541
   480.0000     16.8541     33.0996     15.8587    122.7944
   480.2500     16.3768     33.1482     15.3827    124.6483
   480.5000     15.9035     33.1882     14.9762    122.3879
   480.7500     15.3446     33.2318     14.6461    118.5893
   481.0000     14.8914     33.2802     14.3806    112.1554
   481.2500     14.7791     33.3230     14.1602    108.4119
   481.5000     15.0130     33.3452     13.9655    103.5866
   481.7500     15.3940     33.3374     13.7810    100.4189
   482.0000     15.7230     33.3030     13.5938     95.6965
   482.2500     15.9378     33.2581     13.3941     93.0657
   482.5000     16.0285     33.2239     13.1777     90.5687
   482.7500     15.9169     33.2160     12.9498     89.8625
   483.0000     15.5618     33.2337     12.7232     90.1332
   483.2500     15.0776     33.2601     12.5119     91.3771
   483.5000     14.6031     33.2675     12.3231     95.0176
   483.7500     14.1499     33.2258     12.1538     98.1835
   484.0000     13.7041     33.1087     11.9936    102.4821
   484.2500     13.3542     32.8997     11.8344    104.2889
   484.5000     13.1830     32.6015     11.6789    105.1456
   484.7500     13.1373     32.2409     11.5424    104.8254
   485.0000     13.1146     31.8628     11.4459    103.9464
   485.2500     13.0871     31.5122     11.4054    103.5807
   485.5000     13.0844     31.2177     11.4260    103.5120
   485.7500     13.1205     30.9848     11.5019    103.4040
   486.0000     13.1739     30.8031     11.6231    102.4958
   486.2500     13.2209     30.6588     11.7818    101.4225
   486.5000     13.2507     30.5434     11.9747     99.5708
   486.7500     13.2371     30.4567     12.2010     98.2507
   487.0000     13.1381     30.4020     12.4572     95.7629
   487.2500     12.9740     30.3804     12.7336     93.5180
   487.5000     12.9026     30.3831     13.0153     89.4055
   487.7500     13.1756     30.3869     13.2868     86.6923
   488.0000     13.9622     30.3597     13.5380     83.8299
   488.2500     15.1706     30.2763     13.7660     83.0674
   488.5000     16.4761     30.1329     13.9712     83.3790
   488.7500     17.5672     29.9497     14.1490     84.2752
   489.0000     18.2880     29.7593     14.2861     86.5855
   489.2500     18.5977     29.5918     14.3652     88.9156
   489.5000     18.5854     29.4641     14.3731     93.6738
   489.7500     18.4292     29.3764     14.3018     97.4315
   490.0000     18.1708     29.3135     14.1449    102.7963
   490.2500     17.7210     29.2497     13.8998    105.1995
   490.5000     17.0739     29.1591     13.5772    105.6451
   490.7500     16.2843     29.0289     13.2047    103.6986
   491.0000     15.3950     28.8685     12.8181     98.3644
   491.2500     14.5187     28.7029     12.4480     94.0753
   491.5000     13.7982     28.5521     12.1145     88.1527
   491.7500     13.2699     28.4137     11.8303     85.3872
   492.0000     12.8872     28.2639     11.6036     83.7322
   492.2500     12.6127     28.0762     11.4350     84.1479
   492.5000     12.4277     27.8394     11.3110     86.2664
   492.7500     12.2931     27.5598     11.2032     88.2131
   493.0000     12.1426     27.2466     11.0829     91.4846
   493.2500     11.9702     26.9000     10.9425     93.9060
   493.5000     11.8692     26.5146     10.8037     97.9789
   493.7500     11.9029     26.0920     10.7032    100.6471
   494.0000     12.0298     25.6443     10.6691    103.1640
   494.2500     12.1810     25.1861     10.7085    103.0726
   494.5000     12.3271     24.7250     10.8103    100.1977
   494.7500     12.4658     24.2625     10.9569     97.1687
   495.0000     12.5855     23.8008     11.1340     92.4783
   495.2500     12.6802     23.3450     11.3344     89.8325
   495.5000     12.7978     22.8988     11.5568     87.0081
   495.7500     13.0239     22.4601     11.8005     85.9230
   496.0000     13.3773     22.0213     12.0628     85.0751
   496.2500     13.7428     21.5743     12.3397     84.4626
   496.5000     13.9980     21.1162     12.6293     82.6777
   496.7500     14.1784     20.6500     12.9343     81.1037
   497.0000     14.3948     20.1833     13.2603     79.3833
   497.2500     14.6704     19.7268     13.6125     79.0485
   497.5000     14.9790     19.2950     13.9943     79.0632
   497.7500     15.3058     18.9037     14.4057     78.8330
