~Version Information
 VERS.                                  2.0 : CWLS LAS VERSION
 WRAP.                                   NO : WRAPING MODE
 SWARE .                  MController 2.5.1 : SOFTWARE VERSION
~Well Information
 WELL.                        Loews41-32 Tr : WELL
 COMP.  Pioneer Natural Resources USA, Inc. : COMPANY
 FLD.                      Purgatoire River : FIELD
 LOC.             NW/NE Sec. 32, T32S, R67W : LOCATION
 DATE.                           02/20/2006 : DATE(S) LOGGED
 SRVC.                  Entrada GeoSciences : SERVICE COMPANY
 STAT.                             Colorado : STATE
 CNTY.                           Las Animas : COUNTY
 CTRY.                        United States : COUNTRY
 API.                          05-071-08690 : API NUMBER
 STRT.FT                             638.00 : START DEPTH
 STOP.FT                            1825.00 : STOP DEPTH
 STEP.FT                               1.00 : DEPTH INCREMENT
 NULL.                                -9999 : NULL VALUE
~Curve information
 DEPTH.FT                                   :
 ROP.MIN/FT                                 :
 GAS.UNITS                                  :
~ASCII Log data
# ...
     1638.00         0.48         62.0 
     1639.00         0.33         79.3 
     1640.00         0.27        115.5 
     1641.00         0.27        150.1 
     1642.00         0.37        207.1 
     1643.00         0.37        274.5 
     1644.00         0.17        284.2 
     1645.00         0.50        298.5 
     1646.00         0.20        284.8 
     1647.00         0.20        281.0 
     1648.00         0.13        220.2 
     1649.00         0.13        179.7 
     1650.00         0.23        140.1 
     1651.00         0.30        125.6 
     1652.00         0.30        104.9 
     1653.00         0.20         92.5 
     1654.00         0.35         83.6 
     1655.00         0.33         75.0 
     1656.00         0.37         69.3 
     1657.00         0.13         67.0 
     1658.00         0.17         65.4 
     1659.00         0.13         65.6 
     1660.00         0.17         67.1 
     1661.00         0.17         68.9 
     1662.00         0.20         68.9 
     1663.00         0.23         71.5 
     1664.00         0.23         71.5 
     1665.00         0.23         73.0 
     1666.00         0.17         96.7 
     1667.00         0.17         96.7 
     1668.00         0.20        120.1 
     1669.00         0.22        167.1 
     1670.00         0.23        205.5 
     1671.00         0.20        215.6 
     1672.00         0.23        241.8 
     1673.00         0.20        251.7 
     1674.00         0.27        243.5 
     1675.00         0.27        223.9 
     1676.00         0.17        217.5 
     1677.00         0.37        180.6 
     1678.00         0.27        103.9 
     1679.00         0.23         95.9 
     1680.00         0.13         95.9 
     1681.00         0.17         95.2 
     1682.00         0.20         90.7 
     1683.00         0.20         86.4 
     1684.00         0.23         83.9 
     1685.00         0.28         81.2 
     1686.00         0.30         75.5 
     1687.00         0.30         75.4 
     1688.00         0.27         74.5 
     1689.00         0.30         73.9 
     1690.00         0.27         72.8 
     1691.00         0.27         72.9 
     1692.00         0.37         73.0 
     1693.00         0.57         69.6 
     1694.00         0.43         69.9 
     1695.00         0.62         69.2 
     1696.00         0.37         67.8 
     1697.00         0.63         66.7 
     1698.00         0.53        268.1 
     1699.00         0.37        289.7 
     1700.00         0.13        296.7 
     1701.00         0.13        310.8 
     1702.00         0.20        307.3 
     1703.00         0.23        307.3 
     1704.00         0.27        300.2 
     1705.00         0.42        264.0 
     1706.00         0.47        135.6 
     1707.00         0.37        103.6 
     1708.00         0.33         84.6 
     1709.00         0.37         73.6 
     1710.00         0.43         62.0 
     1711.00         0.38         60.2 
     1712.00         0.40         57.0 
     1713.00         0.40         58.8 
     1714.00         0.40         60.9 
     1715.00         0.60         62.2 
     1716.00         0.53         62.9 
     1717.00         0.47         63.5 
     1718.00         0.40         63.5 
     1719.00         0.38         63.4 
     1720.00         0.30         58.7 
     1721.00         0.27         55.9 
     1722.00         0.23         54.7 
     1723.00         0.23         54.5 
     1724.00         0.20         53.6 
     1725.00         0.27         54.6 
     1726.00         0.23         57.0 
     1727.00         0.33         60.3 
     1728.00         0.53         66.1 
     1729.00         0.45         59.4 
     1730.00         0.40         97.2 
     1731.00         0.33        154.0 
     1732.00         0.20        189.9 
     1733.00         0.17        232.4 
     1734.00         0.23        232.4 
     1735.00         0.63        254.3 
     1736.00         0.33        236.3 
     1737.00         0.23        203.8 
     1738.00         0.37        137.1 
     1739.00         0.27        112.9 
     1740.00         0.27        100.7 
     1741.00         0.43         89.5 
     1742.00         0.37         73.7 
     1743.00         0.33         65.9 
     1744.00         0.32         61.4 
     1745.00         0.27         59.8 
     1746.00         0.27         59.8 
     1747.00         0.30         61.5 
     1748.00         0.30         62.8 
     1749.00         0.27         63.3 
     1750.00         0.27         68.3 
     1751.00         0.43         77.0 
     1752.00         0.40         78.4 
     1753.00         0.53         76.6 
     1754.00         0.52         71.4 
     1755.00         0.43         68.2 
     1756.00         0.53         65.5 
     1757.00         0.50         62.6 
     1758.00         0.47         61.6 
     1759.00         0.47         61.0 
     1760.00         0.52         69.2 
     1761.00         0.47        138.9 
     1762.00         0.57        288.6 
     1763.00         0.33        310.1 
     1764.00         0.27        313.0 
     1765.00         0.47        307.9 
     1766.00         0.47        257.4 
     1767.00         0.42        135.0 
     1768.00         0.40        111.1 
     1769.00         0.37         95.8 
     1770.00         0.37         71.9 
     1771.00         0.53         63.8 
     1772.00         0.47         58.4 
     1773.00         0.37         56.2 
     1774.00         0.33         56.8 
     1775.00         0.38         58.6 
     1776.00         0.37         59.9 
     1777.00         0.37         61.8 
     1778.00         0.40         63.4 
     1779.00         0.33         63.4 
     1780.00         0.30         61.3 
     1781.00         0.23         58.7 
     1782.00         0.23         57.9 
     1783.00         0.27         59.2 
     1784.00         0.33         62.1 
     1785.00         0.33         64.1 
     1786.00         0.38         65.2 
     1787.00         0.40         66.1 
     1788.00         0.43         65.9 
     1789.00         0.43         91.7 
     1790.00         0.33        142.8 
     1791.00         0.27        237.8 
     1792.00         0.33        313.2 
     1793.00         0.40        375.6 
     1794.00         0.17        375.6 
     1795.00         0.27        376.0 
     1796.00         0.35        372.9 
     1797.00         0.33        336.4 
     1798.00         0.53        217.5 
     1799.00         0.30        109.3 
     1800.00         0.37         96.3 
     1801.00         0.33         78.2 
     1802.00         0.33         69.8 
     1803.00         0.30         67.3 
     1804.00         0.35         62.7 
     1805.00         0.27         61.0 
     1806.00         0.27         62.1 
     1807.00         0.30         63.0 
     1808.00         0.37         63.8 
     1809.00         0.40         64.8 
     1810.00         0.27         66.1 
     1811.00         0.27         66.3 
     1812.00         0.23         66.3 
     1813.00         0.23         65.8 
     1814.00         0.27         65.8 
     1815.00         0.28         65.8 
     1816.00         0.30         65.9 
     1817.00         0.33         65.7 
     1818.00         0.27         65.7 
     1819.00         0.30         73.4 
     1820.00         0.23         47.9 
     1821.00         0.17         48.7 
     1822.00         0.20         50.2 
     1823.00         0.37         52.9 
     1824.00         0.50         73.7 
     1825.00         0.30         85.9
