~Version Information
VERS.                      2.0: CWLS Log ASCII Standard - VERSION 2.0
WRAP.                       NO: One line per depth step
~Well Information Block
STRT.FT               330.0000: 
STOP.FT              2874.7000: 
STEP.FT                 0.1000: 
NULL.                -999.2500: 
COMP.          Pioneer Natural Resources: COMPANY
WELL.                AMX 13-13: WELL
FLD.           Purgatoire River: FIELD
LOC.           2316' FSL & 865' FWL--: LOCATION
PROV.                 Colorado: PROVINCE
CNTY.               Las Animas: COUNTRY
SRVC.                Patterson: SERVICE COMPANY
DATE.          Tue Dec 20 09:57:28 2005: LOG DATE
UWI.           05 071 08630 00: UNIQUE WELL ID
~Curve Information Block
DEPT.FT            0 000 00 00: Depth
DCAL.in                       : CDL Caliper
RHOB.g/cc                     : CDL Bulk Density
RHOC.g/cc                     : CDL Density Correction
DPOR.pu                       : CDL Density Porosity
NPOR.pu                       : Neutron Porosity
GR.GAPI                       : Gamma Ray
~Parameter Information Block
~A  Depth       DCAL        RHOB        RHOC        DPOR        NPOR         GR     
# ...
  2845.2000      7.6800      2.3737      0.0889     16.7447     14.2285   -999.2500
  2845.3000      7.6719      2.3773      0.0869     16.5298     14.1419   -999.2500
  2845.4000      7.6719      2.3791      0.0319     16.4207     13.8076   -999.2500
  2845.5000      7.6760      2.3961      0.0747     15.3851     13.4762   -999.2500
  2845.6000      7.6760      2.4243      0.0548     13.6759     13.1465   -999.2500
  2845.7000      7.6760      2.4513      0.0793     12.0420     12.8823   -999.2500
  2845.8000      7.6947      2.4734      0.1047     10.7013     12.9167   -999.2500
  2845.9000      7.6947      2.4949      0.0888      9.4025     13.0848   -999.2500
  2846.0000      7.7240      2.5129      0.1226      8.3118     13.0326   -999.2500
  2846.1000      7.7240      2.5192      0.0817      7.9276     13.0203   -999.2500
  2846.2000      7.7240      2.5138      0.0838      8.2568     13.4351   -999.2500
  2846.3000      7.7464      2.4989      0.0845      9.1578     14.1412   -999.2500
  2846.4000      7.7464      2.4863      0.0303      9.9218     14.8976   -999.2500
  2846.5000      7.7559      2.4897      0.0555      9.7167     15.6748   -999.2500
  2846.6000      7.7559      2.4980      0.1155      9.2136     16.5417   -999.2500
  2846.7000      7.7559      2.4965      0.0628      9.3035     17.1462   -999.2500
  2846.8000      7.7602      2.4936      0.0770      9.4799     16.9177   -999.2500
  2846.9000      7.7602      2.4990      0.0601      9.1497     16.2413   -999.2500
  2847.0000      7.7658      2.5106      0.0766      8.4467     16.0038   -999.2500
  2847.1000      7.7658      2.5182      0.0809      7.9909     16.1436   -999.2500
  2847.2000      7.7658      2.5114      0.0684      8.3996     15.9533   -999.2500
  2847.3000      7.7689      2.4906      0.0422      9.6609     15.6512   -999.2500
  2847.4000      7.7689      2.4697      0.0106     10.9294     15.7104   -999.2500
  2847.5000      7.7668      2.4701      0.0080     10.9013     15.7167   -999.2500
  2847.6000      7.7668      2.4980      0.0188      9.2118     15.5662   -999.2500
  2847.7000      7.7668      2.5286      0.0805      7.3581     15.9178   -999.2500
  2847.8000      7.7630      2.5341      0.0727      7.0265     17.1454   -999.2500
  2847.9000      7.7630      2.5189      0.0443      7.9464     20.2668   -999.2500
  2848.0000      7.7612      2.5075      0.0297      8.6356     28.1799   -999.2500
  2848.1000      7.7612      2.5124      0.0657      8.3405     39.9034   -999.2500
  2848.2000      7.7612      2.5280      0.0810      7.3961     48.2436   -999.2500
  2848.3000      7.7625      2.5384      0.0818      6.7615     51.2427   -999.2500
  2848.4000      7.7625      2.5260      0.1131      7.5152     51.8296   -999.2500
  2848.5000      7.7618      2.5000      0.0227      9.0912     51.8917   -999.2500
  2848.6000      7.7618      2.4890      0.0425      9.7574     51.8952   -999.2500
  2848.7000      7.7618      2.4906      0.0675      9.6603   -999.2500   -999.2500
  2848.8000      7.7584      2.4896      0.0461      9.7192   -999.2500   -999.2500
  2848.9000      7.7584      2.4946      0.0376      9.4159   -999.2500   -999.2500
  2849.0000      7.7538      2.5108      0.0626      8.4334   -999.2500   -999.2500
  2849.1000      7.7538      2.5192      0.1021      7.9282   -999.2500   -999.2500
  2849.2000      7.7538      2.5059      0.0353      8.7307   -999.2500   -999.2500
  2849.3000      7.7466      2.4788      0.0378     10.3751   -999.2500   -999.2500
  2849.4000      7.7466      2.4499      0.0071     12.1261   -999.2500   -999.2500
  2849.5000      7.7404      2.4337     -0.0197     13.1088   -999.2500   -999.2500
  2849.6000      7.7404      2.4364      0.0430     12.9452   -999.2500   -999.2500
  2849.7000      7.7404      2.4500      0.0080     12.1239   -999.2500   -999.2500
  2849.8000      7.7380      2.4661      0.0275     11.1468   -999.2500   -999.2500
  2849.9000      7.7380      2.4763      0.0563     10.5287   -999.2500   -999.2500
  2850.0000      7.7376      2.4807      0.0447     10.2607   -999.2500   -999.2500
  2850.1000      7.7376      2.4847      0.0553     10.0185   -999.2500   -999.2500
  2850.2000      7.7376      2.4849      0.0114     10.0068   -999.2500   -999.2500
  2850.3000      7.7389      2.4851      0.0094      9.9942   -999.2500   -999.2500
  2850.4000      7.7389      2.4969      0.0106      9.2792   -999.2500   -999.2500
  2850.5000      7.7425      2.5111      0.0696      8.4167   -999.2500   -999.2500
  2850.6000      7.7425      2.5118      0.0282      8.3747   -999.2500   -999.2500
  2850.7000      7.7425      2.5050      0.0504      8.7850   -999.2500   -999.2500
  2850.8000      7.7434      2.5016      0.0251      8.9940   -999.2500   -999.2500
  2850.9000      7.7434      2.5091      0.0216      8.5408   -999.2500   -999.2500
  2851.0000      7.7367      2.5273      0.0594      7.4380   -999.2500   -999.2500
  2851.1000      7.7367      2.5408      0.0956      6.6208   -999.2500   -999.2500
  2851.2000      7.7367      2.5427      0.0692      6.5004   -999.2500   -999.2500
  2851.3000      7.7288      2.5445      0.0527      6.3927   -999.2500   -999.2500
  2851.4000      7.7288      2.5504      0.0634      6.0346   -999.2500   -999.2500
  2851.5000      7.7273      2.5595      0.0360      5.4837   -999.2500   -999.2500
  2851.6000      7.7273      2.5773      0.0636      4.4091   -999.2500   -999.2500
  2851.7000      7.7273      2.5994      0.0579      3.0680   -999.2500   -999.2500
  2851.8000      7.7300      2.6082      0.0968      2.5308   -999.2500   -999.2500
  2851.9000      7.7300      2.5963      0.0456      3.2527   -999.2500   -999.2500
  2852.0000      7.7320      2.5767      0.0594      4.4410   -999.2500   -999.2500
  2852.1000      7.7320      2.5567      0.0453      5.6540   -999.2500   -999.2500
  2852.2000      7.7320      2.5339      0.0346      7.0353   -999.2500   -999.2500
  2852.3000      7.7314      2.5128      0.0036      8.3158   -999.2500   -999.2500
  2852.4000      7.7314      2.5029     -0.0151      8.9123   -999.2500   -999.2500
  2852.5000      7.7283      2.5074      0.0011      8.6404   -999.2500   -999.2500
  2852.6000      7.7283      2.5129      0.0437      8.3119   -999.2500   -999.2500
  2852.7000      7.7283      2.5061      0.0322      8.7212   -999.2500   -999.2500
  2852.8000      7.7233      2.4934      0.0095      9.4879   -999.2500   -999.2500
  2852.9000      7.7233      2.4875      0.0245      9.8491   -999.2500   -999.2500
  2853.0000      7.7082      2.4927      0.0552      9.5348   -999.2500   -999.2500
  2853.1000      7.7082      2.5077      0.0564      8.6247   -999.2500   -999.2500
  2853.2000      7.7082      2.5250      0.0960      7.5783   -999.2500   -999.2500
  2853.3000      7.6815      2.5315      0.0768      7.1836   -999.2500   -999.2500
  2853.4000      7.6815      2.5207      0.0905      7.8375   -999.2500   -999.2500
  2853.5000      7.6594      2.5006      0.0548      9.0542   -999.2500   -999.2500
  2853.6000      7.6594      2.4885      0.0503      9.7899   -999.2500   -999.2500
  2853.7000      7.6594      2.4882      0.0623      9.8076   -999.2500   -999.2500
  2853.8000      7.6476      2.4879      0.0925      9.8214   -999.2500   -999.2500
  2853.9000      7.6476      2.4819      0.0851     10.1875   -999.2500   -999.2500
  2854.0000      7.6346      2.4774      0.0615     10.4626   -999.2500   -999.2500
  2854.1000      7.6346      2.4847      0.0736     10.0168   -999.2500   -999.2500
  2854.2000      7.6346      2.5093      0.1235      8.5264   -999.2500   -999.2500
  2854.3000      7.6130      2.5459      0.1556      6.3098   -999.2500   -999.2500
  2854.4000      7.6130      2.5783      0.1868      4.3431   -999.2500   -999.2500
  2854.5000      7.5972      2.5975      0.1762      3.1829   -999.2500   -999.2500
  2854.6000      7.5972      2.6136      0.1454      2.2065   -999.2500   -999.2500
  2854.7000      7.5972      2.6291      0.2112      1.2687   -999.2500   -999.2500
