~Version Information
VERS.                      2.0: CWLS Log ASCII Standard - VERSION 2.0
WRAP.                       NO: One line per depth step
~Well Information Block
STRT.FT               529.2000: 
STOP.FT              1325.2000: 
STEP.FT                 0.1000: 
NULL.                -999.2500: 
COMP.          Pioneer Natural Resources: COMPANY
WELL.            Erin 21-15 Tr: WELL
FLD.           Purgatoire River: FIELD
LOC.           1217' FNL & 2284' FWL--: LOCATION
CNTY.               Las Animas: COUNTY
SRVC.                Patterson: SERVICE COMPANY
DATE.          Mon Mar 06 14:26:48 2006: LOG DATE
UWI.           05 071 08712 00: UNIQUE WELL ID
STAT.                 Colorado: STATE
~Curve Information Block
DEPT.FT            0 000 00 00: Depth
DCAL.in                       : CDL Caliper
RHOB.g/cc                     : CDL Bulk Density
RHOC.g/cc                     : CDL Density Correction
DPOR.pu                       : CDL Density Porosity
GR.GAPI                       : Gamma Ray
~Parameter Information Block
~A  Depth       DCAL        RHOB        RHOC        DPOR         GR     
# ...
  1089.2000      8.4469      2.4399      0.3759     12.7362    112.6285
  1089.3000      8.6557      2.4963      0.3400      9.3180    119.4484
  1089.4000      8.6557      2.5282      0.2928      7.3820    125.1449
  1089.5000      8.8107      2.5416      0.2345      6.5707    127.7203
  1089.6000      8.8107      2.5485      0.1922      6.1520    130.7106
  1089.7000      8.8107      2.5497      0.1706      6.0766    134.0472
  1089.8000      8.6738      2.5377      0.1011      6.8074    134.7997
  1089.9000      8.6738      2.5196      0.0278      7.9060    131.0363
  1090.0000      8.2913      2.5090      0.0319      8.5456    124.7109
  1090.1000      8.2913      2.5091      0.0664      8.5409    122.1994
  1090.2000      8.2913      2.5099      0.0903      8.4935    123.6359
  1090.3000      8.0334      2.4993      0.0670      9.1318    122.3942
  1090.4000      8.0334      2.4843      0.0143     10.0451    115.7398
  1090.5000      7.9604      2.4902      0.0003      9.6876    110.4012
  1090.6000      7.9604      2.5292      0.0403      7.3207    111.9110
  1090.7000      7.9604      2.5783      0.0724      4.3447    114.0041
  1090.8000      7.9358      2.6066      0.1091      2.6275    111.7349
  1090.9000      7.9358      2.6183      0.0614      1.9212    108.0053
  1091.0000      7.9216      2.6382      0.1027      0.7154    105.4538
  1091.1000      7.9216      2.6706      0.0784     -1.2465    102.6001
  1091.2000      7.9216      2.7044      0.1092     -3.2976     99.0477
  1091.3000      7.9167      2.7311      0.1073     -4.9139    100.2401
  1091.4000      7.9167      2.7479      0.1336     -5.9324    103.8513
  1091.5000      7.9170      2.7480      0.1310     -5.9420    101.5242
  1091.6000      7.9170      2.7239      0.0971     -4.4790     95.0510
  1091.7000      7.9170      2.6847      0.0356     -2.1002     88.1917
  1091.8000      7.9185      2.6531     -0.0296     -0.1851     82.0128
  1091.9000      7.9185      2.6448     -0.0239      0.3123     79.9211
  1092.0000      7.9187      2.6564     -0.0276     -0.3908     80.9241
  1092.1000      7.9187      2.6682     -0.0403     -1.1024     79.4684
  1092.2000      7.9187      2.6611     -0.0316     -0.6737     74.7321
  1092.3000      7.9203      2.6416     -0.0491      0.5108     69.4330
  1092.4000      7.9203      2.6349      0.0200      0.9155     65.3355
  1092.5000      7.9221      2.6458      0.0598      0.2548     62.8779
  1092.6000      7.9221      2.6513      0.0642     -0.0784     61.5860
  1092.7000      7.9221      2.6437      0.0611      0.3837     60.6309
  1092.8000      7.9225      2.6390      0.0567      0.6642     61.3519
  1092.9000      7.9225      2.6384      0.1005      0.7016     66.1821
  1093.0000      7.9218      2.6294      0.0437      1.2490     72.2379
  1093.1000      7.9218      2.6185      0.0410      1.9111     73.7799
  1093.2000      7.9218      2.6141      0.0708      2.1753     73.5556
  1093.3000      7.9191      2.6076      0.0476      2.5723     78.2902
  1093.4000      7.9191      2.5931      0.0445      3.4511     87.4563
  1093.5000      7.9170      2.5747      0.0585      4.5620     96.6646
  1093.6000      7.9170      2.5602      0.0379      5.4404    102.2056
  1093.7000      7.9170      2.5540      0.0593      5.8156    102.9087
  1093.8000      7.9172      2.5491      0.0337      6.1150    103.6117
  1093.9000      7.9172      2.5401      0.0745      6.6601    108.8860
  1094.0000      7.9177      2.5364      0.0396      6.8862    116.8061
  1094.1000      7.9177      2.5460      0.1072      6.3051    124.1091
  1094.2000      7.9177      2.5530      0.0892      5.8795    130.6905
  1094.3000      7.9179      2.5455      0.0616      6.3308    138.2413
  1094.4000      7.9179      2.5325      0.0599      7.1219    145.5873
  1094.5000      7.9184      2.5151      0.0753      8.1768    148.6813
  1094.6000      7.9184      2.4923      0.0444      9.5569    147.1507
  1094.7000      7.9184      2.4854      0.0327      9.9760    145.5009
  1094.8000      7.9200      2.5174     -0.0015      8.0362    142.1608
  1094.9000      7.9200      2.5767      0.0796      4.4433    135.9113
  1095.0000      7.9199      2.6279      0.1032      1.3404    129.5350
  1095.1000      7.9199      2.6562      0.1156     -0.3738    124.2607
  1095.2000      7.9199      2.6670      0.1093     -1.0299    124.2952
  1095.3000      7.9168      2.6599      0.1192     -0.5981    130.8720
  1095.4000      7.9168      2.6370      0.0741      0.7869    134.8344
  1095.5000      7.9102      2.6188      0.0259      1.8918    132.3415
  1095.6000      7.9102      2.6299      0.0158      1.2200    129.2910
  1095.7000      7.9102      2.6701      0.0581     -1.2198    127.9888
  1095.8000      7.9052      2.7159      0.0228     -3.9968    125.9318
  1095.9000      7.9052      2.7479      0.0716     -5.9313    121.9646
  1096.0000      7.9098      2.7614      0.0268     -6.7536    116.5762
  1096.1000      7.9098      2.7609      0.0790     -6.7206    110.8848
  1096.2000      7.9098      2.7524      0.0770     -6.2084    105.5428
  1096.3000      7.9151      2.7487      0.0560     -5.9840     99.1041
  1096.4000      7.9151      2.7527      0.0689     -6.2230     92.0466
  1096.5000      7.9097      2.7505      0.0505     -6.0936     89.6230
  1096.6000      7.9097      2.7353      0.0474     -5.1726     94.8793
  1096.7000      7.9097      2.7119     -0.0028     -3.7518    103.7773
  1096.8000      7.9064      2.6868     -0.0000     -2.2296    110.9419
  1096.9000      7.9064      2.6588      0.0056     -0.5359    114.4060
  1097.0000      7.9192      2.6286     -0.0255      1.2964    115.4346
  1097.1000      7.9192      2.6089      0.0210      2.4920    115.3428
  1097.2000      7.9192      2.6040      0.0767      2.7859    111.8064
  1097.3000      7.9357      2.6030      0.0990      2.8501    103.8913
  1097.4000      7.9357      2.5980      0.0887      3.1531     98.5949
  1097.5000      7.9438      2.5899      0.0927      3.6399    101.1087
  1097.6000      7.9438      2.5859      0.0620      3.8840    105.3235
  1097.7000      7.9438      2.5909      0.0915      3.5845    104.5941
  1097.8000      7.9435      2.5978      0.0770      3.1663    101.1195
  1097.9000      7.9435      2.6016      0.0712      2.9345    100.9024
  1098.0000      7.9351      2.6089      0.0514      2.4928    105.5677
  1098.1000      7.9351      2.6257      0.0729      1.4727    108.5326
  1098.2000      7.9351      2.6466      0.0542      0.2037    102.8702
  1098.3000      7.9222      2.6590      0.0909     -0.5477     90.8391
  1098.4000      7.9222      2.6566      0.1001     -0.3994     81.0711
  1098.5000      7.9144      2.6438      0.0819      0.3745     80.4526
  1098.6000      7.9144      2.6282      0.0795      1.3231     87.3041
  1098.7000      7.9144      2.6196      0.0601      1.8407     93.7655
  1098.8000      7.9145      2.6238      0.0256      1.5865     96.4222
  1098.9000      7.9145      2.6244      0.0515      1.5493     96.7685
  1099.0000      7.9183      2.6013      0.0642      2.9506     95.1701
  1099.1000      7.9183      2.5607     -0.0033      5.4106     92.2119
  1099.2000      7.9183      2.5230     -0.0041      7.6980     90.7222
  1099.3000      7.9217      2.4993      0.0039      9.1356     91.1878
  1099.4000      7.9217      2.4925     -0.0031      9.5484     93.9761
  1099.5000      7.9241      2.4972      0.0445      9.2579     99.8238
  1099.6000      7.9241      2.5084     -0.0121      8.5795    106.3837
  1099.7000      7.9241      2.5254      0.0761      7.5529    113.9943
  1099.8000      7.9284      2.5363      0.1012      6.8885    124.0426
  1099.9000      7.9284      2.5349      0.0817      6.9763    134.6382
  1100.0000      7.9352      2.5353      0.0438      6.9545    141.8044
  1100.1000      7.9352      2.5503      0.0270      6.0398    144.5142
  1100.2000      7.9352      2.5708      0.0615      4.8012    145.1145
  1100.3000      7.9397      2.5837      0.0394      4.0183    143.9146
