~Version Information
VERS.                      2.0: CWLS Log ASCII Standard - VERSION 2.0
WRAP.                       NO: One line per depth step
~Well Information Block
STRT.FT               459.3000: 
STOP.FT              1604.7000: 
STEP.FT                 0.1000: 
NULL.                -999.2500: 
COMP.          Pioneer Natural Resources: COMPANY
WELL.          Grand Prix 13-12 Tr: WELL
FLD.           Purgatoire River: FIELD
LOC.           2595' FSL & 1277' FWL--: LOCATION
CNTY.               Las Animas: COUNTY
SRVC.                Patterson: SERVICE COMPANY
DATE.          Tue Apr 04 07:18:28 2006: LOG DATE
UWI.           05 071 08711 00: UNIQUE WELL ID
STAT.                 Colorado: STATE
~Curve Information Block
DEPT.FT            0 000 00 00: Depth
DCAL.in                       : CDL Caliper
RHOB.g/cc                     : CDL Bulk Density
RHOC.g/cc                     : CDL Density Correction
DPOR.pu                       : CDL Density Porosity
GR.GAPI                       : Gamma Ray
~Parameter Information Block
~A  Depth       DCAL        RHOB        RHOC        DPOR         GR     
# ...
   694.5000      7.8632      2.4950      0.0161      9.3912    100.8401
   694.6000      7.8632      2.4942      0.0503      9.4395     93.2562
   694.7000      7.8632      2.4991     -0.0123      9.1425     89.6653
   694.8000      7.8758      2.5144      0.0288      8.2177     92.4656
   694.9000      7.8758      2.5358      0.0390      6.9234     99.0463
   695.0000      7.9035      2.5499      0.0800      6.0684    103.6414
   695.1000      7.9035      2.5450      0.0569      6.3651    103.1573
   695.2000      7.9035      2.5235      0.0770      7.6647    101.6794
   695.3000      7.9324      2.4980      0.0362      9.2122    103.7050
   695.4000      7.9324      2.4758      0.0633     10.5566    106.6065
   695.5000      7.9543      2.4590      0.0043     11.5731    107.0039
   695.6000      7.9543      2.4515      0.0462     12.0329    106.4237
   695.7000      7.9543      2.4483      0.0859     12.2228    107.4509
   695.8000      7.9654      2.4360      0.1241     12.9714    111.9523
   695.9000      7.9654      2.4123      0.0785     14.4043    119.8429
   696.0000      7.9639      2.3922      0.0561     15.6259    127.6786
   696.1000      7.9639      2.3900      0.0570     15.7599    131.4072
   696.2000      7.9639      2.4074      0.0657     14.7035    132.0114
   696.3000      7.9626      2.4325      0.1201     13.1791    132.2810
   696.4000      7.9626      2.4514      0.1387     12.0369    133.0977
   696.5000      7.9663      2.4581      0.1275     11.6320    134.0768
   696.6000      7.9663      2.4542      0.1080     11.8647    134.2355
   696.7000      7.9663      2.4456      0.1070     12.3861    135.5128
   696.8000      7.9602      2.4344      0.0899     13.0659    140.7337
   696.9000      7.9602      2.4205      0.0837     13.9086    147.4655
   697.0000      7.9395      2.4151      0.0201     14.2334    148.9460
   697.1000      7.9395      2.4272      0.0565     13.5049    141.7029
   697.2000      7.9395      2.4397      0.0769     12.7466    130.9959
   697.3000      7.9198      2.4429      0.0438     12.5500    125.6607
   697.4000      7.9198      2.4553      0.0653     11.8000    127.6248
   697.5000      7.9102      2.4817      0.0799     10.1994    131.3558
   697.6000      7.9102      2.5016      0.0978      8.9929    134.0126
   697.7000      7.9102      2.5003      0.1127      9.0742    136.9450
   697.8000      7.9073      2.4884      0.0379      9.7956    139.3229
   697.9000      7.9073      2.4892      0.0512      9.7444    140.0020
   698.0000      7.9085      2.5116      0.0436      8.3906    137.2045
   698.1000      7.9085      2.5432      0.0709      6.4722    131.2267
   698.2000      7.9085      2.5589      0.1273      5.5212    128.3520
   698.3000      7.9103      2.5400      0.0970      6.6649    129.2379
   698.4000      7.9103      2.4962      0.0103      9.3235    129.0862
   698.5000      7.9102      2.4563     -0.0007     11.7383    129.6144
   698.6000      7.9102      2.4360     -0.0218     12.9695    133.2491
   698.7000      7.9102      2.4315     -0.0131     13.2445    135.5061
   698.8000      7.9064      2.4350     -0.0198     13.0287    133.3691
   698.9000      7.9064      2.4365      0.0481     12.9418    127.3207
   699.0000      7.8965      2.4170      0.0464     14.1196    120.2359
   699.1000      7.8965      2.3775     -0.0189     16.5122    116.5536
   699.2000      7.8965      2.3500     -0.0193     18.1812    116.4779
   699.3000      7.8753      2.3682     -0.0521     17.0810    118.1792
   699.4000      7.8753      2.4476      0.0064     12.2685    121.5872
   699.5000      7.8457      2.5708      0.1306      4.7987    124.4331
   699.6000      7.8457      2.7077      0.1460     -3.4995    123.6394
   699.7000      7.8457      2.8456      0.2383    -11.8574    121.5685
   699.8000      7.8231      2.9669      0.3489    -19.2057    120.5058
   699.9000      7.8231      3.0467      0.3716    -24.0439    118.0203
   700.0000      7.8152      3.0815      0.3564    -26.1543    112.5575
   700.1000      7.8152      3.0859      0.2419    -26.4168    106.5162
   700.2000      7.8152      3.0709      0.1964    -25.5109    102.6864
   700.3000      7.8214      3.0260      0.0934    -22.7882     98.3186
   700.4000      7.8214      2.9400     -0.0349    -17.5783     91.3424
   700.5000      7.8418      2.8416     -0.1270    -11.6091     86.3434
   700.6000      7.8418      2.7733     -0.1510     -7.4722     87.7709
   700.7000      7.8418      2.7323     -0.0857     -4.9890     94.9740
   700.8000      7.8614      2.6852     -0.0802     -2.1312    101.0501
   700.9000      7.8614      2.6287     -0.1012      1.2926    100.4225
   701.0000      7.8692      2.5888     -0.0510      3.7061     96.0338
   701.1000      7.8692      2.5794      0.0250      4.2769     91.3465
   701.2000      7.8692      2.5818      0.0657      4.1354     84.7439
   701.3000      7.8684      2.5672      0.0512      5.0185     76.7329
   701.4000      7.8684      2.5303      0.0092      7.2568     71.6200
   701.5000      7.8653      2.4900      0.0200      9.6945     70.8371
   701.6000      7.8653      2.4640     -0.0046     11.2720     71.1540
   701.7000      7.8653      2.4587      0.0160     11.5966     69.7295
   701.8000      7.8655      2.4725     -0.0028     10.7595     67.9837
   701.9000      7.8655      2.4958      0.0496      9.3476     66.7756
   702.0000      7.8715      2.5125      0.0341      8.3352     63.8434
   702.1000      7.8715      2.5197      0.0499      7.8962     60.3413
   702.2000      7.8715      2.5296      0.0407      7.2946     59.1230
   702.3000      7.8705      2.5432      0.1087      6.4729     58.3837
   702.4000      7.8705      2.5541      0.0672      5.8148     55.9433
   702.5000      7.8562      2.5749      0.0990      4.5494     52.9709
   702.6000      7.8562      2.6184      0.1149      1.9144     50.9969
   702.7000      7.8562      2.6655      0.1857     -0.9389     50.2418
   702.8000      7.8408      2.6920      0.1234     -2.5454     50.5314
   702.9000      7.8408      2.7117      0.0947     -3.7379     50.2821
   703.0000      7.8339      2.7390      0.1264     -5.3911     48.2506
   703.1000      7.8339      2.7575      0.1360     -6.5164     46.7194
   703.2000      7.8339      2.7531      0.1203     -6.2485     48.0725
   703.3000      7.8363      2.7290      0.0672     -4.7891     50.8266
   703.4000      7.8363      2.6915      0.0401     -2.5143     52.2763
   703.5000      7.8469      2.6476      0.0068      0.1448     52.4547
   703.6000      7.8469      2.6032      0.0185      2.8384     52.8875
   703.7000      7.8469      2.5700     -0.0521      4.8500     53.7023
   703.8000      7.8628      2.5706      0.0164      4.8127     53.4302
   703.9000      7.8628      2.6053      0.0117      2.7066     50.8196
   704.0000      7.8777      2.6410      0.0662      0.5467     48.8227
   704.1000      7.8777      2.6439      0.0764      0.3689     50.5876
   704.2000      7.8777      2.6135      0.0377      2.2148     54.9616
   704.3000      7.8848      2.5745     -0.0169      4.5787     57.8714
   704.4000      7.8848      2.5530     -0.0426      5.8776     55.7063
   704.5000      7.8854      2.5609     -0.0273      5.3980     52.9940
   704.6000      7.8854      2.5847      0.0238      3.9572     57.0772
   704.7000      7.8854      2.5973      0.0177      3.1931     64.5360
   704.8000      7.8845      2.5878      0.0133      3.7726     67.4206
   704.9000      7.8845      2.5656      0.0368      5.1121     65.3071
   705.0000      7.8833      2.5497     -0.0247      6.0776     62.9697
   705.1000      7.8833      2.5468      0.0254      6.2563     63.6407
   705.2000      7.8833      2.5426      0.0227      6.5093     66.6503
   705.3000      7.8823      2.5424     -0.0971      6.5188     67.8702
   705.4000      7.8823      2.5693      0.0124      4.8901     63.2779
   705.5000      7.8849      2.6091      0.0850      2.4765     56.2231
   705.6000      7.8849      2.6277      0.0656      1.3487     54.0282
