~Version Information
VERS.                      2.0: CWLS Log ASCII Standard - VERSION 2.0
WRAP.                       NO: One line per depth step
~Well Information Block
STRT.FT               547.0000: 
STOP.FT              1685.5000: 
STEP.FT                 0.2500: 
NULL.                -999.2500: 
COMP.          Pioneer Natural Resources: COMPANY
WELL.           Pedri 42-33 Tr: WELL
FLD.           Purgatorie River: FIELD
LOC.           1933' FNL & 662' FEL: LOCATION
PROV.                 Colorado: PROVINCE
CNTY.               Las Animas: COUNTRY
SRVC.                Patterson: SERVICE COMPANY
DATE.          Mon Dec 19 10:09:44 2005: LOG DATE
UWI.                          : UNIQUE WELL ID
~Curve Information Block
DEPT.FT            0 000 00 00: Depth
DIR.Ohm-m                     : IEL Induction Resistivity
GR.GAPI                       : Gamma Ray
~Parameter Information Block
~A  Depth       DIR          GR     
# ...
  1160.2500     41.4510     59.3819
  1160.5000     37.4592     58.9034
  1160.7500     33.8153     59.9386
  1161.0000     30.5866     63.8498
  1161.2500     27.7748     67.4909
  1161.5000     25.3498     73.7613
  1161.7500     23.2677     78.8112
  1162.0000     21.4778     88.8152
  1162.2500     19.9266     97.1872
  1162.5000     18.5674    111.0391
  1162.7500     17.3691    120.1140
  1163.0000     16.3198    131.9949
  1163.2500     15.4200    137.9600
  1163.5000     14.6714    142.7483
  1163.7500     14.0678    143.0667
  1164.0000     13.5929    140.8431
  1164.2500     13.2250    139.0059
  1164.5000     12.9456    137.1765
  1164.7500     12.7453    136.5384
  1165.0000     12.6238    136.1874
  1165.2500     12.5845    136.5217
  1165.5000     12.6285    137.7079
  1165.7500     12.7519    138.2309
  1166.0000     12.9485    137.7199
  1166.2500     13.2163    136.9979
  1166.5000     13.5611    137.0848
  1166.7500     13.9955    138.4598
  1167.0000     14.5314    141.8663
  1167.2500     15.1703    144.0707
  1167.5000     15.8971    145.7413
  1167.7500     16.6794    145.4662
  1168.0000     17.4735    143.2859
  1168.2500     18.2325    140.6378
  1168.5000     18.9184    133.9760
  1168.7500     19.5115    127.3096
  1169.0000     20.0117    114.6942
  1169.2500     20.4298    105.7798
  1169.5000     20.7739     94.0206
  1169.7500     21.0417     88.2348
  1170.0000     21.2238     83.3075
  1170.2500     21.3108     82.4606
  1170.5000     21.2979     84.7127
  1170.7500     21.1817     88.8344
  1171.0000     20.9559     99.5089
  1171.2500     20.6157    109.1380
  1171.5000     20.1731    124.3746
  1171.7500     19.6731    132.8319
  1172.0000     19.1900    140.8398
  1172.2500     18.8043    143.5503
  1172.5000     18.5769    146.2490
  1172.7500     18.5400    148.1565
  1173.0000     18.7039    150.5928
  1173.2500     19.0674    150.8699
  1173.5000     19.6225    148.5496
  1173.7500     20.3527    145.8503
  1174.0000     21.2298    141.7438
  1174.2500     22.2189    139.3480
  1174.5000     23.2908    135.4831
  1174.7500     24.4378    131.7740
  1175.0000     25.6795    123.0977
  1175.2500     27.0533    115.1778
  1175.5000     28.5918    101.6710
  1175.7500     30.3019     92.9771
  1176.0000     32.1539     82.2291
  1176.2500     34.0829     76.9613
  1176.5000     35.9983     71.5536
  1176.7500     37.7951     69.1912
  1177.0000     39.3694     67.1014
  1177.2500     40.6442     66.6750
  1177.5000     41.5976     67.3416
  1177.7500     42.2709     68.2473
  1178.0000     42.7384     69.4284
  1178.2500     43.0557     69.8914
  1178.5000     43.2270     70.2606
  1178.7500     43.2158     70.3254
  1179.0000     42.9874     69.9044
  1179.2500     42.5489     69.1902
  1179.5000     41.9607     67.6388
  1179.7500     41.3172     66.4015
  1180.0000     40.7113     64.2467
  1180.2500     40.2011     62.6361
  1180.5000     39.7954     60.3990
  1180.7500     39.4627     59.4865
  1181.0000     39.1524     59.5253
  1181.2500     38.8150     60.2932
  1181.5000     38.4147     61.3324
  1181.7500     37.9363     61.2386
  1182.0000     37.3886     59.9017
  1182.2500     36.8016     58.9063
  1182.5000     36.2163     58.3286
  1182.7500     35.6753     58.5823
  1183.0000     35.2184     59.3557
  1183.2500     34.8771     59.8930
  1183.5000     34.6625     60.6055
  1183.7500     34.5515     60.9704
  1184.0000     34.4861     61.2511
  1184.2500     34.3963     61.2303
  1184.5000     34.2352     60.8551
  1184.7500     34.0012     60.3564
  1185.0000     33.7276     59.3906
  1185.2500     33.4528     58.9240
  1185.5000     33.1997     59.1822
  1185.7500     32.9774     60.0774
  1186.0000     32.7920     61.8063
  1186.2500     32.6465     62.6712
  1186.5000     32.5287     63.1963
  1186.7500     32.4037     63.2115
  1187.0000     32.2281     63.0751
  1187.2500     31.9774     62.8214
  1187.5000     31.6650     61.7924
  1187.7500     31.3369     60.6093
  1188.0000     31.0475     58.7741
  1188.2500     30.8335     58.1541
  1188.5000     30.7024     58.6758
  1188.7500     30.6395     59.7716
  1189.0000     30.6250     61.8983
  1189.2500     30.6486     63.5041
  1189.5000     30.7090     66.1563
  1189.7500     30.8004     67.8133
  1190.0000     30.9009     69.1339
  1190.2500     30.9766     68.7188
  1190.5000     31.0015     66.2320
  1190.7500     30.9768     64.1017
  1191.0000     30.9325     61.9896
  1191.2500     30.9118     61.8325
  1191.5000     30.9529     62.7365
  1191.7500     31.0801     63.2096
  1192.0000     31.2994     62.9864
  1192.2500     31.5908     62.5129
  1192.5000     31.9007     62.1605
  1192.7500     32.1527     62.3343
  1193.0000     32.2830     62.9564
  1193.2500     32.2796     63.4516
  1193.5000     32.1906     64.1828
  1193.7500     32.0911     64.5675
  1194.0000     32.0364     64.9296
  1194.2500     32.0329     65.2400
  1194.5000     32.0424     66.3152
  1194.7500     32.0145     67.3813
  1195.0000     31.9263     68.6860
  1195.2500     31.8016     68.9076
  1195.5000     31.7015     68.1813
  1195.7500     31.6966     67.2572
  1196.0000     31.8470     65.9889
  1196.2500     32.1945     65.8835
  1196.5000     32.7606     67.8171
  1196.7500     33.5414     70.3303
  1197.0000     34.4997     74.0499
  1197.2500     35.5637     75.2780
  1197.5000     36.6434     74.7538
  1197.7500     37.6638     73.5041
  1198.0000     38.5989     71.5936
  1198.2500     39.4803     70.4514
  1198.5000     40.3705     68.3307
  1198.7500     41.3239     66.4268
  1199.0000     42.3643     63.4492
  1199.2500     43.4938     62.0312
  1199.5000     44.7162     61.2711
  1199.7500     46.0421     61.4207
  1200.0000     47.4634     61.6660
  1200.2500     48.9156     61.2655
  1200.5000     50.2772     59.2999
  1200.7500     51.4242     57.3114
  1201.0000     52.3064     54.5811
  1201.2500     52.9725     53.7087
  1201.5000     53.5155     54.2453
  1201.7500     53.9995     55.4173
  1202.0000     54.4359     57.1783
  1202.2500     54.8184     57.8166
  1202.5000     55.1608     57.6334
  1202.7500     55.4903     56.8109
  1203.0000     55.8031     55.0456
  1203.2500     56.0340     54.1025
  1203.5000     56.0900     54.0325
  1203.7500     55.9306     54.9940
  1204.0000     55.6267     57.0329
  1204.2500     55.3603     57.9433
  1204.5000     55.3659     57.7010
  1204.7500     55.8450     56.6143
  1205.0000     56.8689     54.7228
  1205.2500     58.2888     53.8692
  1205.5000     59.7121     53.3498
  1205.7500     60.6239     53.2517
  1206.0000     60.6399     53.1518
  1206.2500     59.6995     53.1625
  1206.5000     58.0253     53.5743
  1206.7500     55.9348     54.2364
  1207.0000     53.7057     55.8549
  1207.2500     51.5653     57.1942
  1207.5000     49.7210     58.7778
  1207.7500     48.3508     58.9193
  1208.0000     47.5580     57.5269
  1208.2500     47.3371     56.2801
  1208.5000     47.5909     55.8261
  1208.7500     48.1888     56.9319
  1209.0000     49.0238     59.7775
  1209.2500     50.0157     61.5197
  1209.5000     51.0597     62.8998
  1209.7500     51.9898     62.9137
  1210.0000     52.6215     61.8510
  1210.2500     52.8504     60.6687
  1210.5000     52.7052     58.6715
  1210.7500     52.3062     57.4675
  1211.0000     51.7904     56.2030
  1211.2500     51.2738     55.7860
  1211.5000     50.8496     55.6990
  1211.7500     50.5849     55.9840
  1212.0000     50.5069     57.2111
  1212.2500     50.6001     58.7153
  1212.5000     50.8163     61.6139
  1212.7500     51.0891     63.3553
  1213.0000     51.3444     64.7629
  1213.2500     51.5102     64.9000
  1213.5000     51.5405     64.6285
  1213.7500     51.4394     64.4296
  1214.0000     51.2579     63.9415
  1214.2500     51.0538     63.3172
  1214.5000     50.8434     62.1641
  1214.7500     50.5862     61.6115
  1215.0000     50.2169     61.5322
  1215.2500     49.6992     61.9377
  1215.5000     49.0613     62.6188
  1215.7500     48.3902     62.6069
