~Version Information
VERS.                      2.0: CWLS Log ASCII Standard - VERSION 2.0
WRAP.                       NO: One line per depth step
~Well Information Block
STRT.FT               420.0000: 
STOP.FT              2888.7000: 
STEP.FT                 0.1000: 
NULL.                -999.2500: 
COMP.          Pioneer Natural Resources: COMPANY
WELL.          Touchstone 11-32: WELL
FLD.           Purgatoire River: FIELD
LOC.           853' FNL & 407' FWL--: LOCATION
CNTY.               Las Animas: COUNTY
SRVC.                Patterson: SERVICE COMPANY
DATE.          Fri Feb 24 11:16:52 2006: LOG DATE
UWI.           05 071 08564 00: UNIQUE WELL ID
STAT.                 Colorado: STATE
~Curve Information Block
DEPT.FT            0 000 00 00: Depth
DCAL.in                       : CDL Caliper
RHOB.g/cc                     : CDL Bulk Density
RHOC.g/cc                     : CDL Density Correction
DPOR.pu                       : CDL Density Porosity
NPOR.pu                       : Neutron Porosity
GR.GAPI                       : Gamma Ray
~Parameter Information Block
~A  Depth       DCAL        RHOB        RHOC        DPOR        NPOR         GR     
# ...
   746.4000      8.0665      2.6411      0.0677      0.5412     24.9867     83.7438
   746.5000      8.0732      2.6058      0.0001      2.6777     26.4245     81.2100
   746.6000      8.0732      2.5976     -0.0261      3.1768     27.7904     79.3678
   746.7000      8.0732      2.6142      0.0758      2.1711     28.8490     79.9102
   746.8000      8.0767      2.6208      0.0618      1.7685     29.3306     84.4880
   746.9000      8.0767      2.6093      0.0294      2.4670     29.0565     92.4159
   747.0000      8.0818      2.5998      0.0410      3.0452     28.3283    102.3893
   747.1000      8.0818      2.6008      0.0366      2.9831     27.4536    113.8278
   747.2000      8.0818      2.6023      0.0189      2.8892     26.9526    122.5387
   747.3000      8.0882      2.5870      0.0292      3.8159     27.3142    124.3355
   747.4000      8.0882      2.5567     -0.0040      5.6523     27.9322    124.8156
   747.5000      8.0921      2.5394     -0.0006      6.7000     27.7947    128.4431
   747.6000      8.0921      2.5475      0.0192      6.2112     27.0181    131.0070
   747.7000      8.0921      2.5614      0.0483      5.3708     26.4513    134.5652
   747.8000      8.0926      2.5696     -0.0073      4.8727     26.6315    142.2938
   747.9000      8.0926      2.5854      0.0392      3.9124     27.4677    144.7453
   748.0000      8.0934      2.6070      0.0589      2.6071     28.2122    137.3971
   748.1000      8.0934      2.6142      0.0653      2.1708     28.1562    129.0837
   748.2000      8.0934      2.5972      0.0639      3.2018     27.4660    125.9109
   748.3000      8.0961      2.5625      0.0299      5.3038     27.0948    128.6651
   748.4000      8.0961      2.5326     -0.0075      7.1156     27.4427    132.6770
   748.5000      8.0983      2.5266      0.0111      7.4760     28.0002    133.6981
   748.6000      8.0983      2.5437      0.0075      6.4452     28.3391    134.8943
   748.7000      8.0983      2.5682      0.0716      4.9571     28.3942    137.6698
   748.8000      8.0978      2.5840      0.0413      3.9990     28.1166    140.7044
   748.9000      8.0978      2.5889      0.0267      3.7031     27.6150    142.6327
   749.0000      8.0922      2.5866      0.0276      3.8426     27.1361    143.6945
   749.1000      8.0922      2.5790      0.0451      4.3040     26.9710    145.7419
   749.2000      8.0922      2.5715      0.0207      4.7581     27.2029    146.6730
   749.3000      8.0836      2.5726      0.0245      4.6903     27.4185    142.6731
   749.4000      8.0836      2.5774      0.0743      4.3974     27.3399    135.7862
   749.5000      8.0775      2.5685      0.0552      4.9397     27.1834    133.7040
   749.6000      8.0775      2.5434      0.0213      6.4589     27.0467    136.8076
   749.7000      8.0775      2.5198      0.0202      7.8905     26.6696    140.0873
   749.8000      8.0743      2.5068      0.0243      8.6803     25.9400    143.4500
   749.9000      8.0743      2.5002     -0.0125      9.0813     25.2801    146.6504
   750.0000      8.0723      2.5053     -0.0074      8.7709     25.0624    148.4281
   750.1000      8.0723      2.5241      0.0231      7.6301     25.0157    148.8442
   750.2000      8.0723      2.5292      0.0924      7.3182     24.9085    147.2752
   750.3000      8.0720      2.4984      0.0183      9.1886     24.5221    145.2937
   750.4000      8.0720      2.4609     -0.0167     11.4630     23.6797    147.1393
   750.5000      8.0750      2.4513     -0.0003     12.0418     22.9951    149.8906
   750.6000      8.0750      2.4621      0.0334     11.3906     23.0096    147.8649
   750.7000      8.0750      2.4786      0.0353     10.3897     23.4181    143.1606
   750.8000      8.0758      2.5052      0.0734      8.7750     23.9161    140.0676
   750.9000      8.0758      2.5396      0.0867      6.6889     24.6101    139.8374
   751.0000      8.0722      2.5631      0.1697      5.2643     25.4240    141.2490
   751.1000      8.0722      2.5583      0.1347      5.5596     26.1069    141.5978
   751.2000      8.0722      2.5305      0.1346      7.2429     26.4379    142.8844
   751.3000      8.0703      2.5134      0.0518      8.2794     26.1130    145.5498
   751.4000      8.0703      2.5337      0.1067      7.0490     25.1668    145.7853
   751.5000      8.0736      2.5700      0.1325      4.8498     24.2094    143.5934
   751.6000      8.0736      2.5880      0.0976      3.7586     23.5609    143.8242
   751.7000      8.0736      2.5920      0.0651      3.5171     23.0641    148.3120
   751.8000      8.0767      2.5948      0.0605      3.3468     22.4761    151.7993
   751.9000      8.0767      2.5826      0.0984      4.0845     21.9436    152.3906
   752.0000      8.0768      2.5568     -0.0090      5.6476     21.7276    153.3911
   752.1000      8.0768      2.5446      0.0265      6.3852     21.4155    153.9321
   752.2000      8.0768      2.5485      0.0449      6.1491     20.9627    151.8126
   752.3000      8.0763      2.5530      0.0557      5.8807     21.2226    146.9414
   752.4000      8.0763      2.5573      0.0475      5.6177     22.4746    141.0679
   752.5000      8.0772      2.5724      0.0595      4.7022     23.8851    136.1327
   752.6000      8.0772      2.5995      0.0904      3.0577     24.7164    132.6945
   752.7000      8.0772      2.6179      0.0820      1.9457     25.0573    134.3848
   752.8000      8.0785      2.6104      0.0635      2.3996     25.3345    144.3222
   752.9000      8.0785      2.5885      0.0151      3.7268     25.7118    156.8685
   753.0000      8.0795      2.5682      0.0641      4.9579     26.2493    161.5252
   753.1000      8.0795      2.5505     -0.0016      6.0326     27.1622    157.2120
   753.2000      8.0795      2.5395      0.0267      6.6961     28.0256    149.8943
   753.3000      8.0794      2.5473     -0.0130      6.2226     28.0229    143.0475
   753.4000      8.0794      2.5797      0.0152      4.2605     27.1368    138.8159
   753.5000      8.0767      2.6171      0.0681      1.9931     26.1126    137.8881
   753.6000      8.0767      2.6330      0.0874      1.0309     25.5125    139.7436
   753.7000      8.0767      2.6288      0.0419      1.2819     25.1919    143.7011
   753.8000      8.0720      2.6165      0.0686      2.0304     25.1887    145.2836
   753.9000      8.0720      2.5988      0.0487      3.1060     25.6115    141.4936
   754.0000      8.0711      2.5854      0.0200      3.9148     25.8398    134.8042
   754.1000      8.0711      2.5859      0.0512      3.8829     25.3546    129.1526
   754.2000      8.0711      2.5930      0.0446      3.4569     24.3575    128.0037
   754.3000      8.0737      2.5900      0.0611      3.6371     23.4761    131.0146
   754.4000      8.0737      2.5738     -0.0103      4.6168     23.3619    134.3559
   754.5000      8.0762      2.5624      0.0154      5.3092     23.9141    133.1809
   754.6000      8.0762      2.5693      0.0077      4.8895     24.2667    125.2714
   754.7000      8.0762      2.5926      0.0289      3.4808     24.3322    117.2313
   754.8000      8.0781      2.6234      0.0750      1.6124     24.6670    117.3171
   754.9000      8.0781      2.6487      0.0634      0.0808     25.2187    122.1932
   755.0000      8.0781      2.6554      0.0599     -0.3303     25.4817    124.1557
   755.1000      8.0781      2.6430      0.0115      0.4223     25.3276    124.7677
   755.2000      8.0781      2.6261     -0.0024      1.4503     25.1824    127.3578
   755.3000      8.0753      2.6129      0.0414      2.2498     25.3608    128.9375
   755.4000      8.0753      2.5982      0.0299      3.1371     25.6025    127.2787
   755.5000      8.0732      2.5854     -0.0220      3.9175     25.5684    126.9708
   755.6000      8.0732      2.5834      0.0093      4.0382     25.2961    131.7391
   755.7000      8.0732      2.5907      0.0202      3.5958     25.0372    137.7134
   755.8000      8.0729      2.5982      0.0020      3.1388     25.1139    138.0254
   755.9000      8.0729      2.5998      0.0302      3.0444     25.2113    132.5305
