~Version Information
VERS.                      2.0: CWLS Log ASCII Standard - VERSION 2.0
WRAP.                       NO: One line per depth step
~Well Information Block
STRT.FT                 0.0000: 
STOP.FT              1906.7500: 
STEP.FT                 0.2500: 
NULL.                -999.2500: 
COMP.          Petrogulf Corporation: COMPANY
WELL.             Kraft 17-23R: WELL
FLD.           Purgatorie River: FIELD
LOC.           1509' FSL & 1673' FWL: LOCATION
STAT.                 Colorado: State
CNTY.               Las Animas: COUNTY
CTRY. USA : Country
SECT. 17 : Section
TOWN. 33S : Township
RANG. 67W : Range
SRVC.                Patterson: SERVICE COMPANY
DATE.          Fri Jan 06 08:59:54 2006: LOG DATE
API. 05-071-08560                         : UNIQUE WELL ID
~Curve Information Block
DEPT.FT            0 000 00 00: Depth
CCL.                          : Casing Collar Locator
TT3.usec                      : CBL 3' Travel Time
AMP3.mV                       : CBL 3' Amplitude
AMP3.mV                       : CBL 3' Amplitude
GR.GAPI                       : Gamma Ray
AMP3.mV                       : CBL 3' Amplitude
~Parameter Information Block
~A  Depth       CCL         TT3         AMP3        AMP3         GR        .AMP3    
     0.0000   -999.2500   1197.0000      0.0571      0.0571     34.9918      0.0571
     0.2500   -999.2500   1197.0000      0.1453      0.1453     38.9000      0.1453
     0.5000   -999.2500   1197.0000      0.2239      0.2239     44.8396      0.2239
     0.7500      0.0000   1197.0000      0.2808      0.2808     52.3331      0.2808
     1.0000      0.0000   1197.0000      0.3119      0.3119     60.5042      0.3119
     1.2500      0.0000   1197.0000      0.3197      0.3197     68.1493      0.3197
     1.5000      0.0000   1197.0000      0.3075      0.3075     74.0723      0.3075
     1.7500      0.0000   1197.0000      0.2763      0.2763     77.4648      0.2763
     2.0000      0.0000   1197.0000      0.2226      0.2226     78.0907      0.2226
     2.2500      0.0000   1197.0000      0.1385      0.1385     76.4977      0.1385
     2.5000      0.0000   1197.0000      0.0340      0.0340     74.2335      0.0340
     2.7500      0.0000   1197.0000     -0.0564     -0.0564     73.2769     -0.0564
     3.0000      0.0000   1197.0000     -0.1147     -0.1147     74.5898     -0.1147
     3.2500      0.0000   1197.0000     -0.1491     -0.1491     77.4181     -0.1491
     3.5000      0.0000   1197.0000     -0.1656     -0.1656     80.4684     -0.1656
     3.7500      0.0000   1197.0000     -0.1653     -0.1653     83.4221     -0.1653
     4.0000      0.0000   1197.0000     -0.1468     -0.1468     86.6889     -0.1468
     4.2500      0.0000   1197.0000     -0.0987     -0.0987     90.0752     -0.0987
     4.5000      0.0000   1197.0000     -0.0134     -0.0134     92.5274     -0.0134
     4.7500      0.0000   1197.0000      0.0905      0.0905     93.1544      0.0905
     5.0000      0.0000   1197.0000      0.1842      0.1842     91.9391      0.1842
     5.2500      0.0000   1197.0000      0.2524      0.2524     89.5156      0.2524
     5.5000      0.0000   1197.0000      0.2885      0.2885     86.6954      0.2885
     5.7500      0.0000   1197.0000      0.2927      0.2927     84.1385      0.2927
     6.0000      0.0000   1197.0000      0.2745      0.2745     82.1875      0.2745
     6.2500      0.0000   1197.0000      0.2394      0.2394     80.9535      0.2394
     6.5000      0.0000   1197.0000      0.1808      0.1808     80.4435      0.1808
     6.7500      0.0000   1197.0000      0.0950      0.0950     80.3682      0.0950
     7.0000      0.0000   1197.0000      0.0082      0.0082     80.0497      0.0082
     7.2500      0.0000   1197.0000     -0.0346     -0.0346     78.9796     -0.0346
     7.5000      0.0000   1197.0000     -0.0116     -0.0116     77.4085     -0.0116
     7.7500      0.0000   1197.0000      0.0638      0.0638     76.0616      0.0638
     8.0000      0.0000   1197.0000      0.1604      0.1604     75.3411      0.1604
     8.2500      0.0000   1197.0000      0.2445      0.2445     75.0358      0.2445
     8.5000      0.0000   1197.0000      0.2850      0.2850     74.6902      0.2850
     8.7500      0.0000   1197.0000      0.2634      0.2634     74.0396      0.2634
     9.0000      0.0000   1196.9165      0.2029      0.2029     73.1233      0.2029
     9.2500      0.0000   1195.9536      0.2388      0.2388     72.1007      0.2388
     9.5000      0.0000   1188.8394      0.9061      0.9061     70.9680      0.9061
     9.7500      0.0000   1155.1335      3.9183      3.9183     69.5797      3.9183
    10.0000      0.0000   1052.7443     12.5868     12.5868     68.0813     12.5868
    10.2500      0.0000    853.3157     29.0122     29.0122     67.0813     29.0122
    10.5000      0.0000    604.2563     49.2753     49.2753     67.0179     49.2753
    10.7500      0.0000    404.8209     65.4483     65.4483     67.3589     65.4483
    11.0000      0.0000    302.4268     73.8256     73.8256     66.8471     73.8256
    11.2500      0.0000    268.7283     76.7434     76.7434     64.8188     76.7434
    11.5000      0.0000    261.6317     77.6121     77.6121     62.1047     77.6121
    11.7500      0.0000    260.6856     78.0578     78.0578     60.3738     78.0578
    12.0000      0.0000    260.6094     78.3892     78.3892     60.5718     78.3892
    12.2500      0.0000    260.6058     78.5400     78.5400     62.0398     78.5400
    12.5000      0.0000    260.5968     78.5240     78.5240     63.1202     78.5240
    12.7500      0.0000    260.5939     78.4768     78.4768     62.5807     78.4768
    13.0000      0.0000    260.6035     78.5082     78.5082     60.4610     78.5082
    13.2500      0.0000    260.6219     78.6527     78.6527     57.6946     78.6527
    13.5000      0.0000    260.6410     78.9247     78.9247     55.1239     78.9247
    13.7500      0.0000    260.6537     79.2831     79.2831     52.8536     79.2831
    14.0000      0.0000    260.6589     79.6260     79.6260     50.3727     79.6260
    14.2500      0.0000    260.6571     79.8844     79.8844     47.2224     79.8844
    14.5000      0.0000    260.6400     80.0494     80.0494     43.5772     80.0494
    14.7500      0.0000    260.6047     80.1616     80.1616     40.2533     80.1616
    15.0000      0.0000    260.5695     80.3035     80.3035     38.2391     80.3035
    15.2500      0.0000    260.5541     80.5229     80.5229     38.0846     80.5229
    15.5000      0.0000    260.5582     80.7822     80.7822     39.4954     80.7822
    15.7500      0.0000    260.5696     81.0069     81.0069     41.4698     81.0069
    16.0000      0.0000    260.5771     81.1299     81.1299     42.9687     81.1299
    16.2500      0.0000    260.5761     81.1241     81.1241     43.5300     81.1241
    16.5000      0.0000    260.5679     81.0529     81.0529     43.3057     81.0529
    16.7500      0.0000    260.5543     81.0305     81.0305     42.6576     81.0305
    17.0000      0.0000    260.5411     81.0967     81.0967     41.8593     81.0967
    17.2500      0.0000    260.5369     81.1854     81.1854     41.1335     81.1854
    17.5000      0.0000    260.5428     81.2358     81.2358     40.7563     81.2358
    17.7500      0.0000    260.5481     81.2691     81.2691     41.0025     81.2691
    18.0000      0.0000    260.5356     81.3399     81.3399     42.0680     81.3399
    18.2500      0.0000    260.4944     81.4431     81.4431     43.9974     81.4431
    18.5000      0.0000    260.4380     81.5033     81.5033     46.4535     81.5033
    18.7500      0.0000    260.4018     81.4906     81.4906     48.6471     81.4906
    19.0000      0.0000    260.4044     81.4628     81.4628     49.8231     81.4628
    19.2500      0.0000    260.4302     81.4537     81.4537     49.7854     81.4537
    19.5000      0.0000    260.4646     81.4282     81.4282     48.8652     81.4282
    19.7500      0.0000    260.5092     81.3709     81.3709     47.6213     81.3709
    20.0000      0.0000    260.5523     81.3287     81.3287     46.6974     81.3287
    20.2500      0.0000    260.5695     81.3371     81.3371     46.6952     81.3371
    20.5000      0.0000    260.5556     81.3680     81.3680     47.9112     81.3680
    20.7500      0.0000    260.5316     81.3901     81.3901     50.0156     81.3901
    21.0000      0.0000    260.5212     81.4210     81.4210     52.0664     81.4210
    21.2500      0.0000    260.5256     81.4779     81.4779     53.1656     81.4779
    21.5000      0.0000    260.5287     81.5348     81.5348     53.1725     81.5348
    21.7500      0.0000    260.5180     81.5494     81.5494     52.5377     81.5494
    22.0000      0.0000    260.4963     81.5125     81.5125     51.5966     81.5125
    22.2500      0.0000    260.4798     81.5001     81.5001     50.4991     81.5001
    22.5000      0.0000    260.4832     81.6080     81.6080     49.7475     81.6080
    22.7500      0.0000    260.5049     81.7957     81.7957     50.1357     81.7957
    23.0000      0.0000    260.5331     81.9173     81.9173     51.8742     81.9173
    23.2500      0.0000    260.5562     81.9063     81.9063     54.1486     81.9063
    23.5000      0.0000    260.5673     81.8512     81.8512     55.7982     81.8512
    23.7500      0.0000    260.5704     81.8963     81.8963     56.2559     81.8963
