~Version Information
VERS.                      2.0: CWLS Log ASCII Standard - VERSION 2.0
WRAP.                       NO: One line per depth step
~Well Information Block
STRT.FT                -6.7500: 
STOP.FT              2027.0000: 
STEP.FT                 0.2500: 
NULL.                -999.2500: 
COMP.          Pioneer Natural Resources: COMPANY
WELL.             Fleming 11-2: WELL
FLD.           Purgatorie River: FIELD
LOC.           534' FNL & 160' FWL--: LOCATION
CNTY.               Las Animas: COUNTY
SRVC.          Patterson Wireline: SERVICE COMPANY
DATE.          Thu Jul 13 10:28:00 2006: LOG DATE
UWI.           05 071 08491 00: UNIQUE WELL ID
STAT.                       CO: STATE
~Curve Information Block
DEPT.FT            0 000 00 00: Depth
CCL.                          : Casing Collar Locator
TT3.usec                      : CBL 3' Travel Time
AMP3.mV                       : CBL 3' Amplitude
GR.GAPI                       : Gamma Ray
~Parameter Information Block
~A  Depth       CCL         TT3         AMP3         GR     
# ...
   261.2500      0.0000    674.2446      4.9296     84.8412
   261.5000      0.0000    666.8054      4.8957     84.6483
   261.7500      0.0000    660.1712      4.8352     87.0163
   262.0000      0.0000    655.6838      4.7598     90.7286
   262.2500      0.0000    653.6222      4.6885     93.4228
   262.5000      0.0000    653.5420      4.6370     93.7715
   262.7500      0.0000    654.8671      4.6083     91.9029
   263.0000      0.0000    656.9452      4.5925     88.1759
   263.2500      0.0000    658.7470      4.5748     82.7478
   263.5000      0.0000    659.0866      4.5461     76.3349
   263.7500      0.0000    657.5544      4.5085     70.3467
   264.0000      0.0000    655.0809      4.4729     65.8120
   264.2500      0.0000    653.4705      4.4515     62.5577
   264.5000      0.0000    654.8516      4.4538     59.7901
   264.7500      0.0000    662.0345      4.4857     57.2848
   265.0000      0.0000    678.7048      4.5484     55.7106
   265.2500      0.0000    707.3446      4.6361     55.8434
   265.5000      0.0000    745.3932      4.7383     57.6730
   265.7500      0.0000    783.6043      4.8445     60.2402
   266.0000      0.0000    809.5208      4.9455     62.2387
   266.2500      0.0000    813.9507      5.0338     62.9182
   266.5000      0.0000    796.1116      5.1074     62.5151
   266.7500      0.0000    764.5198      5.1729     61.7505
   267.0000      0.0000    732.3043      5.2384     60.9914
   267.2500      0.0000    709.2717      5.3003     60.0098
   267.5000      0.0000    697.2506      5.3403     58.3809
   267.7500      0.0000    692.1317      5.3401     55.8744
   268.0000      0.0000    688.7687      5.2992     52.5705
   268.2500      0.0000    683.9607      5.2349     48.8689
   268.5000      0.0000    676.9799      5.1666     45.4275
   268.7500      0.0000    669.0601      5.1028     42.9158
   269.0000      0.0000    662.2955      5.0422     41.6828
   269.2500      0.0000    658.3325      4.9829     41.6196
   269.5000      0.0000    657.7272      4.9284     42.3627
   269.7500      0.0000    660.1176      4.8865     43.5836
   270.0000      0.0000    664.6381      4.8637     44.9959
   270.2500      0.0000    670.2477      4.8608     46.2937
   270.5000      0.0000    675.9367      4.8730     47.3365
   270.7500      0.0000    680.6512      4.8921     48.2292
   271.0000      0.0000    683.1550      4.9071     48.9979
   271.2500      0.0000    682.5536      4.9074     49.3780
   271.5000      0.0000    679.3297      4.8904     49.2275
   271.7500      0.0000    675.5623      4.8648     49.0470
   272.0000      0.0000    673.6573      4.8455     49.7275
   272.2500      0.0000    674.8322      4.8424     51.7193
   272.5000      0.0000    678.8618      4.8530     54.7490
   272.7500      0.0000    685.0380      4.8639     58.3038
   273.0000      0.0000    693.1667      4.8597     61.9050
   273.2500      0.0000    703.8896      4.8293     64.8625
   273.5000      0.0000    717.7539      4.7681     66.3265
   273.7500      0.0000    732.9811      4.6797     65.9297
   274.0000      0.0000    744.0681      4.5793     64.3274
   274.2500      0.0000    744.4958      4.4904     63.2196
   274.5000      0.0000    732.7374      4.4318     64.8121
   274.7500      0.0000    714.9702      4.4051     70.6121
   275.0000      0.0000    700.5366      4.3956     80.0613
   275.2500      0.0000    695.1691      4.3849     90.4357
   275.5000      0.0000    698.5287      4.3615     98.5861
   275.7500      0.0000    706.1324      4.3248    102.9870
   276.0000      0.0000    712.4390      4.2824    104.2286
   276.2500      0.0000    713.4581      4.2424    103.8611
   276.5000      0.0000    708.1919      4.2072    102.9604
   276.7500      0.0000    698.3594      4.1753    101.6734
   277.0000      0.0000    687.2286      4.1497     99.9216
   277.2500      0.0000    678.9980      4.1377     98.1451
   277.5000      0.0000    678.6711      4.1407     96.9577
   277.7500      0.0000    691.1686      4.1478     96.3522
   278.0000      0.0000    718.6602      4.1436     95.8627
   278.2500      0.0000    756.5216      4.1209     95.3576
   278.5000      0.0000    791.7168      4.0828     95.1442
   278.7500      0.0000    808.5333      4.0350     95.4079
   279.0000      0.0000    799.6196      3.9814     95.9286
   279.2500      0.0000    771.9635      3.9283     96.3037
   279.5000      0.0000    741.2135      3.8871     96.1872
   279.7500      0.0000    720.6734      3.8713     95.4097
   280.0000      0.0000    715.2029      3.8908     94.1175
   280.2500      0.0000    721.7125      3.9445     92.6808
   280.5000      0.0000    732.0057      4.0169     91.3484
   280.7500      0.0000    736.9174      4.0861     90.2548
   281.0000      0.0000    731.9612      4.1378     89.7364
   281.2500      0.0000    720.0016      4.1712     90.0268
   281.5000      0.0000    707.5166      4.1922     90.5567
   281.7500      0.0000    698.8132      4.2030     90.2878
   282.0000      0.0000    694.2639      4.2014     88.9541
   282.2500      0.0000    692.2799      4.1872     87.3360
   282.5000      0.0000    691.3799      4.1696     86.3290
   282.7500      0.0000    690.8057      4.1647     86.5095
   283.0000      0.0000    690.2955      4.1827     88.4442
   283.2500      0.0000    689.6946      4.2191     92.3311
   283.5000      0.0000    688.5781      4.2569     97.1522
   283.7500      0.0000    686.1349      4.2747    100.9096
   284.0000      0.0000    681.5285      4.2556    101.8861
   284.2500      0.0000    674.6962      4.1982     99.4396
   284.5000      0.0000    666.8542      4.1236     93.9961
   284.7500      0.0000    660.0439      4.0728     87.0181
   285.0000      0.0000    656.1548      4.0901     80.7658
   285.2500      0.0000    656.4295      4.1968     77.1693
   285.5000      0.0000    661.4711      4.3618     76.5575
   285.7500      0.0000    670.9849      4.5055     77.6118
   286.0000      0.0000    683.4950      4.5600     78.6347
   286.2500      0.0000    697.1215      4.5284     78.8761
   286.5000      0.0000    710.9590      4.4677     78.7329
   286.7500      2.0000    725.4202      4.4239     78.9167
   287.0000     -2.0000    741.4317      4.3999     79.8919
   287.2500      0.0000    760.0008      4.3790     82.1487
   287.5000      0.0000    781.5784      4.3663     86.2062
   287.7500      0.0000    803.7208      4.4003     91.7842
   288.0000      0.0000    819.2787      4.5165     97.5028
   288.2500      0.0000    819.5898      4.6962    102.0219
   288.5000      0.0000    801.7944      4.8724    105.2436
   288.7500      0.0000    772.6738      4.9962    107.9759
   289.0000      0.0000    744.1548      5.0703    110.5117
   289.2500      0.0000    725.0658      5.1111    111.7972
   289.5000      0.0000    716.8229      5.1147    110.1046
   289.7500      0.0000    715.3542      5.0737    104.6424
   290.0000      0.0000    716.2596      4.9965     96.6019
   290.2500      0.0000    718.5859      4.9016     88.6404
   290.5000      0.0000    724.4812      4.8064     83.3107
   290.7500      0.0000    735.7748      4.7294     81.7919
   291.0000      0.0000    750.7330      4.6923     83.8286
   291.2500      0.0000    763.4940      4.7119     88.6782
   291.5000      0.0000    766.9956      4.7863     95.7266
   291.7500      0.0000    758.0814      4.8860    103.7431
   292.0000      0.0000    740.2565      4.9649    110.0013
   292.2500      0.0000    720.9039      4.9848    111.5033
   292.5000      0.0000    705.9166      4.9350    107.6844
   292.7500      0.0000    696.9928      4.8326    101.1896
   293.0000      0.0000    692.7231      4.7108     95.4369
   293.2500      0.0000    690.9460      4.6039     91.8108
   293.5000      0.0000    690.1838      4.5330     89.5801
   293.7500      0.0000    689.8304      4.4997     88.0839
   294.0000      0.0000    689.7474      4.4933     88.0032
   294.2500      0.0000    689.9133      4.5028     90.0043
   294.5000      0.0000    690.4788      4.5200     92.9010
