~Version Information
VERS.                      2.0: CWLS Log ASCII Standard - VERSION 2.0
WRAP.                       NO: One line per depth step
~Well Information Block
STRT.FT               440.0000: 
STOP.FT              1702.7000: 
STEP.FT                 0.1000: 
NULL.                -999.2500: 
COMP.          Pioneer Natural Resources: COMPANY
WELL.          Culver 14-12 Tr: WELL
FLD.           Purgatoire River: FIELD
LOC.           915' FSL & 1048' FWL--: LOCATION
STAT.                 Colorado: State
CNTY.               Las Animas: COUNTY
CTRY. USA : Country
SECT. 12 : Section
TOWN. 32S : Township
RANG. 66W : Range
SRVC.                Patterson: SERVICE COMPANY
DATE.          Wed Sep 28 10:00:59 2005: LOG DATE
API.           05 071 08520 00: UNIQUE WELL ID
~Curve Information Block
DEPT.FT            0 000 00 00: Depth
DCAL.in                       : CDL Caliper
RHOB.g/cc                     : CDL Bulk Density
RHOC.g/cc                     : CDL Density Correction
DPOR.pu                       : CDL Density Porosity
NPOR.pu                       : Neutron Porosity
GR.GAPI                       : Gamma Ray
~Parameter Information Block
~A  Depth       DCAL        RHOB        RHOC        DPOR        NPOR         GR     
# ...
   852.8000      8.1197      2.1018      0.0176     33.2222     18.4409    116.9738
   852.9000      8.1197      2.0210     -0.0355     38.1217     17.3117    116.6283
   853.0000      8.1174      1.9634     -0.0560     41.6098     16.4056    118.6028
   853.1000      8.1174      1.9439     -0.0397     42.7917     15.2795    119.1630
   853.2000      8.1174      1.9555      0.0172     42.0889     13.9541    116.4439
   853.3000      8.1107      1.9893      0.0057     40.0402     12.9670    112.0758
   853.4000      8.1107      2.0507      0.0906     36.3208     12.3171    109.3639
   853.5000      8.0978      2.1412      0.1449     30.8358     11.7363    110.6359
   853.6000      8.0978      2.2507      0.2067     24.1970     11.3252    114.9235
   853.7000      8.0978      2.3665      0.2310     17.1790     11.3414    118.5590
   853.8000      8.0794      2.4799      0.2468     10.3085     11.9173    121.1924
   853.9000      8.0794      2.5833      0.2466      4.0399     12.9687    123.9380
   854.0000      8.0647      2.6582      0.2707     -0.4992     14.2725    124.7845
   854.1000      8.0647      2.6774      0.2446     -1.6633     15.6920    122.3781
   854.2000      8.0647      2.6365      0.1698      0.8187     17.2076    116.2773
   854.3000      8.0426      2.5763      0.0762      4.4681     18.8278    107.3190
   854.4000      8.0426      2.5499      0.0633      6.0646     20.6148     99.6427
   854.5000      8.0042      2.5653      0.1179      5.1341     22.3705     97.2555
   854.6000      8.0042      2.5872      0.1380      3.8083     23.7759     99.4819
   854.7000      8.0042      2.5894      0.0888      3.6737     24.9087    101.0824
   854.8000      7.9550      2.5811      0.0316      4.1752     25.8965    100.5716
   854.9000      7.9550      2.5762      0.0467      4.4714     26.6511    102.1645
   855.0000      7.9066      2.5671      0.0203      5.0253     27.4544    106.5570
   855.1000      7.9066      2.5521     -0.0424      5.9349     28.4654    111.2824
   855.2000      7.9066      2.5395     -0.0010      6.6949     28.9368    112.5014
   855.3000      7.8876      2.5276     -0.0288      7.4204     28.3166    110.2214
   855.4000      7.8876      2.5042      0.0459      8.8384     27.3914    110.1300
   855.5000      7.8906      2.4596      0.0158     11.5371     27.1878    113.0980
   855.6000      7.8906      2.4071     -0.0109     14.7186     27.2583    115.1272
   855.7000      7.8906      2.3659     -0.0160     17.2196     26.6862    114.8065
   855.8000      7.9059      2.3393     -0.0247     18.8275     25.7741    112.6015
   855.9000      7.9059      2.3224     -0.0318     19.8569     25.0951    109.6122
   856.0000      7.9274      2.3050     -0.0117     20.9076     24.4194    109.3138
   856.1000      7.9274      2.2819     -0.0001     22.3081     23.3159    111.8417
   856.2000      7.9274      2.2590     -0.0307     23.6959     21.8424    115.5376
   856.3000      7.9408      2.2430      0.0437     24.6671     20.3110    121.8571
   856.4000      7.9408      2.2405      0.0286     24.8172     19.0284    129.8429
   856.5000      7.9470      2.2620      0.1017     23.5153     18.1821    137.7973
   856.6000      7.9470      2.3028      0.1494     21.0397     17.7781    144.4211
   856.7000      7.9470      2.3430      0.1458     18.6054     17.9767    144.0430
   856.8000      7.9518      2.3662      0.1431     17.1981     18.7351    136.2454
   856.9000      7.9518      2.3712      0.1409     16.8948     19.3367    131.2646
   857.0000      7.9601      2.3663      0.1412     17.1966     19.3062    133.0198
   857.1000      7.9601      2.3507      0.1624     18.1415     18.8743    132.6444
   857.2000      7.9601      2.3108      0.1522     20.5585     18.1754    126.6633
   857.3000      7.9819      2.2359      0.0980     25.0973     17.0072    122.1220
   857.4000      7.9819      2.1351      0.0227     31.2090     15.3855    121.5519
   857.5000      8.0137      2.0197      0.0529     38.1994     13.6681    120.0881
   857.6000      8.0137      1.8822      0.0099     46.5311     11.9726    112.7894
   857.7000      8.0137      1.7260     -0.0590     56.0020     10.3893    101.8437
   857.8000      8.0628      1.5939     -0.1122     64.0078      9.2895     95.7271
   857.9000      8.0628      1.5380     -0.0567     67.3933      8.8122     96.8641
   858.0000      8.1674      1.5626      0.0775     65.9036      8.6870     98.2969
   858.1000      8.1674      1.6365      0.1088     61.4262      8.5722     95.1074
   858.2000      8.1674      1.7431      0.2244     54.9629      8.4053     94.7835
   858.3000      8.2892      1.8720      0.2973     47.1543      8.3440    102.1545
   858.4000      8.2892      2.0044      0.3396     39.1278      8.7067    109.4997
   858.5000      8.3250      2.1282      0.3619     31.6223      9.8073    111.9938
   858.6000      8.3250      2.2411      0.3839     24.7844     11.5732    112.8519
   858.7000      8.3250      2.3388      0.3722     18.8597     13.5865    113.8712
   858.8000      8.2340      2.4040      0.3622     14.9077     15.4598    115.8522
   858.9000      8.2340      2.4054      0.3252     14.8242     17.0414    121.8288
   859.0000      8.0836      2.3364      0.1194     19.0038     18.3247    129.0567
   859.1000      8.0836      2.2443      0.0087     24.5850     19.1925    131.5876
   859.2000      8.0836      2.1829     -0.0534     28.3085     19.5973    130.1766
   859.3000      7.9966      2.1625     -0.0643     29.5457     19.8126    127.9307
   859.4000      7.9966      2.1650     -0.0129     29.3910     20.0645    127.6004
   859.5000      7.9932      2.1789      0.0074     28.5486     20.6645    132.3624
   859.6000      7.9932      2.1989      0.0659     27.3395     21.7636    141.0024
   859.7000      7.9932      2.2228      0.1233     25.8892     22.7787    146.8476
   859.8000      8.0291      2.2687      0.2003     23.1092     23.2032    144.5952
   859.9000      8.0291      2.3514      0.3314     18.0955     23.2186    137.2919
   860.0000      8.0816      2.4413      0.4573     12.6464     23.2814    131.4972
   860.1000      8.0816      2.4932      0.3538      9.5043     23.6684    130.6740
   860.2000      8.0816      2.5027      0.2703      8.9256     24.5216    134.6525
   860.3000      8.1043      2.4893      0.2416      9.7376     25.3716    141.2122
   860.4000      8.1043      2.4674      0.2563     11.0655     25.6589    148.3976
   860.5000      8.0931      2.4635      0.2014     11.3004     25.8649    154.6177
   860.6000      8.0931      2.5093      0.2793      8.5243     26.4798    157.9454
   860.7000      8.0931      2.5930      0.3944      3.4524     27.2760    155.4355
   860.8000      8.1354      2.6621      0.4405     -0.7335     27.9927    149.1998
   860.9000      8.1354      2.6806      0.3746     -1.8551     28.3969    148.0519
   861.0000      8.2419      2.6559      0.3134     -0.3558     28.2809    152.4233
   861.1000      8.2419      2.6226      0.2428      1.6597     27.6782    155.2610
   861.2000      8.2419      2.6048      0.2589      2.7371     26.8300    156.2889
   861.3000      8.2680      2.5798      0.2678      4.2545     26.0084    159.5081
   861.4000      8.2680      2.5146      0.1211      8.2085     25.3551    162.3309
   861.5000      8.1596      2.4227      0.0966     13.7735     25.0693    161.9866
   861.6000      8.1596      2.3391      0.0106     18.8417     25.5261    158.9935
   861.7000      8.1596      2.2835     -0.0225     22.2149     26.3843    150.8438
   861.8000      8.0593      2.2577     -0.0308     23.7773     26.6669    141.2696
   861.9000      8.0593      2.2496      0.0228     24.2668     26.1615    140.1474
   862.0000      8.0134      2.2449      0.0162     24.5524     25.2822    144.0269
   862.1000      8.0134      2.2469      0.0413     24.4305     24.4319    141.8413
   862.2000      8.0134      2.2696      0.0808     23.0544     23.5806    133.5307
   862.3000      7.9665      2.3076      0.1532     20.7531     22.3941    123.5406
