~Version Information
VERS.                      2.0: CWLS Log ASCII Standard - VERSION 2.0
WRAP.                       NO: One line per depth step
~Well Information Block
STRT.FT               585.0000: 
STOP.FT              2277.5000: 
STEP.FT                 0.1000: 
NULL.                -999.2500: 
COMP.          Pioneer Natural Resources: COMPANY
WELL.          Interceptor 43-13 Tr: WELL
FLD.           Purgatoire River: FIELD
LOC.           2006' FSL & 438' FEL: LOCATION
PROV.                 Colorado: PROVINCE
CNTY.               Las Animas: COUNTRY
SRVC.                Patterson: SERVICE COMPANY
DATE.          Mon Oct 17 07:15:06 2005: LOG DATE
UWI.           05 071 08549 00: UNIQUE WELL ID
~Curve Information Block
DEPT.FT            0 000 00 00: Depth
DCAL.in                       : CDL Caliper
RHOB.g/cc                     : CDL Bulk Density
RHOC.g/cc                     : CDL Density Correction
DPOR.pu                       : CDL Density Porosity
GR.GAPI                       : Gamma Ray
NPOR.pu                       : Neutron Porosity
~Parameter Information Block
~A  Depth       DCAL        RHOB        RHOC        DPOR         GR         NPOR    
# ...
  2149.8000      7.9191      2.5534      0.0276      5.8553    128.4520     23.9354
  2149.9000      7.9191      2.5351      0.0253      6.9665    125.7494     24.3387
  2150.0000      7.9308      2.5245      0.0489      7.6082    127.0501     25.1678
  2150.1000      7.9308      2.5204      0.0431      7.8561    130.1329     25.8486
  2150.2000      7.9308      2.5239      0.0376      7.6397    136.8464     25.6613
  2150.3000      7.9737      2.5374      0.0452      6.8214    148.7856     24.8942
  2150.4000      7.9737      2.5526      0.0884      5.9010    159.0117     24.8560
  2150.5000      7.9804      2.5592      0.0285      5.5022    159.4764     25.7550
  2150.6000      7.9804      2.5647      0.0749      5.1685    154.5452     26.3675
  2150.7000      7.9804      2.5796      0.1019      4.2697    154.0675     25.9950
  2150.8000      7.9790      2.6015      0.0792      2.9365    156.4396     25.2783
  2150.9000      7.9790      2.6189      0.0994      1.8851    156.5399     24.8491
  2151.0000      7.9830      2.6166      0.0951      2.0241    153.5375     24.5737
  2151.1000      7.9830      2.5908      0.0773      3.5849    148.2210     24.2449
  2151.2000      7.9830      2.5616      0.0262      5.3555    144.5360     24.0917
  2151.3000      7.9772      2.5519      0.0421      5.9457    143.1995     24.1110
  2151.4000      7.9772      2.5557      0.0537      5.7169    140.7046     24.2256
  2151.5000      7.9673      2.5563      0.0612      5.6768    141.0205     24.3661
  2151.6000      7.9673      2.5548      0.0523      5.7680    148.5594     24.4901
  2151.7000      7.9673      2.5584      0.0853      5.5530    156.9527     24.8074
  2151.8000      7.9517      2.5710      0.0421      4.7898    157.9397     25.5082
  2151.9000      7.9517      2.5906      0.0890      3.6016    150.8922     26.2161
  2152.0000      7.9372      2.6080      0.0641      2.5452    139.6988     26.1752
  2152.1000      7.9372      2.6182      0.0975      1.9260    130.6759     25.4373
  2152.2000      7.9372      2.6149      0.0954      2.1299    128.6757     24.7778
  2152.3000      7.9348      2.5968      0.0828      3.2258    132.5156     24.4300
  2152.4000      7.9348      2.5733      0.0679      4.6515    136.3294     24.1774
  2152.5000      7.9251      2.5460      0.0575      6.3049    137.6947     24.2014
  2152.6000      7.9251      2.5139      0.0516      8.2509    138.3828     24.8438
  2152.7000      7.9251      2.4895     -0.0151      9.7278    139.9463     25.9078
  2152.8000      7.9117      2.4928     -0.0217      9.5260    141.1489     26.8322
  2152.9000      7.9117      2.5234     -0.0089      7.6756    142.8923     27.2168
  2153.0000      7.9284      2.5488      0.0885      6.1334    150.0346     27.0665
  2153.1000      7.9284      2.5405      0.0257      6.6375    157.0361     26.8394
  2153.2000      7.9284      2.5056      0.0528      8.7523    151.6705     27.0687
  2153.3000      7.9397      2.4766      0.0343     10.5112    136.8179     27.5329
  2153.4000      7.9397      2.4857      0.0483      9.9579    127.3920     27.4793
  2153.5000      7.9347      2.5261      0.1133      7.5089    128.3006     26.7449
  2153.6000      7.9347      2.5669      0.0902      5.0376    133.3340     25.9863
  2153.7000      7.9347      2.6023      0.1477      2.8917    137.0343     26.1259
  2153.8000      7.9023      2.6378      0.1814      0.7369    142.2476     27.3102
  2153.9000      7.9023      2.6708      0.1313     -1.2592    154.0340     28.6513
  2154.0000      7.9107      2.6961      0.1422     -2.7945    166.7625     29.3227
  2154.1000      7.9107      2.7027      0.1439     -3.1952    169.5962     29.0826
  2154.2000      7.9107      2.6872      0.1339     -2.2576    164.8398     28.2177
  2154.3000      7.9659      2.6585      0.1353     -0.5138    162.4191     27.6802
  2154.4000      7.9659      2.6158      0.0793      2.0707    160.9387     27.9788
  2154.5000      7.8798      2.5591      0.0086      5.5100    158.2767     28.2059
  2154.6000      7.8798      2.5091     -0.0530      8.5402    157.7847     27.4635
  2154.7000      7.8798      2.4955     -0.0669      9.3653    158.0905     26.3958
  2154.8000      7.8668      2.5211     -0.0330      7.8146    157.9697     25.9067
  2154.9000      7.8668      2.5475      0.0456      6.2115    159.0797     25.8482
  2155.0000      7.8698      2.5410      0.0209      6.6069    158.0440     25.6977
  2155.1000      7.8698      2.5198      0.0125      7.8921    152.3820     25.3154
  2155.2000      7.8698      2.5223      0.0119      7.7375    148.3328     24.9854
  2155.3000      7.9085      2.5518      0.1093      5.9521    150.1663     24.7006
  2155.4000      7.9085      2.5799      0.1020      4.2480    153.5598     24.2651
  2155.5000      7.9541      2.5966      0.0374      3.2352    152.4745     24.2375
  2155.6000      7.9541      2.6194      0.0599      1.8558    148.2550     24.7662
  2155.7000      7.9541      2.6515      0.1308     -0.0934    145.0886     25.3591
  2155.8000      7.9203      2.6728      0.1379     -1.3841    143.0082     25.7912
  2155.9000      7.9203      2.6697      0.1167     -1.1926    141.0896     25.5374
  2156.0000      7.8763      2.6480      0.1176      0.1203    136.7019     24.5815
  2156.1000      7.8763      2.6266      0.1034      1.4155    128.8532     23.6762
  2156.2000      7.8763      2.6181      0.1221      1.9352    122.7519     23.1763
  2156.3000      7.8331      2.6160      0.1088      2.0600    122.9370     23.1885
  2156.4000      7.8331      2.6074      0.0704      2.5843    128.4856     23.5003
  2156.5000      7.8273      2.5839      0.0493      4.0061    134.9903     23.3156
  2156.6000      7.8273      2.5505      0.0565      6.0296    138.8079     22.9322
  2156.7000      7.8273      2.5281      0.0052      7.3868    140.9990     24.1371
  2156.8000      7.8560      2.5299      0.0626      7.2804    140.8768     26.6584
  2156.9000      7.8560      2.5431      0.0748      6.4773    139.9212     27.6124
  2157.0000      7.9081      2.5570      0.0318      5.6387    141.5087     26.4466
  2157.1000      7.9081      2.5709      0.0756      4.7937    140.4217     25.3881
  2157.2000      7.9081      2.5720      0.0885      4.7278    134.5497     24.8228
  2157.3000      7.9081      2.5543      0.0662      5.8019    131.5222     23.8576
  2157.4000      7.9081      2.5422      0.0413      6.5356    133.0771     22.8771
  2157.5000      7.8908      2.5570      0.0643      5.6366    134.2881     22.7666
  2157.6000      7.8908      2.5834      0.0731      4.0350    134.8769     23.3350
  2157.7000      7.8908      2.5910      0.1096      3.5733    139.3098     23.9180
  2157.8000      7.8812      2.5714      0.0819      4.7656    146.9717     24.2844
  2157.9000      7.8812      2.5416      0.0588      6.5675    150.9642     24.3349
  2158.0000      7.8846      2.5242      0.0299      7.6227    149.9615     24.4796
  2158.1000      7.8846      2.5305      0.0280      7.2454    145.4570     25.1957
  2158.2000      7.8846      2.5466      0.0630      6.2678    140.9718     26.2024
  2158.3000      7.9015      2.5529      0.0512      5.8836    144.0811     26.4611
  2158.4000      7.9015      2.5556      0.0334      5.7213    149.9551     25.9559
  2158.5000      7.9103      2.5631      0.1146      5.2694    147.2366     26.3817
  2158.6000      7.9103      2.5648      0.0732      5.1621    139.3904     27.8571
  2158.7000      7.9103      2.5616      0.0295      5.3605    135.4000     28.4257
  2158.8000      7.9369      2.5659      0.0536      5.0941    134.7468     27.6842
  2158.9000      7.9369      2.5767      0.0858      4.4452    136.6593     26.9710
  2159.0000      7.9429      2.5807      0.1047      4.2020    144.2652     26.6687
  2159.1000      7.9429      2.5726      0.0841      4.6887    153.0822     26.4857
  2159.2000      7.9429      2.5602      0.0510      5.4429    154.4855     26.5489
  2159.3000      7.9151      2.5455      0.0189      6.3319    148.4529     26.7336
