~Version Information
VERS.                      2.0: CWLS Log ASCII Standard - VERSION 2.0
WRAP.                       NO: One line per depth step
~Well Information Block
STRT.FT                 0.0000: 
STOP.FT              2792.7500: 
STEP.FT                 0.2500: 
NULL.                -999.2500: 
COMP.          Pioneer Natural Resources: COMPANY
WELL.          Black Cat 13-32: WELL
FLD.           Purgatorie River: FIELD
LOC.           1865' FSL & 1120' FWL: LOCATION
PROV.                 Colorado: PROVINCE
CNTY.               Las Animas: COUNTRY
SRVC.                Patterson: SERVICE COMPANY
DATE.          Fri Aug 19 09:19:21 2005: LOG DATE
UWI.                          : UNIQUE WELL ID
~Curve Information Block
DEPT.FT            0 000 00 00: Depth
CCL.                          : Casing Collar Locator
TT3.usec                      : CBL 3' Travel Time
AMP3.mV                       : CBL 3' Amplitude
GR.GAPI                       : Gamma Ray
~Parameter Information Block
~A  Depth       CCL         TT3         AMP3         GR     
# ...
  2378.5000      0.0000    548.7789      4.6283    109.1428
  2378.7500      0.0000    519.6971      4.7243    105.2071
  2379.0000      0.0000    527.0609      4.8066    104.4690
  2379.2500      0.0000    569.2983      4.8963    106.5933
  2379.5000      0.0000    614.8802      4.9857    110.0514
  2379.7500      0.0000    640.0174      5.0638    113.4676
  2380.0000      0.0000    649.8633      5.1348    116.5899
  2380.2500      0.0000    660.9222      5.1943    120.1098
  2380.5000      0.0000    672.8119      5.2304    124.7149
  2380.7500      0.0000    670.7546      5.2384    130.4478
  2381.0000      0.0000    654.7878      5.2119    136.6780
  2381.2500      0.0000    645.4811      5.1525    142.2122
  2381.5000      0.0000    657.5497      5.0956    145.4398
  2381.7500      0.0000    682.5598      5.0845    144.8132
  2382.0000      0.0000    701.3841      5.1150    139.6915
  2382.2500      0.0000    705.5897      5.1438    131.0388
  2382.5000      0.0000    701.5056      5.1433    121.1255
  2382.7500      0.0000    700.4091      5.1096    112.1202
  2383.0000      0.0000    707.5752      5.0414    104.9248
  2383.2500      0.0000    718.0677      4.9476     99.5413
  2383.5000      0.0000    724.8991      4.8518     96.2050
  2383.7500      0.0000    726.3174      4.7721     95.6091
  2384.0000      0.0000    723.2472      4.7048     98.1415
  2384.2500      0.0000    717.1568      4.6260    103.5050
  2384.5000      0.0000    711.8741      4.5359    111.1443
  2384.7500      0.0000    711.2015      4.4982    120.4289
  2385.0000      0.0000    712.6438      4.5740    129.9619
  2385.2500      0.0000    709.1971      4.7219    137.1385
  2385.5000      0.0000    698.9689      4.8362    139.2228
  2385.7500      0.0000    687.1246      4.8664    135.4127
  2386.0000      0.0000    677.8754      4.8445    127.9108
  2386.2500      0.0000    671.6111      4.8160    120.6574
  2386.5000      0.0000    669.2360      4.7953    116.6708
  2386.7500      0.0000    671.6992      4.7790    116.4495
  2387.0000      0.0000    677.0756      4.7518    118.4916
  2387.2500      0.0000    683.0707      4.6874    120.7819
  2387.5000      0.0000    689.0908      4.5881    121.9224
  2387.7500      0.0000    694.6484      4.5044    121.6948
  2388.0000      0.0000    700.1547      4.4736    120.9578
  2388.2500      0.0000    707.2920      4.4766    120.9068
  2388.5000      0.0000    715.3054      4.4863    122.2956
  2388.7500      0.0000    720.0543      4.4992    125.1333
  2389.0000      0.0000    718.3748      4.5095    128.7026
  2389.2500      0.0000    712.3627      4.5091    131.7194
  2389.5000      0.0000    708.9860      4.5074    132.9205
  2389.7500      0.0000    712.6159      4.5168    132.0360
  2390.0000      0.0000    719.5195      4.5341    129.8826
  2390.2500      0.0000    723.5449      4.5512    127.0294
  2390.5000      0.0000    722.1187      4.5643    122.9382
  2390.7500      0.0000    715.7063      4.5643    117.1638
  2391.0000      0.0000    707.1324      4.5367    110.8911
  2391.2500      0.0000    700.2507      4.4805    106.2260
  2391.5000      0.0000    696.2533      4.4045    103.9771
  2391.7500      0.0000    693.0981      4.3002    102.9211
  2392.0000      0.0000    689.5702      4.1563    101.3115
  2392.2500      0.0000    687.8204      4.0026     98.5740
  2392.5000      0.0000    689.6041      3.8825     95.4686
  2392.7500      0.0000    692.3514      3.8031     93.1553
  2393.0000      0.0000    692.3411      3.7694     92.3464
  2393.2500      0.0000    689.6654      3.8203     92.8962
  2393.5000      0.0000    688.1865      3.9888     93.8459
  2393.7500      0.0000    690.3830      4.2582     93.9836
  2394.0000      0.0000    693.6554      4.5589     92.5422
  2394.2500      0.0000    694.0142      4.8129     89.6190
  2394.5000      0.0000    691.4730      4.9834     86.3147
  2394.7500      0.0000    689.7803      5.0601     84.4451
  2395.0000      0.0000    690.6286      5.0360     85.7323
  2395.2500      0.0000    690.2158      4.9362     90.8438
  2395.5000      0.0000    684.3177      4.8151     98.8174
  2395.7500      0.0000    673.7700      4.7168    107.2181
  2396.0000      0.0000    662.1742      4.6656    113.3256
  2396.2500      0.0000    652.0620      4.6714    116.0145
  2396.5000      0.0000    645.3835      4.7289    116.6652
  2396.7500      0.0000    642.8955      4.8155    117.7140
  2397.0000      0.0000    642.9653      4.8888    120.0424
  2397.2500      0.0000    643.7334      4.9184    122.2309
  2397.5000      0.0000    643.6045      4.9097    122.6558
  2397.7500      0.0000    641.5023      4.8766    121.5279
  2398.0000      0.0000    638.9593      4.8272    120.0346
  2398.2500      0.0000    639.3083      4.7728    118.2375
  2398.5000      0.0000    645.5051      4.7255    115.2296
  2398.7500      0.0000    657.4284      4.6864    111.1218
  2399.0000      0.0000    668.5339      4.6432    107.4218
  2399.2500      0.0000    671.4998      4.5842    105.0778
  2399.5000      0.0000    670.5328      4.5122    103.0689
  2399.7500      0.0000    677.0706      4.4433     99.3693
  2400.0000      0.0000    690.7417      4.3957     93.0156
  2400.2500      0.0000    698.1989      4.3775     85.1189
  2400.5000      0.0000    691.9866      4.3856     77.9726
  2400.7500      0.0000    678.4461      4.4185     73.2255
  2401.0000      0.0000    667.2170      4.4664     70.9363
  2401.2500      0.0000    661.6240      4.5019     70.1914
  2401.5000      0.0000    659.8334      4.5143     70.1110
  2401.7500      0.0000    659.9228      4.5232     70.1588
  2402.0000      0.0000    662.3681      4.5407     70.0502
  2402.2500      0.0000    669.9603      4.5613     69.8112
  2402.5000      0.0000    684.6722      4.5793     69.8053
  2402.7500      0.0000    702.9921      4.5850     70.4481
  2403.0000      0.0000    717.6560      4.5738     71.8424
  2403.2500      0.0000    725.1716      4.5608     73.7828
  2403.5000      0.0000    727.5676      4.5591     76.0805
  2403.7500      0.0000    727.9510      4.5654     78.6760
  2404.0000      0.0000    727.8730      4.5749     81.3742
  2404.2500      0.0000    727.4068      4.5872     83.6003
  2404.5000      0.0000    725.1277      4.6068     84.5441
  2404.7500      0.0000    718.0073      4.6441     83.6698
  2405.0000      0.0000    704.0228      4.6941     81.2343
  2405.2500      0.0000    686.5750      4.7275     78.2581
  2405.5000      0.0000    673.0192      4.7207     75.7892
  2405.7500      0.0000    668.1133      4.6783     74.2459
  2406.0000      0.0000    672.8417      4.6379     73.4910
  2406.2500      0.0000    686.0788      4.6489     73.2042
  2406.5000      0.0000    702.0299      4.7091     73.0665
  2406.7500      0.0000    711.6304      4.7459     72.9497
  2407.0000      0.0000    712.2596      4.7045     73.1070
  2407.2500      0.0000    711.2651      4.6205     74.0540
  2407.5000      0.0000    715.4044      4.5690     76.1903
  2407.7500      0.0000    722.5391      4.5745     79.4144
  2408.0000      0.0000    727.6756      4.5913     82.8982
  2408.2500      0.0000    729.8288      4.5663     85.3401
  2408.5000      0.0000    730.4711      4.5086     85.9184
  2408.7500      0.0000    730.6405      4.4670     85.0683
  2409.0000      0.0000    730.5138      4.4615     83.9769
  2409.2500      0.0000    729.6315      4.4834     83.2827
  2409.5000      0.0000    727.2848      4.5240     82.5579
  2409.7500      0.0000    724.0205      4.5749     81.0434
  2410.0000      0.0000    722.4925      4.6240     78.5851
  2410.2500      0.0000    724.3975      4.6626     75.8208
  2410.5000      0.0000    727.8119      4.6837     73.6145
  2410.7500      0.0000    730.1152      4.6776     72.3453
  2411.0000      0.0000    730.8680      4.6439     71.8380
  2411.2500      0.0000    730.3821      4.6025     72.1815
  2411.5000      0.0000    727.3875      4.5731     74.2206
  2411.7500      0.0000    718.9710      4.5569     78.4522
