~Version Information
VERS.                      2.0: CWLS Log ASCII Standard - VERSION 2.0
WRAP.                       NO: One line per depth step
~Well Information Block
STRT.FT               340.0000: 
STOP.FT              2342.7500: 
STEP.FT                 0.2500: 
NULL.                -999.2500: 
COMP.          Pioneer Natural Resources: COMPANY
WELL.          Pinkerton 41-12: WELL
FLD.           Purgatoire River: FIELD
LOC.           1222' FNL & 670' FEL--: LOCATION
CNTY.               Las Animas: COUNTY
SRVC.                Patterson: SERVICE COMPANY
DATE.          Wed Mar 15 10:37:39 2006: LOG DATE
UWI.           05 071 08500 00: UNIQUE WELL ID
STAT.                 Colorado: STATE
~Curve Information Block
DEPT.FT            0 000 00 00: Depth
SN.Ohm-m                      : IEL Short Normal
SP.mV                         : IEL Spontaneous Potential
DIR.Ohm-m                     : IEL Induction Resistivity
GR.GAPI                       : Gamma Ray
~Parameter Information Block
~A  Depth        SN          SP         DIR          GR     
# ...
   876.0000   2000.0000   -999.2500     11.8220    136.7240
   876.2500   2000.0000   -999.2500     11.8545    139.1667
   876.5000   2000.0000   -999.2500     11.8631    142.8072
   876.7500   2000.0000   -999.2500     11.8277    144.1376
   877.0000   2000.0000   -999.2500     11.7357    144.2113
   877.2500   2000.0000   -999.2500     11.5884    143.5057
   877.5000   2000.0000   -999.2500     11.4019    142.3311
   877.7500   2000.0000   -999.2500     11.2006    141.8067
   878.0000   2000.0000   -999.2500     11.0078    141.6149
   878.2500   2000.0000   -999.2500     10.8400    141.9763
   878.5000   2000.0000   -999.2500     10.7059    143.5102
   878.7500   2000.0000   -999.2500     10.6085    145.2938
   879.0000   2000.0000   -999.2500     10.5458    148.7758
   879.2500   2000.0000   -999.2500     10.5090    151.0273
   879.5000   2000.0000   -999.2500     10.4823    152.9083
   879.7500   2000.0000   -999.2500     10.4454    152.6214
   880.0000   2000.0000   -999.2500     10.3829    150.1891
   880.2500   2000.0000   -999.2500     10.2931    148.1007
   880.5000   2000.0000   -999.2500     10.1922    145.9491
   880.7500   2000.0000   -999.2500     10.1076    145.7128
   881.0000   2000.0000   -999.2500     10.0673    147.0074
   881.2500   2000.0000   -999.2500     10.0906    148.3567
   881.5000   2000.0000   -999.2500     10.1856    149.6427
   881.7500   2000.0000   -999.2500     10.3527    149.3533
   882.0000   2000.0000   -999.2500     10.5917    146.9712
   882.2500   2000.0000   -999.2500     10.9073    144.2822
   882.5000   2000.0000   -999.2500     11.3097    138.7549
   882.7500   2000.0000   -999.2500     11.8129    133.9689
   883.0000   2000.0000   -999.2500     12.4329    125.1244
   883.2500   2000.0000   -999.2500     13.1901    118.4299
   883.5000   2000.0000   -999.2500     14.1117    108.1622
   883.7500   2000.0000   -999.2500     15.2272    101.7518
   884.0000   2000.0000   -999.2500     16.5549     93.5029
   884.2500   2000.0000   -999.2500     18.0830     89.1887
   884.5000   2000.0000   -999.2500     19.7560     84.8523
   884.7500   2000.0000   -999.2500     21.4727     83.4108
   885.0000   2000.0000   -999.2500     23.1003     82.8888
   885.2500   2000.0000   -999.2500     24.5017     83.2128
   885.5000   2000.0000   -999.2500     25.5729     84.6178
   885.7500   2000.0000   -999.2500     26.2738     86.4344
   886.0000   2000.0000   -999.2500     26.6328     90.3684
   886.2500   2000.0000   -999.2500     26.7202     93.1199
   886.5000   2000.0000   -999.2500     26.6091     96.0861
   886.7500   2000.0000   -999.2500     26.3513     96.9622
   887.0000   2000.0000   -999.2500     25.9824     97.0613
   887.2500   2000.0000   -999.2500     25.5444     96.9963
   887.5000   2000.0000   -999.2500     25.1010     98.0907
   887.7500   2000.0000   -999.2500     24.7280     99.9919
   888.0000   2000.0000   -999.2500     24.4881    103.5242
   888.2500   2000.0000   -999.2500     24.4086    104.9658
   888.5000   2000.0000   -999.2500     24.4751    104.2236
   888.7500   2000.0000   -999.2500     24.6415    102.1744
   889.0000   2000.0000   -999.2500     24.8558     98.6944
   889.2500   2000.0000   -999.2500     25.0873     96.8366
   889.5000   2000.0000   -999.2500     25.3393     94.6617
   889.7500   2000.0000   -999.2500     25.6356     93.3278
   890.0000   2000.0000   -999.2500     25.9910     91.4979
   890.2500   2000.0000   -999.2500     26.3857     90.6459
   890.5000   2000.0000   -999.2500     26.7558     90.3252
   890.7500   2000.0000   -999.2500     26.9999     90.7699
   891.0000   2000.0000   -999.2500     27.0016     91.9580
   891.2500   2000.0000   -999.2500     26.6657     92.7394
   891.5000   2000.0000   -999.2500     25.9604     93.9653
   891.7500   2000.0000   -999.2500     24.9395     95.4562
   892.0000   2000.0000   -999.2500     23.7222     99.9707
   892.2500   2000.0000   -999.2500     22.4439    104.6281
   892.5000   2000.0000   -999.2500     21.2101    112.9545
   892.7500   2000.0000   -999.2500     20.0796    118.4535
   893.0000   2000.0000   -999.2500     19.0708    125.4822
   893.2500   2000.0000   -999.2500     18.1764    129.0064
   893.5000   2000.0000   -999.2500     17.3777    132.1019
   893.7500   2000.0000   -999.2500     16.6551    132.5892
   894.0000   2000.0000   -999.2500     15.9946    131.5681
   894.2500   2000.0000   -999.2500     15.3889    130.5535
   894.5000   2000.0000   -999.2500     14.8345    129.8578
   894.7500   2000.0000   -999.2500     14.3287    130.1969
   895.0000   2000.0000   -999.2500     13.8712    131.6370
   895.2500   2000.0000   -999.2500     13.4659    133.0389
   895.5000   2000.0000   -999.2500     13.1202    135.6222
   895.7500   2000.0000   -999.2500     12.8408    137.4109
   896.0000   2000.0000   -999.2500     12.6297    139.4950
   896.2500   2000.0000   -999.2500     12.4850    140.1787
   896.5000   2000.0000   -999.2500     12.4057    140.0690
   896.7500   2000.0000   -999.2500     12.3964    139.3789
   897.0000   2000.0000   -999.2500     12.4688    137.5566
   897.2500   2000.0000   -999.2500     12.6391    135.6633
   897.5000   2000.0000   -999.2500     12.9238    131.3425
   897.7500   2000.0000   -999.2500     13.3359    127.4063
   898.0000   2000.0000   -999.2500     13.8832    120.3825
   898.2500   2000.0000   -999.2500     14.5644    115.3973
   898.5000   2000.0000   -999.2500     15.3638    108.3080
   898.7500   2000.0000   -999.2500     16.2412    104.4365
   899.0000   2000.0000   -999.2500     17.1246    101.0339
   899.2500   2000.0000   -999.2500     17.9138    100.7458
   899.5000   2000.0000   -999.2500     18.5005    102.7534
   899.7500   2000.0000   -999.2500     18.7990    104.7783
   900.0000   2000.0000   -999.2500     18.7727    107.2714
   900.2500   2000.0000   -999.2500     18.4458    108.3536
   900.5000   2000.0000   -999.2500     17.8941    110.1200
   900.7500   2000.0000   -999.2500     17.2189    112.2119
   901.0000   2000.0000   -999.2500     16.5165    117.2539
   901.2500   2000.0000   -999.2500     15.8590    121.4268
   901.5000   2000.0000   -999.2500     15.2907    127.2144
   901.7500   2000.0000   -999.2500     14.8331    129.6952
   902.0000   2000.0000   -999.2500     14.4933    130.3434
   902.2500   2000.0000   -999.2500     14.2691    128.9860
   902.5000   2000.0000   -999.2500     14.1523    125.7573
   902.7500   2000.0000   -999.2500     14.1306    123.5194
   903.0000   2000.0000   -999.2500     14.1881    120.1198
   903.2500   2000.0000   -999.2500     14.3062    117.6373
   903.5000   2000.0000   -999.2500     14.4630    114.0002
   903.7500   2000.0000   -999.2500     14.6340    112.2897
   904.0000   2000.0000   -999.2500     14.7932    111.8274
   904.2500   2000.0000   -999.2500     14.9167    113.0898
   904.5000   2000.0000   -999.2500     14.9882    116.5674
   904.7500   2000.0000   -999.2500     15.0028    119.0614
   905.0000   2000.0000   -999.2500     14.9684    121.9762
   905.2500   2000.0000   -999.2500     14.9047    123.4301
   905.5000   2000.0000   -999.2500     14.8430    125.5559
   905.7500   2000.0000   -999.2500     14.8219    127.0192
   906.0000   2000.0000   -999.2500     14.8784    128.7455
   906.2500   2000.0000   -999.2500     15.0364    129.2411
   906.5000   2000.0000   -999.2500     15.2989    128.6148
   906.7500   2000.0000   -999.2500     15.6505    127.0973
   907.0000   2000.0000   -999.2500     16.0690    123.1871
   907.2500   2000.0000   -999.2500     16.5392    119.9060
   907.5000   2000.0000   -999.2500     17.0600    115.1792
   907.7500   2000.0000   -999.2500     17.6400    112.7811
   908.0000   2000.0000   -999.2500     18.2877    110.7026
   908.2500   2000.0000   -999.2500     19.0038    110.1048
   908.5000   2000.0000   -999.2500     19.7825    109.6170
   908.7500   2000.0000   -999.2500     20.6143    109.2247
   909.0000   2000.0000   -999.2500     21.4890    108.4359
   909.2500   2000.0000   -999.2500     22.3943    107.8685
