~Version Information
VERS.                      2.0: CWLS Log ASCII Standard - VERSION 2.0
WRAP.                       NO: One line per depth step
~Well Information Block
STRT.FT                -6.5000: 
STOP.FT              1758.0000: 
STEP.FT                 0.2500: 
NULL.                -999.2500: 
COMP.          Pioneer Natural Resources: COMPANY
WELL.           Rolls 14-14 Tr: WELL
FLD.           Purgatorie River: FIELD
LOC.           473' FSL & 817' FWL--: LOCATION
PROV.                       CO: PROVINCE
CNTY.               Las Animas: COUNTRY
SRVC.          Patterson Wireline: SERVICE COMPANY
DATE.          Mon Aug 08 11:51:25 2005: LOG DATE
UWI.           05 071 08454 00: UNIQUE WELL ID
~Curve Information Block
DEPT.FT            0 000 00 00: Depth
CCL.                          : Casing Collar Locator
TT3.usec                      : CBL 3' Travel Time
AMP3.mV                       : CBL 3' Amplitude
GR.GAPI                       : Gamma Ray
~Parameter Information Block
~A  Depth       CCL         TT3         AMP3         GR     
# ...
  1635.0000      0.0000    756.1848      2.5107    108.4956
  1635.2500      0.0000    761.8552      2.6118    107.2060
  1635.5000      0.0000    753.4532      2.6796    109.6224
  1635.7500      0.0000    737.2698      2.7280    114.1388
  1636.0000      0.0000    720.9877      2.7732    117.9733
  1636.2500      0.0000    708.9467      2.8276    119.1131
  1636.5000      0.0000    701.7916      2.9072    117.7704
  1636.7500      0.0000    698.7180      3.0327    115.9234
  1637.0000      0.0000    698.9641      3.2150    115.1447
  1637.2500      0.0000    701.5068      3.4400    114.8954
  1637.5000      0.0000    704.4077      3.6722    113.2469
  1637.7500      0.0000    705.3060      3.8724    109.1832
  1638.0000      0.0000    702.8401      4.0182    103.6958
  1638.2500      0.0000    697.7504      4.1099     98.5183
  1638.5000      0.0000    692.7538      4.1583     94.3964
  1638.7500      0.0000    690.9681      4.1695     90.9565
  1639.0000      0.0000    693.7489      4.1499     87.8005
  1639.2500      0.0000    699.7595      4.1204     85.0857
  1639.5000      0.0000    706.1937      4.1126     83.0370
  1639.7500      0.0000    710.8804      4.1454     81.4755
  1640.0000      0.0000    713.2542      4.2067     80.2347
  1640.2500      0.0000    713.7426      4.2594     79.5857
  1640.5000      0.0000    712.6600      4.2699     79.6289
  1640.7500      0.0000    709.6971      4.2342     79.6119
  1641.0000      0.0000    704.3210      4.1760     78.5750
  1641.2500      0.0000    696.7402      4.1274     76.4261
  1641.5000      0.0000    688.5176      4.1138     73.7054
  1641.7500      0.0000    682.0864      4.1470     70.5909
  1642.0000      0.0000    679.5302      4.2173     66.9108
  1642.2500      0.0000    681.6423      4.2983     62.9872
  1642.5000      0.0000    687.6291      4.3710     59.7999
  1642.7500      0.0000    695.3016      4.4363     58.2180
  1643.0000      0.0000    701.7984      4.4968     58.3326
  1643.2500      0.0000    704.5690      4.5299     59.4861
  1643.5000      0.0000    701.9330      4.4867     60.8056
  1643.7500      0.0000    693.3105      4.3307     61.7782
  1644.0000      0.0000    679.2252      4.0978     62.3968
  1644.2500      0.0000    660.6750      3.9099     62.7968
  1644.5000      0.0000    638.5040      3.8907     62.9950
  1644.7500      0.0000    614.8962      4.0513     63.0897
  1645.0000      0.0000    595.7369      4.2787     63.3056
  1645.2500      0.0000    588.8943      4.4398     63.4622
  1645.5000      0.0000    598.0453      4.4690     62.8993
  1645.7500      0.0000    619.4030      4.3613     61.6707
  1646.0000      0.0000    646.2318      4.1286     61.4742
  1646.2500     -2.0000    675.3002      3.8021     64.3844
  1646.5000      0.0000    706.3465      3.4738     70.4645
  1646.7500      0.0000    736.2142      3.2880     77.1349
  1647.0000      0.0000    757.5075      3.3374     81.1109
  1647.2500      0.0000    764.2361      3.5723     81.0022
  1647.5000      0.0000    756.3884      3.8450     78.2542
  1647.7500      0.0000    738.0151      4.0336     75.6395
  1648.0000      0.0000    712.3351      4.1146     74.7375
  1648.2500      0.0000    679.8257      4.1340     75.0322
  1648.5000      0.0000    641.1333      4.1368     75.4622
  1648.7500      0.0000    602.1983      4.1264     76.2266
  1649.0000      0.0000    575.5250      4.0813     78.4472
  1649.2500      0.0000    573.0914      3.9965     82.2815
  1649.5000      0.0000    595.9866      3.9034     86.0622
  1649.7500      0.0000    632.5319      3.8463     87.6665
  1650.0000      0.0000    667.4571      3.8480     86.7796
  1650.2500      0.0000    691.8304      3.9014     85.5390
  1650.5000      0.0000    705.0491      3.9846     86.7489
  1650.7500      0.0000    710.7383      4.0720     91.7029
  1651.0000      0.0000    712.5862      4.1350     99.6605
  1651.2500      0.0000    712.8412      4.1464    108.5979
  1651.5000      0.0000    712.5645      4.0974    116.0866
  1651.7500      0.0000    712.1520      4.0091    120.1007
  1652.0000      0.0000    711.5123      3.9233    119.6458
  1652.2500      0.0000    710.2633      3.8756    114.9200
  1652.5000      0.0000    708.3035      3.8753    107.1011
  1652.7500      0.0000    706.3433      3.9115     97.9869
  1653.0000      0.0000    705.6016      3.9785     89.5207
  1653.2500      0.0000    706.6997      4.0838     83.4661
  1653.5000      0.0000    709.0089      4.2277     81.1654
  1653.7500      0.0000    711.2635      4.3817     82.9165
  1654.0000      0.0000    712.5417      4.4979     87.4070
  1654.2500      0.0000    712.3810      4.5392     92.3530
  1654.5000      0.0000    710.1021      4.4972     96.1533
  1654.7500      0.0000    704.4390      4.3791     98.8525
  1655.0000      0.0000    694.3964      4.1931    101.6630
  1655.2500      0.0000    680.9560      3.9649    106.0098
  1655.5000      0.0000    667.5692      3.7648    112.8833
  1655.7500      0.0000    658.0117      3.6821    122.2588
  1656.0000      0.0000    653.4087      3.7492    132.4991
  1656.2500      0.0000    651.4550      3.9033    140.6837
  1656.5000      0.0000    647.4391      4.0405    144.4680
  1656.7500      0.0000    635.2507      4.1035    143.9936
  1657.0000      0.0000    609.9441      4.1116    141.5087
  1657.2500      0.0000    573.7109      4.1208    138.9250
  1657.5000      0.0000    539.9991      4.1696    136.3724
  1657.7500      0.0000    527.2011      4.2554    133.3392
  1658.0000      0.0000    543.6824      4.3486    130.1419
  1658.2500      0.0000    578.1528      4.4192    127.3086
  1658.5000      0.0000    605.9003      4.4551    124.1506
  1658.7500      0.0000    605.8278      4.4644    119.1641
  1659.0000      0.0000    574.2729      4.4638    111.9710
  1659.2500      0.0000    526.2644      4.4623    104.1997
  1659.5000      0.0000    485.0671      4.4568     98.2984
  1659.7500      0.0000    468.8241      4.4451     95.7373
  1660.0000      0.0000    483.4156      4.4397     96.2086
  1660.2500      0.0000    523.2950      4.4572     98.0721
  1660.5000      0.0000    576.0155      4.4890     99.3711
  1660.7500      0.0000    627.4103      4.5000     98.8921
  1661.0000      0.0000    666.7453      4.4650     96.9179
  1661.2500      0.0000    689.9330      4.3968     95.1162
  1661.5000      0.0000    698.4886      4.3286     95.3327
  1661.7500      0.0000    695.3605      4.2772     98.1649
  1662.0000      0.0000    681.7405      4.2359    102.5453
  1662.2500      0.0000    657.6304      4.1999    106.5449
  1662.5000      0.0000    625.4454      4.1795    108.5999
  1662.7500      0.0000    592.8944      4.1823    108.5388
  1663.0000      0.0000    571.0842      4.1947    108.0568
  1663.2500      0.0000    567.9223      4.1923    109.8344
  1663.5000      0.0000    581.7585      4.1611    115.2002
  1663.7500      0.0000    601.0223      4.0988    122.4403
  1664.0000      0.0000    611.6570      4.0095    127.9306
  1664.2500      0.0000    607.7637      3.9116    129.2065
  1664.5000      0.0000    596.2981      3.8420    127.0648
  1664.7500      0.0000    590.7199      3.8318    124.8368
  1665.0000      0.0000    599.2648      3.8772    125.4700
  1665.2500      0.0000    618.8817      3.9435    129.1391
  1665.5000      0.0000    639.1868      3.9990    133.6381
  1665.7500      0.0000    650.7959      4.0380    136.7575
  1666.0000      0.0000    650.3083      4.0715    137.9723
  1666.2500      0.0000    639.7192      4.1067    138.2001
  1666.5000      0.0000    623.0607      4.1401    138.3869
  1666.7500      0.0000    603.9491      4.1591    138.2281
  1667.0000      0.0000    585.4791      4.1480    136.1069
  1667.2500      0.0000    570.6714      4.0991    130.3540
  1667.5000      0.0000    561.7009      4.0216    120.5648
  1667.7500      0.0000    559.8014      3.9424    107.8826
  1668.0000      0.0000    566.9842      3.8977     94.5977
  1668.2500      0.0000    585.9958      3.9158     83.4948
