~Version Information
 VERS.                                  2.0 : CWLS LAS VERSION
 WRAP.                                   NO : WRAPING MODE
 SWARE .                 MController 2.5.0N : SOFTWARE VERSION
~Well Information
 WELL.                     CORTINA 23-25 TR : WELL
 COMP.    PIONEER NATURAL RESOURCES USA INC : COMPANY
 FLD.                      PURGATOIRE RIVER : FIELD
 LOC.                NE/SW SEC 25 T32S R67W : LOCATION
 DATE.                             09/24/05 : DATE(S) LOGGED
 SRVC.       BLANCO GEOLOGICAL SERVICES LLC : SERVICE COMPANY
 STAT.                             COLORADO : STATE
 CNTY.                           LAS ANIMAS : COUNTY
 CTRY.                                  USA : COUNTRY
 API.                       05-071-08534-00 : API NUMBER
 STRT.FT                             388.00 : START DEPTH
 STOP.FT                            1890.00 : STOP DEPTH
 STEP.FT                               1.00 : DEPTH INCREMENT
 NULL.                                -9999 : NULL VALUE
~Curve information
 DEPTH.FT                                   :
 ROP.MIN/FT                                 :
 GAS.UNITS                                  :
~ASCII Log data
       388.0     -9999.00          5.0 
       389.0         0.07          4.7 
       390.0         0.10          4.7 
       391.0         0.10          4.7 
       392.0         0.07          5.1 
       393.0         0.10          5.1 
       394.0         0.07          5.1 
       395.0         0.10          5.1 
       396.0         0.10          4.6 
       397.0         0.10          4.6 
       398.0         0.10          4.6 
       399.0         0.07          5.0 
       400.0         0.68          5.2 
       401.0         0.77          5.1 
       402.0         0.10          4.9 
       403.0         0.07          4.8 
       404.0         0.23          4.2 
       405.0         0.37          5.0 
       406.0         0.23          4.7 
       407.0         0.23          4.4 
       408.0         0.20          4.7 
       409.0         0.20          4.5 
       410.0         0.20          4.3 
       411.0         0.17          4.6 
       412.0         0.20          4.4 
       413.0         0.17          4.4 
       414.0         0.22          4.9 
       415.0         0.23          4.4 
       416.0         0.20          4.4 
       417.0         0.20          3.1 
       418.0         0.23          3.3 
       419.0         0.20          4.1 
       420.0         0.20          3.9 
       421.0         0.23          4.1 
       422.0         0.20          3.2 
       423.0         0.23          3.8 
       424.0         0.20          3.7 
       425.0         0.20          3.7 
       426.0         0.23          3.5 
       427.0         0.20          3.8 
       428.0         0.17          4.2 
       429.0         0.20          3.8 
       430.0         0.18          4.0 
       431.0         0.13          4.0 
       432.0         1.27          4.3 
       433.0         0.07          4.3 
       434.0         0.13          4.2 
       435.0         0.43          4.0 
       436.0         0.27          4.1 
       437.0         0.23          4.2 
       438.0         0.23          4.2 
       439.0         0.23          4.3 
       440.0         0.20          3.3 
       441.0         0.22          4.2 
       442.0         0.17          3.6 
       443.0         0.20          3.6 
       444.0         0.23          3.5 
       445.0         0.20          4.0 
       446.0         0.20          3.9 
       447.0         0.27          3.5 
       448.0         0.30          3.5 
       449.0         0.20          3.7 
       450.0         0.27          4.1 
       451.0         0.23          3.2 
       452.0         0.23          3.8 
       453.0         0.23          3.6 
       454.0         0.20          3.8 
       455.0         0.23          4.1 
       456.0         0.25          3.7 
       457.0         0.17          3.8 
       458.0         0.20          4.0 
       459.0         0.17          3.4 
       460.0         0.23          3.7 
       461.0         0.30          3.8 
       462.0         0.20          3.3 
       463.0         0.43          4.0 
       464.0         0.57          3.6 
       465.0         0.30          3.7 
       466.0         0.10          4.1 
       467.0         0.20          4.1 
       468.0         0.38          4.0 
       469.0         0.30          4.0 
       470.0         0.20          3.7 
       471.0         0.23          3.6 
       472.0         0.27          3.6 
       473.0         0.27          3.8 
       474.0         0.27          4.7 
       475.0         0.17          4.6 
       476.0         1.33          4.5 
       477.0         0.55         93.4 
       478.0         0.27        222.3 
       479.0         0.30        105.6 
       480.0         0.33         34.3 
       481.0         0.23         14.3 
       482.0         0.30          5.8 
       483.0         0.27          6.5 
       484.0         0.27          3.2 
       485.0         0.23          1.8 
       486.0         0.27          1.9 
       487.0         0.27          1.5 
       488.0         0.23          1.1 
       489.0         0.25          1.2 
       490.0         0.23          0.7 
       491.0         0.23          0.6 
       492.0         0.23          1.4 
       493.0         0.23          1.1 
       494.0         0.23          1.5 
       495.0         0.20          1.5 
       496.0         0.23          1.7 
       497.0         0.23          1.6 
       498.0         0.20          2.0 
       499.0         0.20          1.1 
       500.0         0.13          2.2 
       501.0         0.37          1.8 
       502.0         0.85          2.2 
       503.0         0.27          1.0 
       504.0         0.30          2.1 
       505.0         0.30          1.8 
       506.0         0.27          2.2 
       507.0         0.27          1.8 
       508.0         0.20          1.6 
       509.0         0.23          1.7 
       510.0         0.23          1.2 
       511.0         0.20          1.3 
       512.0         0.23          1.9 
       513.0         0.20          1.3 
       514.0         0.22          1.2 
       515.0         0.23          1.7 
       516.0         0.20          2.0 
       517.0         0.23          1.9 
       518.0         0.20          1.8 
       519.0         0.20          1.6 
       520.0         0.20          1.9 
       521.0         0.23          1.9 
       522.0         0.27          1.6 
       523.0         0.23          1.5 
       524.0         0.17          1.4 
       525.0         0.23          1.7 
       526.0         0.20          1.8 
       527.0         0.23          1.9 
       528.0         0.23          2.0 
       529.0         0.28          2.0 
       530.0         0.27          1.9 
       531.0         0.17          1.9 
       532.0         0.33          2.2 
       533.0         0.53          2.3 
       534.0         0.20          1.7 
       535.0         0.10          1.7 
       536.0         0.10          1.7 
       537.0         0.40          2.3 
       538.0         0.30          1.5 
       539.0         0.30          1.6 
       540.0         0.30          2.3 
       541.0         0.25          1.6 
       542.0         0.23          2.0 
       543.0         0.23          2.0 
       544.0         0.27          1.7 
       545.0         0.23          1.8 
       546.0         0.23          2.1 
       547.0         0.20          1.7 
       548.0         0.20          2.3 
       549.0         0.23          1.9 
       550.0         0.20          1.9 
       551.0         0.20          1.6 
       552.0         0.23          2.2 
       553.0         0.20          2.2 
       554.0         0.20          1.4 
       555.0         0.23          1.9 
       556.0         0.25          2.4 
       557.0         0.20          1.6 
       558.0         0.23          1.9 
       559.0         0.17          1.9 
       560.0         0.23          1.9 
       561.0         0.20          2.4 
       562.0         0.20          2.6 
       563.0         0.20          2.6 
       564.0         0.20          2.2 
       565.0         0.10          2.1 
       566.0         1.47          2.8 
       567.0         0.08          2.4 
       568.0         0.47          2.8 
       569.0         0.30          2.1 
       570.0         0.30          2.6 
       571.0         0.27          2.6 
       572.0         0.27          2.8 
       573.0         0.23          2.5 
       574.0         0.20          2.5 
       575.0         0.30          2.2 
       576.0         0.27          2.3 
       577.0         0.23          2.6 
       578.0         0.20          2.6 
       579.0         0.23          2.1 
       580.0         0.22          2.5 
       581.0         0.23          2.5 
       582.0         0.20          2.3 
       583.0         0.20          2.5 
       584.0         0.20          2.2 
       585.0         0.20          2.3 
       586.0         0.20          2.0 
       587.0         0.23          2.1 
