~Version Information
 VERS.                                  2.0 : CWLS LAS VERSION
 WRAP.                                   NO : WRAPING MODE
 SWARE .                 MController 2.5.0N : SOFTWARE VERSION
~Well Information
 WELL.                     Challenger 31-29 : WELL
 COMP.   Pioneer Natural Resources USA, Inc : COMPANY
 FLD.                      Purgatoire River : FIELD
 LOC.               NW/NE Sec 29 T33S  R65W : LOCATION
 DATE.                             09/15/05 : DATE(S) LOGGED
 SRVC.       BLANCO Geological Services LLC : SERVICE COMPANY
 STAT.                                   CO : STATE
 CNTY.                           Las Animas : COUNTY
 CTRY.                                  USA : COUNTRY
 API.                       05-071-08514-00 : API NUMBER
 STRT.FT                             396.00 : START DEPTH
 STOP.FT                            1345.00 : STOP DEPTH
 STEP.FT                               1.00 : DEPTH INCREMENT
 NULL.                                -9999 : NULL VALUE
~Curve information
 DEPTH.FT                                   :
 ROP.MIN/FT                                 :
 GAS.UNITS                                  :
~ASCII Log data
# ...
       996.0         0.17        104.4 
       997.0         0.17        103.0 
       998.0         0.23         93.6 
       999.0         0.30         88.5 
      1000.0         0.20         83.9 
      1001.0         0.17         78.1 
      1002.0         0.17         75.3 
      1003.0         0.13         73.8 
      1004.0         0.17         72.9 
      1005.0         0.17         71.8 
      1006.0         0.17         70.2 
      1007.0         0.17         69.4 
      1008.0         0.17         68.9 
      1009.0         0.17         67.8 
      1010.0         0.20         67.8 
      1011.0         0.18         67.1 
      1012.0         0.13         58.9 
      1013.0         0.13         53.3 
      1014.0         0.17         52.4 
      1015.0         0.43         47.8 
      1016.0         1.17        162.8 
      1017.0         0.33        169.9 
      1018.0         0.30        156.4 
      1019.0         0.27        143.9 
      1020.0         0.23        118.3 
      1021.0         0.25        101.9 
      1022.0         0.20         99.4 
      1023.0         0.20         84.5 
      1024.0         0.20         75.5 
      1025.0         0.17         77.0 
      1026.0         0.33         83.1 
      1027.0         0.23         85.1 
      1028.0         0.17         86.1 
      1029.0         0.23         85.7 
      1030.0         0.20         84.0 
      1031.0         0.30         81.4 
      1032.0         0.13         80.0 
      1033.0         0.17         74.6 
      1034.0         0.10         74.6 
      1035.0         0.17         68.9 
      1036.0         0.27         67.1 
      1037.0         0.22         62.3 
      1038.0         0.33         60.6 
      1039.0         0.20         60.4 
      1040.0         0.13         59.5 
      1041.0         0.27         63.2 
      1042.0         0.17         67.8 
      1043.0         0.27         94.2 
      1044.0         0.20        145.7 
      1045.0         0.20        179.6 
      1046.0         0.30        207.6 
      1047.0         0.23        218.2 
      1048.0         0.33        218.1 
      1049.0         0.30        196.0 
      1050.0         0.23        171.2 
      1051.0         0.25        162.3 
      1052.0         0.20        145.1 
      1053.0         0.17        125.1 
      1054.0         0.20        113.1 
      1055.0         0.17        107.5 
      1056.0         0.10        101.8 
      1057.0         0.17         99.8 
      1058.0         0.13         92.1 
      1059.0         0.17         89.5 
      1060.0         0.27         87.3 
      1061.0         0.13         85.9 
      1062.0         0.13         85.0 
      1063.0         0.13         85.0 
      1064.0         0.20         84.9 
      1065.0         0.20         84.2 
      1066.0         0.20         81.8 
      1067.0         0.20         81.8 
      1068.0         0.17         80.6 
      1069.0         0.18         80.2 
      1070.0         0.23         73.2 
      1071.0         0.23         72.1 
      1072.0         0.23         64.3 
      1073.0         0.27         58.9 
      1074.0         0.13         57.9 
      1075.0         0.50         90.5 
      1076.0         0.27        149.0 
      1077.0         0.47        211.8 
      1078.0         0.10        211.8 
      1079.0         0.30        215.4 
      1080.0         0.10        209.0 
      1081.0         0.30        197.8 
      1082.0         0.25        183.3 
      1083.0         0.23        165.2 
      1084.0         0.20        144.0 
      1085.0         0.20        127.3 
      1086.0         0.20        109.5 
      1087.0         0.17        106.8 
      1088.0         0.17         98.2 
      1089.0         0.13         95.3 
      1090.0         0.30        101.9 
      1091.0         0.20        107.6 
      1092.0         0.23        111.9 
      1093.0         0.20        113.9 
      1094.0         0.23        114.0 
      1095.0         0.27        112.8 
      1096.0         0.23        110.9 
      1097.0         0.20        109.6 
      1098.0         0.25        107.2 
      1099.0         0.23        105.3 
      1100.0         0.23        104.0 
      1101.0         0.20         97.5 
      1102.0         0.23         87.4 
      1103.0         0.17         81.7 
      1104.0         0.20         80.1 
      1105.0         0.47         78.4 
      1106.0         0.87        190.5 
      1107.0         0.30        240.7 
      1108.0         0.48        253.7 
      1109.0         0.47        251.6 
      1110.0         0.23        207.3 
      1111.0         0.17        175.7 
      1112.0         0.13        152.9 
      1113.0         0.10        152.9 
      1114.0         0.30        144.7 
      1115.0         0.20        133.6 
      1116.0         0.23        122.1 
      1117.0         0.23        112.9 
      1118.0         0.20        109.1 
      1119.0         0.27        102.8 
      1120.0         0.23        101.0 
      1121.0         0.23         97.8 
      1122.0         0.18         95.4 
      1123.0         0.23         91.8 
      1124.0         0.20         90.4 
      1125.0         0.27         88.7 
      1126.0         0.13         87.6 
      1127.0         0.20         87.6 
      1128.0         0.10         78.6 
      1129.0         0.13         78.6 
      1130.0         0.20         75.2 
      1131.0         0.17         70.9 
      1132.0         0.20         70.4 
      1133.0         0.27         64.0 
      1134.0         0.23         74.6 
      1135.0         0.40         99.0 
      1136.0         0.30        175.3 
      1137.0         0.28        198.4 
      1138.0         0.23        217.8 
      1139.0         0.33        222.8 
      1140.0         0.17        213.6 
      1141.0         0.37        196.8 
      1142.0         0.30        174.0 
      1143.0         0.23        150.3 
      1144.0         0.27        118.9 
      1145.0         0.23        117.4 
      1146.0         0.23        105.3 
      1147.0         0.20        101.4 
      1148.0         0.23         97.1 
      1149.0         0.33         94.1 
      1150.0         0.25         88.1 
      1151.0         0.27         87.0 
      1152.0         0.27         85.9 
      1153.0         0.23         85.6 
      1154.0         0.23         85.7 
      1155.0         0.20         85.8 
      1156.0         0.23         85.1 
      1157.0         0.20         84.6 
      1158.0         0.23         84.6 
      1159.0         0.20         84.1 
      1160.0         0.20         83.3 
      1161.0         0.20         78.7 
      1162.0         0.20         74.9 
      1163.0         0.20         67.4 
      1164.0         0.23         60.0 
      1165.0         0.42         59.1 
      1166.0         0.53        100.0 
      1167.0         0.33        160.2 
      1168.0         0.30        218.2 
      1169.0         0.47        227.8 
      1170.0         0.30        200.0 
      1171.0         0.23        177.8 
      1172.0         0.23        170.5 
      1173.0         0.23        143.0 
      1174.0         0.23        123.8 
      1175.0         0.25        118.1 
      1176.0         0.27        108.4 
      1177.0         0.20         99.3 
      1178.0         0.23         97.9 
      1179.0         0.23         91.5 
      1180.0         0.23         89.3 
      1181.0         0.23         87.1 
      1182.0         0.23         85.0 
      1183.0         0.23         83.6 
      1184.0         0.23         82.4 
      1185.0         0.23         81.4 
      1186.0         0.20         80.3 
      1187.0         0.20         80.1 
      1188.0         0.23         78.3 
      1189.0         0.23         77.1 
      1190.0         0.22         76.5 
      1191.0         0.27         71.4 
      1192.0         0.27         64.6 
      1193.0         0.13         64.0 
      1194.0         0.20         60.0 
      1195.0         0.27         57.3 
