~Version Information
VERS.                      2.0: CWLS Log ASCII Standard - VERSION 2.0
WRAP.                       NO: One line per depth step
~Well Information Block
STRT.FT               -16.0000: 
STOP.FT              2827.7500: 
STEP.FT                 0.2500: 
NULL.                -999.2500: 
COMP.          Pioneer Natural Resources: COMPANY
WELL.          Touchstone 11-32: WELL
FLD.           Purgatorie River: FIELD
LOC.           853' FNL & 407' FWL--: LOCATION
CNTY.               Las Animas: COUNTY
SRVC.          Patterson Wireline: SERVICE COMPANY
DATE.          Wed Mar 15 10:09:19 2006: LOG DATE
UWI.           05 071 08564 00: UNIQUE WELL ID
STAT.                       CO: STATE
~Curve Information Block
DEPT.FT            0 000 00 00: Depth
CCL.                          : Casing Collar Locator
TT3.usec                      : CBL 3' Travel Time
AMP3.mV                       : CBL 3' Amplitude
GR.GAPI                       : Gamma Ray
~Parameter Information Block
~A  Depth       CCL         TT3         AMP3         GR     
# ...
   553.5000      0.0000    678.6603     12.6371     62.1123
   553.7500      0.0000    641.2733     12.7939     64.8158
   554.0000      0.0000    599.7224     12.9716     68.3249
   554.2500      0.0000    548.1464     13.1769     71.4196
   554.5000      0.0000    487.0663     13.4208     73.8591
   554.7500      0.0000    428.0356     13.7028     76.6715
   555.0000      0.0000    384.0291     14.0023     81.2642
   555.2500      0.0000    358.9220     14.2843     88.3825
   555.5000      0.0000    347.8765     14.5165     98.0971
   555.7500      0.0000    344.0771     14.6849    110.4833
   556.0000      0.0000    343.0316     14.8005    125.4891
   556.2500      0.0000    342.7659     14.8825    141.5760
   556.5000      0.0000    342.6778     14.9328    154.8954
   556.7500      0.0000    342.6717     14.9320    161.0456
   557.0000      0.0000    342.7756     14.8671    158.6377
   557.2500      0.0000    342.9942     14.7571    150.8536
   557.5000      0.0000    343.2735     14.6403    142.8199
   557.7500      0.0000    343.5562     14.5437    137.6262
   558.0000      0.0000    343.8437     14.4744    135.0454
   558.2500      0.0000    344.2520     14.4362    132.9778
   558.5000      0.0000    345.3588     14.4388    129.1578
   558.7500      0.0000    349.1664     14.4819    122.2345
   559.0000      0.0000    360.6247     14.5336    112.4152
   559.2500      0.0000    387.9989     14.5365    101.2168
   559.5000      0.0000    438.9826     14.4475     90.5695
   559.7500      0.0000    512.8015     14.2795     82.3275
   560.0000      0.0000    595.9314     14.1012     78.0444
   560.2500      0.0000    668.9105     13.9867     78.2130
   560.5000      0.0000    719.0182     13.9637     81.6784
   560.7500      0.0000    745.7729     14.0112     86.1850
   561.0000      0.0000    756.1457     14.0974     89.5614
   561.2500      0.0000    757.8978     14.2078     90.6315
   561.5000      0.0000    756.7230     14.3399     89.6144
   561.7500      0.0000    755.5922     14.4904     87.7089
   562.0000      0.0000    754.6431     14.6531     85.9370
   562.2500      0.0000    752.5057     14.8241     84.3108
   562.5000      0.0000    748.6083     15.0055     82.2099
   562.7500      0.0000    744.0244     15.2003     79.3421
   563.0000      0.0000    740.3359     15.3969     76.2065
   563.2500      0.0000    738.3904     15.5593     73.8189
   563.5000      0.0000    738.3310     15.6489     72.9785
   563.7500      0.0000    740.2617     15.6613     73.5255
   564.0000      0.0000    744.3795     15.6324     74.3458
   564.2500      0.0000    750.4185     15.6027     74.2943
   564.5000      0.0000    757.2313     15.5793     73.1136
   564.7500      0.0000    763.2552     15.5374     71.4337
   565.0000      0.0000    767.5725     15.4569     70.0663
   565.2500      0.0000    770.6072     15.3544     69.4459
   565.5000      0.0000    774.1063     15.2840     69.7276
   565.7500      0.0000    780.6130     15.3061     71.1675
   566.0000      0.0000    792.2500     15.4518     74.0363
   566.2500      0.0000    808.8544     15.7080     77.9720
   566.5000      0.0000    826.6836     16.0325     81.6811
   566.7500      0.0000    838.8981     16.3768     83.6172
   567.0000      0.0000    836.9473     16.6986     82.9652
   567.2500      0.0000    811.9857     16.9697     79.9660
   567.5000      0.0000    759.0072     17.1909     75.5803
   567.7500      0.0000    683.8141     17.3953     71.0374
   568.0000      0.0000    604.0870     17.6244     67.3951
   568.2500      0.0000    538.0831     17.8924     65.0460
   568.5000      0.0000    493.0631     18.1676     63.7383
   568.7500      0.0000    468.2204     18.3679     63.4561
   569.0000      0.0000    463.7982     18.3749     65.0109
   569.2500      0.0000    479.7701     18.0806     69.2129
   569.5000      0.0000    508.7155     17.4790     75.4935
   569.7500      0.0000    537.5753     16.7380     81.6768
   570.0000      0.0000    558.5058     16.1278     85.2995
   570.2500      0.0000    577.7001     15.7939     85.3231
   570.5000      0.0000    611.5016     15.6174     82.6945
   570.7500      0.0000    667.3562     15.3782     79.2749
   571.0000      0.0000    728.5148     15.0065     76.2973
   571.2500      0.0000    767.2413     14.5846     73.8694
   571.5000      2.0000    775.3882     14.1772     71.7123
   571.7500      0.0000    771.3386     13.7848     70.0478
   572.0000      0.0000    773.9550     13.4413     69.6957
   572.2500      0.0000    779.6697     13.2771     71.3102
   572.5000      0.0000    769.9512     13.4511     74.6047
   572.7500      0.0000    735.0789     13.9881     78.4711
   573.0000      0.0000    687.1834     14.6639     81.8145
   573.2500      0.0000    652.1129     15.1164     84.0266
   573.5000      0.0000    648.6965     15.1394     84.6214
   573.7500      0.0000    674.4006     14.8288     82.9446
   574.0000      0.0000    710.6581     14.4155     78.7113
   574.2500      0.0000    740.0227     14.0399     72.6902
   574.5000      0.0000    756.5649     13.7205     66.4761
   574.7500      0.0000    763.3111     13.4493     61.5112
   575.0000      0.0000    765.2872     13.2424     58.3314
   575.2500      0.0000    765.7350     13.1192     56.6571
   575.5000      0.0000    765.9776     13.0783     56.0325
   575.7500      0.0000    766.3157     13.1042     56.2325
   576.0000      0.0000    766.7220     13.1831     57.1436
   576.2500      0.0000    767.0894     13.3016     58.4854
   576.5000      0.0000    767.2568     13.4338     59.8248
   576.7500      0.0000    766.9302     13.5428     60.7804
   577.0000      0.0000    765.6656     13.5999     61.1542
   577.2500      0.0000    763.2098     13.6016     61.0220
   577.5000      0.0000    760.1249     13.5664     60.8320
   577.7500      0.0000    757.8870     13.5172     61.2504
   578.0000      0.0000    757.8182     13.4635     62.6333
   578.2500      0.0000    759.7255     13.3992     64.6167
   578.5000      0.0000    761.9443     13.3126     66.3055
   578.7500      0.0000    762.9373     13.1936     66.9368
   579.0000      0.0000    762.6931     13.0325     66.4669
   579.2500      0.0000    762.5356     12.8165     65.6428
   579.5000      0.0000    763.8727     12.5331     65.3490
   579.7500      0.0000    767.5514     12.1803     65.7240
   580.0000      0.0000    774.3076     11.7760     66.1250
   580.2500      0.0000    784.9595     11.3565     66.1090
   580.5000      0.0000    799.4186     10.9608     66.1265
   580.7500      0.0000    815.7952     10.6129     66.9570
   581.0000      0.0000    831.1132     10.3185     68.7851
   581.2500      0.0000    842.8354     10.0755     71.1155
   581.5000      0.0000    849.5427      9.8809     73.3830
   581.7500      0.0000    850.8497      9.7293     75.2848
   582.0000      0.0000    847.5187      9.6112     76.4648
   582.2500      0.0000    841.5482      9.5162     76.2497
   582.5000      0.0000    835.4237      9.4344     74.2488
   582.7500      0.0000    830.8344      9.3552     71.2238
   583.0000      0.0000    828.0276      9.2699     68.7233
   583.2500      0.0000    826.2100      9.1773     67.5967
   583.5000      0.0000    824.2050      9.0877     67.3107
   583.7500      0.0000    820.7676      9.0190     66.8247
   584.0000      0.0000    814.8081      8.9876     65.6202
   584.2500      0.0000    806.0308      9.0013     63.9316
   584.5000      0.0000    795.6555      9.0528     62.6202
   584.7500      0.0000    786.2130      9.1201     62.7391
   585.0000      0.0000    780.0717      9.1742     64.6646
   585.2500      0.0000    777.8409      9.1936     67.6680
   585.5000      0.0000    778.2129      9.1786     70.5946
   585.7500      0.0000    779.3429      9.1560     72.6326
   586.0000      0.0000    780.3116      9.1691     73.2558
   586.2500      0.0000    781.5298      9.2534     72.1359
   586.5000      0.0000    784.2380      9.4145     69.6136
   586.7500      0.0000    789.6042      9.6241     66.6769
