~Version Information
VERS.                      2.0: CWLS Log ASCII Standard - VERSION 2.0
WRAP.                       NO: One line per depth step
~Well Information Block
STRT.FT               310.0000: 
STOP.FT              2298.0000: 
STEP.FT                 0.2500: 
NULL.                -999.2500: 
COMP.          Pioneer Natural Resources: COMPANY
WELL.               Relay 12-7: WELL
FLD.           Purgatoire River: FIELD
LOC.           1999' FNL & 848' FWL: LOCATION
PROV.                 Colorado: PROVINCE
CNTY.               Las Animas: COUNTRY
SRVC.                Patterson: SERVICE COMPANY
DATE.          Fri Dec 16 17:39:57 2005: LOG DATE
UWI.           05 071 08453 00: UNIQUE WELL ID
~Curve Information Block
DEPT.FT            0 000 00 00: Depth
SN.Ohm-m                      : IEL Short Normal
SP.mV                         : IEL Spontaneous Potential
DIR.Ohm-m                     : IEL Induction Resistivity
GR.GAPI                       : Gamma Ray
~Parameter Information Block
~A  Depth        SN          SP         DIR          GR     
# ...
   444.0000   2000.0000   2000.0000     42.1812     55.5160
   444.2500   2000.0000   2000.0000     43.0834     54.2794
   444.5000   2000.0000   2000.0000     43.8549     52.7302
   444.7500   2000.0000   2000.0000     44.3867     51.8845
   445.0000   2000.0000   2000.0000     44.6763     51.0859
   445.2500   2000.0000   2000.0000     44.8302     50.9223
   445.5000   2000.0000   2000.0000     45.0113     50.9914
   445.7500   2000.0000   2000.0000     45.3595     51.0562
   446.0000   2000.0000   2000.0000     45.9282     51.1511
   446.2500   2000.0000   2000.0000     46.6509     51.3733
   446.5000   2000.0000   2000.0000     47.3596     52.2313
   446.7500   2000.0000   2000.0000     47.8572     53.2477
   447.0000   2000.0000   2000.0000     48.0115     55.4966
   447.2500   2000.0000   2000.0000     47.8077     57.3934
   447.5000   2000.0000   2000.0000     47.3333     60.2029
   447.7500   2000.0000   2000.0000     46.7303     61.4484
   448.0000   2000.0000   2000.0000     46.1536     61.6407
   448.2500   2000.0000   2000.0000     45.7370     60.7808
   448.5000   2000.0000   2000.0000     45.5572     59.1041
   448.7500   2000.0000   2000.0000     45.6028     58.4530
   449.0000   2000.0000   2000.0000     45.7752     58.8473
   449.2500   2000.0000   2000.0000     45.9199     59.9837
   449.5000   2000.0000   2000.0000     45.8575     62.3338
   449.7500   2000.0000   2000.0000     45.3864     63.7216
   450.0000   2000.0000   2000.0000     44.2976     64.5212
   450.2500   2000.0000   2000.0000     42.4638     64.0103
   450.5000   2000.0000   2000.0000     39.9599     62.5279
   450.7500   2000.0000   2000.0000     37.0666     62.0613
   451.0000   2000.0000   2000.0000     34.1257     63.8748
   451.2500   2000.0000   2000.0000     31.3908     67.4674
   451.5000   2000.0000   2000.0000     28.9866     76.9298
   451.7500   2000.0000   2000.0000     26.9438     85.6716
   452.0000   2000.0000   2000.0000     25.2352    100.8238
   452.2500   2000.0000   2000.0000     23.7957    110.9745
   452.5000   2000.0000   2000.0000     22.5366    124.2936
   452.7500   2000.0000   2000.0000     21.3697    131.1487
   453.0000   2000.0000   2000.0000     20.2358    137.8649
   453.2500   2000.0000   2000.0000     19.1259    140.1115
   453.5000   2000.0000   2000.0000     18.0820    141.2048
   453.7500   2000.0000   2000.0000     17.1743    141.3726
   454.0000   2000.0000   2000.0000     16.4642    142.1975
   454.2500   2000.0000   2000.0000     15.9760    143.2343
   454.5000   2000.0000   2000.0000     15.6902    144.3686
   454.7500   2000.0000   2000.0000     15.5576    144.1322
   455.0000   2000.0000   2000.0000     15.5224    142.0474
   455.2500   2000.0000   2000.0000     15.5392    139.6587
   455.5000   2000.0000   2000.0000     15.5798    134.6354
   455.7500   2000.0000   2000.0000     15.6284    130.4780
   456.0000   2000.0000   2000.0000     15.6760    124.1091
   456.2500   2000.0000   2000.0000     15.7144    120.6084
   456.5000   2000.0000   2000.0000     15.7327    117.1485
   456.7500   2000.0000   2000.0000     15.7194    115.8857
   457.0000   2000.0000   2000.0000     15.6727    115.2294
   457.2500   2000.0000   2000.0000     15.6117    115.6715
   457.5000   2000.0000   2000.0000     15.5755    117.5448
   457.7500   2000.0000   2000.0000     15.6053    119.0057
   458.0000   2000.0000   2000.0000     15.7190    119.8845
   458.2500   2000.0000   2000.0000     15.8999    118.8826
   458.5000   2000.0000   2000.0000     16.1085    114.9832
   458.7500   2000.0000   2000.0000     16.3083    111.4419
   459.0000   2000.0000   2000.0000     16.4861    106.2430
   459.2500   2000.0000   2000.0000     16.6507    103.5625
   459.5000   2000.0000   2000.0000     16.8145    101.3689
   459.7500   2000.0000   2000.0000     16.9748    101.2523
   460.0000   2000.0000   2000.0000     17.1092    102.9242
   460.2500   2000.0000   2000.0000     17.1908    104.8679
   460.5000   2000.0000   2000.0000     17.2120    108.1275
   460.7500   2000.0000   2000.0000     17.1961    110.3275
   461.0000   2000.0000   2000.0000     17.1846    114.1885
   461.2500   2000.0000   2000.0000     17.2104    117.5650
   461.5000   2000.0000   2000.0000     17.2798    123.9569
   461.7500   2000.0000   2000.0000     17.3697    128.7346
   462.0000   2000.0000   2000.0000     17.4412    135.5440
   462.2500   2000.0000   2000.0000     17.4579    139.0585
   462.5000   2000.0000   2000.0000     17.4009    141.7207
   462.7500   2000.0000   2000.0000     17.2728    141.6080
   463.0000   2000.0000   2000.0000     17.0891    139.5047
   463.2500   2000.0000   2000.0000     16.8674    137.8646
   463.5000   2000.0000   2000.0000     16.6223    136.8624
   463.7500   2000.0000   2000.0000     16.3697    137.6143
   464.0000   2000.0000   2000.0000     16.1315    140.2390
   464.2500   2000.0000   2000.0000     15.9307    142.2265
   464.5000   2000.0000   2000.0000     15.7793    144.6962
   464.7500   2000.0000   2000.0000     15.6705    145.9361
   465.0000   2000.0000   2000.0000     15.5838    147.4578
   465.2500   2000.0000   2000.0000     15.4990    148.3674
   465.5000   2000.0000   2000.0000     15.4079    149.5471
   465.7500   2000.0000   2000.0000     15.3163    150.1836
   466.0000   2000.0000   2000.0000     15.2392    151.0916
   466.2500   2000.0000   2000.0000     15.1899    151.7982
   466.5000   2000.0000   2000.0000     15.1698    152.8812
   466.7500   2000.0000   2000.0000     15.1650    153.3892
   467.0000   2000.0000   2000.0000     15.1577    153.5922
   467.2500   2000.0000   2000.0000     15.1420    153.3679
   467.5000   2000.0000   2000.0000     15.1308    152.6286
   467.7500   2000.0000   2000.0000     15.1461    152.0628
   468.0000   2000.0000   2000.0000     15.2035    151.8052
   468.2500   2000.0000   2000.0000     15.3037    152.4502
   468.5000   2000.0000   2000.0000     15.4367    154.5052
   468.7500   2000.0000   2000.0000     15.5880    155.7739
   469.0000   2000.0000   2000.0000     15.7443    155.5977
   469.2500   2000.0000   2000.0000     15.8941    153.5539
   469.5000   2000.0000   2000.0000     16.0290    148.6275
   469.7500   2000.0000   2000.0000     16.1442    145.4124
   470.0000   2000.0000   2000.0000     16.2387    142.3866
   470.2500   2000.0000   2000.0000     16.3146    141.6934
   470.5000   2000.0000   2000.0000     16.3776    141.6886
   470.7500   2000.0000   2000.0000     16.4379    141.5586
   471.0000   2000.0000   2000.0000     16.5111    140.0474
   471.2500   2000.0000   2000.0000     16.6143    137.9593
   471.5000   2000.0000   2000.0000     16.7576    133.6809
   471.7500   2000.0000   2000.0000     16.9386    130.5290
   472.0000   2000.0000   2000.0000     17.1441    125.8823
   472.2500   2000.0000   2000.0000     17.3595    122.8986
   472.5000   2000.0000   2000.0000     17.5773    118.5623
   472.7500   2000.0000   2000.0000     17.8027    115.8972
   473.0000   2000.0000   2000.0000     18.0533    112.7416
   473.2500   2000.0000   2000.0000     18.3517    111.3226
   473.5000   2000.0000   2000.0000     18.7144    109.5868
   473.7500   2000.0000   2000.0000     19.1400    107.9825
   474.0000   2000.0000   2000.0000     19.6061    104.0818
   474.2500   2000.0000   2000.0000     20.0805    100.6421
   474.5000   2000.0000   2000.0000     20.5423     95.5814
   474.7500   2000.0000   2000.0000     20.9982     93.3036
   475.0000   2000.0000   2000.0000     21.4848     92.5761
   475.2500   2000.0000   2000.0000     22.0526     93.6447
   475.5000   2000.0000   2000.0000     22.7461     96.0125
   475.7500   2000.0000   2000.0000     23.5943     97.1041
   476.0000   2000.0000   2000.0000     24.6139     96.8873
   476.2500   2000.0000   2000.0000     25.8159     95.2242
   476.5000   2000.0000   2000.0000     27.1972     90.6824
   476.7500   2000.0000   2000.0000     28.7126     86.9454
   477.0000   2000.0000   2000.0000     30.2507     82.0093
   477.2500   2000.0000   2000.0000     31.6526     80.1418
