~Version Information
VERS.                      2.0: CWLS Log ASCII Standard - VERSION 2.0
WRAP.                       NO: One line per depth step
~Well Information Block
STRT.FT               428.8000: 
STOP.FT               951.7000: 
STEP.FT                 0.1000: 
NULL.                -999.2500: 
COMP.          Pioneer Natural Resources: COMPANY
WELL.          Sculpin 32-30 Tr: WELL
FLD.           Purgatoire River: FIELD
LOC.           1600' FNL & 1857' FEL--: LOCATION
CNTY.               Las Animas: COUNTY
SRVC.                Patterson: SERVICE COMPANY
DATE.          Wed Jul 19 09:12:32 2006: LOG DATE
UWI.           05 071 08706 00: UNIQUE WELL ID
STAT.                 Colorado: STATE
~Curve Information Block
DEPT.FT            0 000 00 00: Depth
DCAL.in                       : CDL Caliper
RHOB.g/cc                     : CDL Bulk Density
RHOC.g/cc                     : CDL Density Correction
DPOR.pu                       : CDL Density Porosity
GR.GAPI                       : Gamma Ray
~Parameter Information Block
~A  Depth       DCAL        RHOB        RHOC        DPOR         GR     
# ...
   798.4000      8.1178      2.5672      0.1060      5.0209    124.6489
   798.5000      8.1080      2.5649      0.1044      5.1605    124.7871
   798.6000      8.1080      2.5479      0.1171      6.1859    124.5121
   798.7000      8.1080      2.5330      0.1134      7.0920    126.1853
   798.8000      8.0886      2.5316      0.1454      7.1744    130.2651
   798.9000      8.0886      2.5443      0.1270      6.4077    132.5187
   799.0000      8.0722      2.5559      0.2153      5.7038    128.4345
   799.1000      8.0722      2.5489      0.1612      6.1292    124.0754
   799.2000      8.0722      2.5214      0.1251      7.7950    128.0422
   799.3000      8.0764      2.4778      0.0975     10.4346    135.4790
   799.4000      8.0764      2.4293      0.0227     13.3738    136.4592
   799.5000      8.0969      2.3929      0.0540     15.5833    132.3592
   799.6000      8.0969      2.3718      0.0537     16.8629    129.7623
   799.7000      8.0969      2.3625      0.0735     17.4245    129.0942
   799.8000      8.1126      2.3579      0.1054     17.7019    127.9990
   799.9000      8.1126      2.3492      0.0781     18.2287    126.8192
   800.0000      8.1030      2.3427      0.0786     18.6214    125.3770
   800.1000      8.1030      2.3502      0.1466     18.1699    123.9123
   800.2000      8.1030      2.3742      0.1623     16.7130    124.5347
   800.3000      8.0678      2.4092      0.2087     14.5919    129.2778
   800.4000      8.0678      2.4378      0.2861     12.8598    135.4851
   800.5000      8.0670      2.4470      0.2429     12.3056    138.2594
   800.6000      8.0670      2.4483      0.2461     12.2233    139.0885
   800.7000      8.0670      2.4538      0.2431     11.8891    141.6819
   800.8000      8.1178      2.4632      0.1782     11.3202    144.6476
   800.9000      8.1178      2.4813      0.1189     10.2264    145.5788
   801.0000      8.1653      2.5074      0.1547      8.6396    144.1339
   801.1000      8.1653      2.5287      0.1657      7.3540    141.8600
   801.2000      8.1653      2.5354      0.1572      6.9443    141.8832
   801.3000      8.1640      2.5264      0.1585      7.4882    147.7346
   801.4000      8.1640      2.5048      0.1648      8.8003    156.4882
   801.5000      8.1352      2.4829      0.1133     10.1265    160.3831
   801.6000      8.1352      2.4774      0.1218     10.4587    155.9913
   801.7000      8.1352      2.4861      0.1620      9.9346    145.8154
   801.8000      8.1059      2.4916      0.1376      9.6018    136.7865
   801.9000      8.1059      2.4858      0.1194      9.9492    133.8918
   802.0000      8.0738      2.4794      0.0446     10.3387    133.3230
   802.1000      8.0738      2.4887      0.0927      9.7764    129.1396
   802.2000      8.0738      2.5109      0.0901      8.4331    123.0322
   802.3000      8.0492      2.5272      0.0993      7.4404    122.9085
   802.4000      8.0492      2.5290      0.1175      7.3342    129.5261
   802.5000      8.0483      2.5325      0.0593      7.1231    133.6159
   802.6000      8.0483      2.5514      0.1042      5.9736    134.6284
   802.7000      8.0483      2.5644      0.1293      5.1902    138.6653
   802.8000      8.0479      2.5527      0.0646      5.8969    140.4690
   802.9000      8.0479      2.5308      0.0618      7.2266    133.6850
   803.0000      8.0336      2.5202      0.0394      7.8653    122.5200
   803.1000      8.0336      2.5292      0.0690      7.3184    113.4172
   803.2000      8.0336      2.5485      0.0626      6.1486    109.8043
   803.3000      8.0185      2.5588      0.0874      5.5248    112.4696
   803.4000      8.0185      2.5484      0.0590      6.1582    116.1718
   803.5000      8.0100      2.5298      0.0387      7.2839    116.0253
   803.6000      8.0100      2.5238      0.0130      7.6497    116.9959
   803.7000      8.0100      2.5352      0.0359      6.9591    122.6388
   803.8000      8.0023      2.5537      0.0731      5.8374    127.8665
   803.9000      8.0023      2.5672      0.0753      5.0210    128.2521
   804.0000      7.9916      2.5678      0.0895      4.9790    125.5896
   804.1000      7.9916      2.5556      0.0646      5.7223    125.2211
   804.2000      7.9916      2.5393      0.0584      6.7072    129.0202
   804.3000      7.9843      2.5265      0.0614      7.4836    131.9858
   804.4000      7.9843      2.5286      0.0459      7.3605    129.5161
   804.5000      7.9799      2.5560      0.0887      5.6992    127.1213
   804.6000      7.9799      2.5926      0.1435      3.4786    129.9256
   804.7000      7.9799      2.6066      0.1385      2.6292    134.5579
   804.8000      7.9726      2.5915      0.0897      3.5444    134.8529
   804.9000      7.9726      2.5693      0.0815      4.8893    126.8038
   805.0000      7.9644      2.5583      0.0776      5.5582    114.5767
   805.1000      7.9644      2.5621      0.0613      5.3254    106.1138
   805.2000      7.9644      2.5785      0.0492      4.3326    104.1605
   805.3000      7.9579      2.5949      0.1185      3.3418    108.1650
   805.4000      7.9579      2.5963      0.0801      3.2519    115.0963
   805.5000      7.9537      2.5954      0.0682      3.3078    119.4006
   805.6000      7.9537      2.6215      0.1024      1.7246    117.6565
   805.7000      7.9537      2.6843      0.1072     -2.0768    112.9544
   805.8000      7.9504      2.7691      0.1460     -7.2200    111.7248
   805.9000      7.9504      2.8518      0.2012    -12.2311    114.7324
   806.0000      7.9477      2.9149      0.1932    -16.0530    120.2512
   806.1000      7.9477      2.9568      0.1768    -18.5959    123.9810
   806.2000      7.9477      2.9716      0.2342    -19.4903    120.3725
   806.3000      7.9503      2.9516      0.1471    -18.2807    113.9955
   806.4000      7.9503      2.9112      0.0939    -15.8279    111.2505
   806.5000      7.9538      2.8567      0.0744    -12.5266    109.5901
   806.6000      7.9538      2.7848     -0.0759     -8.1687    105.2113
   806.7000      7.9538      2.7044     -0.0708     -3.2969     99.4417
   806.8000      7.9517      2.6259     -0.1489      1.4623     95.3954
   806.9000      7.9517      2.5572     -0.1057      5.6238     97.8236
   807.0000      7.9516      2.5099     -0.1223      8.4887    106.8948
   807.1000      7.9516      2.4991     -0.0482      9.1455    113.9344
   807.2000      7.9516      2.5186      0.0548      7.9666    115.1519
   807.3000      7.9634      2.5420      0.0336      6.5466    116.3393
   807.4000      7.9634      2.5528      0.0802      5.8896    121.9132
   807.5000      7.9758      2.5527      0.0546      5.8989    129.8052
   807.6000      7.9758      2.5578      0.0877      5.5887    133.2375
   807.7000      7.9758      2.5809      0.0968      4.1883    129.4457
   807.8000      7.9752      2.6160      0.1036      2.0577    125.7180
   807.9000      7.9752      2.6436      0.1312      0.3871    126.3158
   808.0000      7.9657      2.6473      0.1449      0.1652    125.8998
   808.1000      7.9657      2.6335      0.1053      0.9995    123.1432
   808.2000      7.9657      2.6263      0.0895      1.4363    121.8237
   808.3000      7.9595      2.6360      0.0817      0.8470    120.7997
   808.4000      7.9595      2.6498      0.0914      0.0105    117.7392
   808.5000      7.9644      2.6500      0.1066     -0.0023    114.4938
   808.6000      7.9644      2.6321      0.0776      1.0869    113.6543
   808.7000      7.9644      2.5968      0.0649      3.2242    116.9445
   808.8000      7.9753      2.5463      0.0735      6.2863    121.8269
   808.9000      7.9753      2.4987     -0.0013      9.1689    120.0216
   809.0000      7.9779      2.4754      0.0048     10.5810    111.2934
   809.1000      7.9779      2.4763      0.0150     10.5244    105.7894
   809.2000      7.9779      2.4855      0.0559      9.9682    109.3641
   809.3000      7.9704      2.4912      0.0298      9.6264    117.1271
   809.4000      7.9704      2.4942      0.0593      9.4426    121.2358
   809.5000      7.9628      2.4961      0.0551      9.3286    118.8250
