~Version Information
VERS.                      2.0: CWLS Log ASCII Standard - VERSION 2.0
WRAP.                       NO: One line per depth step
~Well Information Block
STRT.FT                -8.0000: 
STOP.FT              1323.7500: 
STEP.FT                 0.2500: 
NULL.                -999.2500: 
COMP.          Pioneer Natural Resources: COMPANY
WELL.              Geyser 41-2: WELL
FLD.           Purgatorie River: FIELD
LOC.           506' FNL & 1127' FEL--: LOCATION
PROV.                       CO: PROVINCE
CNTY.               Las Animas: COUNTRY
SRVC.          Patterson Wireline: SERVICE COMPANY
DATE.          Tue Dec 06 09:28:14 2005: LOG DATE
UWI.           08 071 08598 00: UNIQUE WELL ID
~Curve Information Block
DEPT.FT            0 000 00 00: Depth
CCL.                          : Casing Collar Locator
TT3.usec                      : CBL 3' Travel Time
AMP3.mV                       : CBL 3' Amplitude
GR.GAPI                       : Gamma Ray
~Parameter Information Block
~A  Depth       CCL         TT3         AMP3         GR     
# ...
   695.5000      0.0000    742.9841      8.9910     87.6806
   695.7500      0.0000    742.8536      9.0633     87.0595
   696.0000      0.0000    742.7523      9.1449     84.6653
   696.2500      0.0000    742.6614      9.2276     81.0613
   696.5000      0.0000    742.5552      9.3046     77.0958
   696.7500      0.0000    742.4312      9.3759     73.1818
   697.0000      0.0000    742.3181      9.4476     69.5013
   697.2500      0.0000    742.2516      9.5252     66.5920
   697.5000      0.0000    742.2432      9.6085     65.2577
   697.7500      0.0000    742.2723      9.6925     65.9339
   698.0000      0.0000    742.3105      9.7720     68.3868
   698.2500      0.0000    742.3476      9.8436     71.8167
   698.5000      0.0000    742.3979      9.9049     74.9995
   698.7500      0.0000    742.4816      9.9531     76.7059
   699.0000      0.0000    742.6270      9.9856     76.5538
   699.2500      0.0000    742.9052      9.9995     75.4370
   699.5000      0.0000    743.5215      9.9821     74.7405
   699.7500      0.0000    744.8470      9.8954     75.0705
   700.0000      0.0000    747.5795      9.6753     75.9950
   700.2500      0.0000    753.3729      9.2846     76.8736
   700.5000      0.0000    765.8582      8.7967     77.2842
   700.7500      0.0000    790.0285      8.3902     76.5011
   701.0000      0.0000    827.9574      8.1969     73.5852
   701.2500      0.0000    874.0106      8.1732     68.7420
   701.5000      0.0000    917.1415      8.1812     63.8919
   701.7500      0.0000    950.6464      8.1576     61.1415
   702.0000      0.0000    977.1483      8.1355     61.0879
   702.2500      0.0000   1001.0361      8.1427     62.9907
   702.5000     -2.0000   1019.6004      8.1606     66.0051
   702.7500      2.0000   1026.7786      8.1724     69.7691
   703.0000      0.0000   1022.3621      8.2198     74.2806
   703.2500      0.0000   1011.0918      8.4136     79.6408
   703.5000      0.0000    994.5347      8.8658     85.6824
   703.7500      0.0000    970.2738      9.5504     91.7801
   704.0000      0.0000    938.2226     10.2430     97.4550
   704.2500      0.0000    902.4293     10.6811    103.2203
   704.5000      0.0000    867.7311     10.7950    110.4138
   704.7500      0.0000    838.3667     10.7312    119.9655
   705.0000      0.0000    818.2844     10.6728    131.3721
   705.2500      0.0000    809.4828     10.6953    142.6450
   705.5000      0.0000    810.1437     10.7699    151.1596
   705.7500      0.0000    815.3184     10.8339    154.9267
   706.0000      0.0000    819.3646     10.8423    153.4881
   706.2500      0.0000    818.2390     10.7841    148.0295
   706.5000      0.0000    810.6722     10.6751    141.1382
   706.7500      0.0000    798.2374     10.5366    136.2573
   707.0000      0.0000    784.3081     10.3792    136.5257
   707.2500      0.0000    772.2431     10.2024    143.4735
   707.5000      0.0000    763.4491     10.0118    156.3413
   707.7500      0.0000    756.7894      9.8302    172.0202
   708.0000      0.0000    749.9987      9.6870    185.8254
   708.2500      0.0000    741.8378      9.5998    193.6338
   708.5000      0.0000    733.0947      9.5674    194.3471
   708.7500      0.0000    725.9155      9.5750    190.2000
   709.0000      0.0000    722.2415      9.6030    184.4534
   709.2500      0.0000    722.5939      9.6318    179.0969
   709.5000      0.0000    726.0233      9.6446    174.6758
   709.7500      0.0000    730.8219      9.6333    171.2714
   710.0000      0.0000    735.2084      9.6073    168.9247
   710.2500      0.0000    737.8224      9.5900    167.3951
   710.5000      0.0000    738.0817      9.5979    165.8293
   710.7500      0.0000    736.3066      9.6204    162.7872
   711.0000      0.0000    733.5412      9.6285    157.4680
   711.2500      0.0000    731.0761      9.6000    151.5343
   711.5000      0.0000    729.9377      9.5340    148.7740
   711.7500      0.0000    730.9530      9.4481    151.6658
   712.0000      0.0000    735.1749      9.3700    158.5552
   712.2500      0.0000    743.5545      9.3250    165.1321
   712.5000      0.0000    755.9349      9.3243    168.3222
   712.7500      0.0000    770.8477      9.3638    167.8501
   713.0000      0.0000    786.5003      9.4354    164.5714
   713.2500      0.0000    801.6299      9.5316    158.8121
   713.5000      0.0000    815.5114      9.6407    150.7582
   713.7500      0.0000    827.6655      9.7464    141.5342
   714.0000      0.0000    837.5076      9.8374    132.9365
   714.2500      0.0000    843.7501      9.9139    126.0698
   714.5000      0.0000    844.5797      9.9796    120.7085
   714.7500      0.0000    839.3691     10.0331    116.2189
   715.0000      0.0000    830.0163     10.0712    112.8871
   715.2500      0.0000    819.8049     10.0978    112.0861
   715.5000      0.0000    811.1875     10.1232    115.1702
   715.7500      0.0000    805.1607     10.1558    122.3512
   716.0000      0.0000    801.9877     10.1979    132.5301
   716.2500      0.0000    801.5263     10.2474    143.8601
   716.5000      0.0000    803.2532     10.2998    154.2783
   716.7500      0.0000    806.7526     10.3514    161.9162
   717.0000      0.0000    811.9098     10.4033    165.8171
   717.2500      0.0000    818.2573     10.4628    166.7958
   717.5000      0.0000    824.7180     10.5381    167.2517
   717.7500      0.0000    830.5415     10.6296    169.3292
   718.0000      0.0000    836.1644     10.7293    172.6956
   718.2500      0.0000    842.7298     10.8251    174.1338
   718.5000      0.0000    850.6262     10.8989    169.6850
   718.7500      0.0000    858.1503     10.9210    157.8791
   719.0000      0.0000    861.4282     10.8613    141.5186
   719.2500      0.0000    856.5192     10.7184    126.2255
   719.5000      0.0000    842.8885     10.5325    116.6273
   719.7500      0.0000    824.8062     10.3622    113.6130
   720.0000      0.0000    808.5170     10.2515    114.7521
   720.2500      0.0000    798.0815     10.2168    116.4262
   720.5000      0.0000    794.2806     10.2538    115.6189
   720.7500      0.0000    796.7476     10.3472    111.3226
   721.0000      0.0000    806.2111     10.4713    105.3632
   721.2500      0.0000    824.4715     10.5776    101.3373
   721.5000      0.0000    851.8986     10.5970    101.8649
   721.7500      0.0000    884.1163     10.4846    106.8162
   722.0000      0.0000    911.2612     10.2745    114.0027
   722.2500      0.0000    922.5856     10.0702    120.9113
   722.5000      0.0000    913.8996      9.9653    125.7406
   722.7500      0.0000    890.7095      9.9796    127.6272
   723.0000      0.0000    863.4493     10.0659    126.4083
   723.2500      0.0000    839.9020     10.1620    122.1107
   723.5000      0.0000    822.2580     10.2332    114.9194
   723.7500      0.0000    809.5728     10.2801    105.9773
   724.0000      0.0000    800.7491     10.3210     97.8721
   724.2500      0.0000    795.1175     10.3689     93.6259
   724.5000      0.0000    791.9055     10.4217     94.7814
   724.7500      0.0000    790.2247     10.4674    100.2332
   725.0000      0.0000    789.4670     10.4943    106.7762
   725.2500      0.0000    789.4407     10.5006    111.2061
   725.5000      0.0000    790.3809     10.4974    112.4379
   725.7500      0.0000    792.9768     10.5001    111.6687
   726.0000      0.0000    798.1941     10.5133    110.4105
   726.2500      0.0000    806.6090     10.5242    108.9645
   726.5000      0.0000    817.6188     10.5153    107.4128
   726.7500      0.0000    829.4794     10.4824    107.5256
   727.0000      0.0000    840.4214     10.4357    112.3022
   727.2500      0.0000    849.4442     10.3869    123.2271
   727.5000      0.0000    855.4481     10.3412    138.6356
   727.7500      0.0000    856.3505     10.3003    154.8490
   728.0000      0.0000    850.6682     10.2687    168.3866
   728.2500      0.0000    839.9453     10.2565    177.5247
   728.5000      0.0000    828.4714     10.2769    182.7323
   728.7500      0.0000    820.5434     10.3382    185.6832
