~Version Information
 VERS.                                  2.0 : CWLS LAS VERSION
 WRAP.                                   NO : WRAPING MODE
 SWARE .                 MController 2.5.0J : SOFTWARE VERSION
~Well Information
 WELL.                         Kraft 17-23R : WELL
 COMP.                Petrogulf Corporation : COMPANY
 FLD.                      Purgatoire River : FIELD
 LOC.                NE/SW Sec 17 T33S R67W : LOCATION
 DATE.                          10/10-11/05 : DATE(S) LOGGED
 SRVC.       BLANCO Geological Services LLC : SERVICE COMPANY
 STAT.                                   CO : STATE
 CNTY.                           Las Animas : COUNTY
 CTRY.                                  USA : COUNTRY
 API.                       05-071-08560-00 : API NUMBER
 STRT.FT                             101.00 : START DEPTH
 STOP.FT                            1920.00 : STOP DEPTH
 STEP.FT                               1.00 : DEPTH INCREMENT
 NULL.                                -9999 : NULL VALUE
~Curve information
 DEPTH.FT                                   :
 ROP.MIN/FT                                 :
 GAS.UNITS                                  :
~ASCII Log data
# ...
      1301.0         0.13       1017.0 
      1302.0         0.17       1019.0 
      1303.0         0.13       1017.0 
      1304.0         0.10       1014.5 
      1305.0         0.13       1010.1 
      1306.0         0.17       1008.5 
      1307.0         0.17       1005.6 
      1308.0         0.17        999.9 
      1309.0         0.13        995.8 
      1310.0         0.13        992.6 
      1311.0         0.18        990.7 
      1312.0         0.17        983.4 
      1313.0         0.17        978.3 
      1314.0         0.17        975.2 
      1315.0         0.20        971.0 
      1316.0         0.17        963.7 
      1317.0         0.17        926.9 
      1318.0         2.32       2170.7 
      1319.0         0.30       1402.0 
      1320.0         0.30       1227.2 
      1321.0         0.23       1119.2 
      1322.0         0.27       1064.3 
      1323.0         0.23       1020.9 
      1324.0         0.23        987.8 
      1325.0         0.20        964.4 
      1326.0         0.20        949.1 
      1327.0         0.23        939.9 
      1328.0         0.30        931.0 
      1329.0         0.30        918.0 
      1330.0         0.25        905.6 
      1331.0         0.27        899.9 
      1332.0         0.23        893.3 
      1333.0         0.23        885.7 
      1334.0         0.23        881.2 
      1335.0         0.23        880.3 
      1336.0         0.20        881.2 
      1337.0         0.23        892.0 
      1338.0         0.23        893.9 
      1339.0         0.20        883.4 
      1340.0         0.23        859.6 
      1341.0         0.27        810.7 
      1342.0         0.30        733.0 
      1343.0         0.33        638.4 
      1344.0         0.35        567.3 
      1345.0         0.33        523.2 
      1346.0         0.33        470.2 
      1347.0         0.37        475.6 
      1348.0         0.27        517.8 
      1349.0         0.33        580.3 
      1350.0         3.25       2257.1 
      1351.0         0.37        707.3 
      1352.0         0.43        695.5 
      1353.0         0.23        621.6 
      1354.0         0.35        575.9 
      1355.0         0.20        535.3 
      1356.0         0.13        523.2 
      1357.0         0.20        516.2 
      1358.0         0.23        508.3 
      1359.0         0.23        499.1 
      1360.0         0.27        495.3 
      1361.0         0.27        492.4 
      1362.0         0.27        491.1 
      1363.0         0.23        489.2 
      1364.0         0.23        489.2 
      1365.0         0.23        498.8 
      1366.0         0.20        518.4 
      1367.0         0.23        539.7 
      1368.0         0.17        550.5 
      1369.0         0.22        568.6 
      1370.0         0.20        579.4 
      1371.0         0.17        567.0 
      1372.0         0.20        545.1 
      1373.0         0.37        674.9 
      1374.0         0.20        700.9 
      1375.0         0.20        731.1 
      1376.0         0.43        769.8 
      1377.0         0.27        771.4 
      1378.0         0.23        760.3 
      1379.0         0.23        733.0 
      1380.0         3.25       1511.2 
      1381.0         0.37       1126.5 
      1382.0         0.30        907.9 
      1383.0         0.32        759.6 
      1384.0         0.30        633.6 
      1385.0         0.30        569.5 
      1386.0         0.43        563.2 
      1387.0         0.57        621.0 
      1388.0         0.43        646.7 
      1389.0         0.43        653.0 
      1390.0         0.23        659.4 
      1391.0         0.20        663.8 
      1392.0         0.28        667.6 
      1393.0         0.37        666.3 
      1394.0         0.23        659.0 
      1395.0         0.23        651.4 
      1396.0         0.23        639.4 
      1397.0         0.30        633.6 
      1398.0         0.37        636.5 
      1399.0         0.37        634.6 
      1400.0         0.27        526.4 
      1401.0         0.40        589.2 
      1402.0         0.42        734.9 
      1403.0         0.30        771.7 
      1404.0         0.63        777.1 
      1405.0         0.47        757.7 
      1406.0         0.40        736.8 
      1407.0         0.43        702.8 
      1408.0         0.37        611.4 
      1409.0         0.32        498.1 
      1410.0         2.60       1434.4 
      1411.0         0.32        953.9 
      1412.0         0.30        800.3 
      1413.0         0.40        681.3 
      1414.0         0.33        584.8 
      1415.0         0.33        602.2 
      1416.0         0.37        624.4 
      1417.0         0.33        639.4 
      1418.0         0.40        638.4 
      1419.0         0.42        620.0 
      1420.0         0.23        554.0 
      1421.0         0.30        533.4 
      1422.0         0.30        544.5 
      1423.0         0.20        566.4 
      1424.0         0.23        596.8 
      1425.0         0.23        621.6 
      1426.0         0.23        644.4 
      1427.0         0.27        654.9 
      1428.0         0.27        648.9 
      1429.0         0.43        628.6 
      1430.0         0.33        640.0 
      1431.0         0.35        644.4 
      1432.0         0.37        649.2 
      1433.0         0.37        650.8 
      1434.0         0.47        650.8 
      1435.0         0.30        638.1 
      1436.0         0.30        605.1 
      1437.0         0.40        546.4 
      1438.0         0.30        493.0 
      1439.0         0.33        469.6 
      1440.0         2.05       1268.4 
      1441.0         0.57       1111.9 
      1442.0         0.47        867.6 
      1443.0         0.45        727.9 
      1444.0         0.37        660.0 
      1445.0         0.17        660.6 
      1446.0         0.30        655.5 
      1447.0         0.30        622.5 
      1448.0         0.33        575.9 
      1449.0         0.23        537.8 
      1450.0         0.27        527.6 
      1451.0         0.27        519.4 
      1452.0         0.27        512.1 
      1453.0         0.27        510.8 
      1454.0         0.23        510.5 
      1455.0         0.22        509.9 
      1456.0         0.17        508.6 
      1457.0         0.20        508.0 
      1458.0         0.17        507.6 
      1459.0         0.23        507.6 
      1460.0         0.33        504.8 
      1461.0         0.40        499.7 
      1462.0         0.20        502.3 
      1463.0         0.40        503.5 
      1464.0         0.30        501.3 
      1465.0         0.33        500.7 
      1466.0         0.30        496.9 
      1467.0         0.42        498.4 
      1468.0         0.37        487.0 
      1469.0         0.27        457.8 
      1470.0         2.10       1222.4 
      1471.0         0.35       1077.3 
      1472.0         0.40        932.3 
      1473.0         0.40        794.9 
      1474.0         0.47        699.3 
      1475.0         0.40        673.3 
      1476.0         0.40        663.8 
      1477.0         0.33        621.3 
      1478.0         0.23        566.7 
      1479.0         0.27        543.5 
      1480.0         0.32        527.6 
      1481.0         0.23        522.2 
      1482.0         0.27        535.9 
      1483.0         0.23        561.6 
      1484.0         0.20        580.0 
      1485.0         0.17        595.6 
      1486.0         0.20        613.7 
      1487.0         0.17        628.9 
      1488.0         0.13        637.8 
      1489.0         0.20        646.0 
      1490.0         0.27        655.2 
      1491.0         0.27        659.4 
      1492.0         0.33        661.9 
      1493.0         0.40        665.4 
      1494.0         0.42        663.8 
      1495.0         0.27        658.1 
      1496.0         0.23        650.5 
      1497.0         0.23        642.9 
      1498.0         0.23        589.5 
      1499.0         0.40        528.9 
      1500.0         2.15       1259.5 
