~Version Information
VERS.                      2.0: CWLS Log ASCII Standard - VERSION 2.0
WRAP.                       NO: One line per depth step
~Well Information Block
STRT.FT                10.0000: 
STOP.FT              1665.0000: 
STEP.FT                 0.1000: 
NULL.                -999.2500: 
COMP.          Pioneer Natural Resources: COMPANY
WELL.          Stock Canyon 34-33: WELL
FLD.           Purgatorie River: FIELD
LOC.           980' FSL & 2191' FEL: LOCATION
PROV.                 Colorado: PROVINCE
CNTY.               Las Animas: COUNTRY
SRVC.                Patterson: SERVICE COMPANY
DATE.          Mon Dec 05 10:33:50 2005: LOG DATE
UWI.                          : UNIQUE WELL ID
~Curve Information Block
DEPT.FT            0 000 00 00: Depth
DCAL.in                       : CDL Caliper
RHOB.g/cc                     : CDL Bulk Density
RHOC.g/cc                     : CDL Density Correction
DPOR.pu                       : CDL Density Porosity
GR.GAPI                       : Gamma Ray
NPOR.pu                       : Neutron Porosity
~Parameter Information Block
~A  Depth       DCAL        RHOB        RHOC        DPOR         GR         NPOR    
# ...
   230.8000      2.7444      1.9953      1.8697     -0.0131     82.1764     21.2271
   230.9000      2.7444      1.9977      1.7981     -0.0131     82.1123     20.8130
   231.0000      2.7444      2.0151      1.8756     -0.0127     81.8376     21.3075
   231.1000      2.7444      2.0263      1.9676     -0.0125     82.5588     21.8463
   231.2000      2.7444      2.0163      1.9082     -0.0127     83.3372     22.0371
   231.3000      2.7444      2.0076      1.9172     -0.0129     81.8119     22.1519
   231.4000      2.7444      2.0124      1.9518     -0.0128     79.2263     22.0570
   231.5000      2.7444      2.0233      1.9147     -0.0125     79.5904     22.1007
   231.6000      2.7444      2.0374      1.9767     -0.0123     83.2062     22.6267
   231.7000      2.7444      2.0506      2.0134     -0.0120     86.9967     23.0081
   231.8000      2.7444      2.0640      1.9864     -0.0117     88.5271     22.8308
   231.9000      2.7444      2.0887      1.9975     -0.0112     87.2577     22.4705
   232.0000      2.7444      2.1248      2.0970     -0.0105     84.8959     22.2060
   232.1000      2.7444      2.1626      2.1101     -0.0098     83.4412     22.0936
   232.2000      2.7444      2.1894      2.1831     -0.0092     84.0627     21.9236
   232.3000      2.7444      2.1962      2.1057     -0.0091     85.6754     21.3766
   232.4000      2.7444      2.1949      2.1511     -0.0091     85.7565     20.7801
   232.5000      2.7444      2.2018      2.1356     -0.0090     84.2432     20.4805
   232.6000      2.7444      2.2176      2.1724     -0.0087     83.2475     20.4051
   232.7000      2.7444      2.2313      2.1777     -0.0084     85.4621     20.5520
   232.8000      2.7444      2.2387      2.1666     -0.0082     90.8916     20.9860
   232.9000      2.7444      2.2458      2.1886     -0.0081     94.5237     21.6187
   233.0000      2.7444      2.2511      2.2439     -0.0080     94.8794     22.2818
   233.1000      2.7444      2.2486      2.2351     -0.0080     95.5013     22.8655
   233.2000      2.7444      2.2427      2.1676     -0.0082     98.4164     23.2461
   233.3000      2.7444      2.2396      2.2119     -0.0082    101.7906     23.3610
   233.4000      2.7444      2.2370      2.2299     -0.0083    102.3341     23.4943
   233.5000      2.7444      2.2292      2.2276     -0.0084    101.4027     23.8601
   233.6000      2.7444      2.2139      2.2109     -0.0087    102.9441     24.2335
   233.7000      2.7444      2.1998      2.2032     -0.0090    106.5424     24.4218
   233.8000      2.7444      2.2019      2.1862     -0.0090    108.5842     24.3887
   233.9000      2.7444      2.2196      2.2438     -0.0086    106.7762     24.1520
   234.0000      2.7444      2.2394      2.2111     -0.0082    102.5756     23.8311
   234.1000      2.7444      2.2570      2.2286     -0.0079    100.5587     23.6304
   234.2000      2.7444      2.2650      2.2534     -0.0077    100.9680     23.7322
   234.3000      2.7444      2.2618      2.2108     -0.0078    100.1898     24.0440
   234.4000      2.7444      2.2640      2.2169     -0.0077     99.0133     24.3299
   234.5000      2.7444      2.2669      2.3030     -0.0077    100.0234     24.5359
   234.6000      2.7444      2.2557      2.2029     -0.0079    103.4357     24.7661
   234.7000      2.7444      2.2459      2.2309     -0.0081    107.3880     25.0969
   234.8000      2.7444      2.2499      2.2472     -0.0080    109.6504     25.3843
   234.9000      2.7444      2.2610      2.2304     -0.0078    110.1073     25.3209
   235.0000      2.7444      2.2761      2.2448     -0.0075    109.9523     24.8826
   235.1000      2.7444      2.2925      2.2616     -0.0072    109.7559     24.4062
   235.2000      2.7444      2.3013      2.2648     -0.0070    108.3504     24.1608
   235.3000      2.7444      2.2994      2.2539     -0.0070    106.0062     24.0065
   235.4000      2.7444      2.2916      2.2653     -0.0072    105.8282     23.9519
   235.5000      2.7444      2.2828      2.2401     -0.0073    107.4400     24.3210
   235.6000      2.7444      2.2795      2.2646     -0.0074    107.9446     24.8706
   235.7000      2.7444      2.2847      2.2760     -0.0073    109.1632     25.0188
   235.8000      2.7444      2.2914      2.2700     -0.0072    111.5651     24.8847
   235.9000      2.7444      2.2965      2.2769     -0.0071    110.6749     24.6784
   236.0000      2.7444      2.3007      2.2712     -0.0070    106.8882     24.1332
   236.1000      2.7444      2.2994      2.2591     -0.0070    103.9085     23.6302
   236.2000      2.7444      2.2889      2.2427     -0.0072    102.0860     23.8032
   236.3000      2.7444      2.2772      2.2193     -0.0075    101.6999     24.2737
   236.4000      2.7444      2.2756      2.2385     -0.0075    104.6610     24.6328
   236.5000      2.7444      2.2836      2.2533     -0.0073    110.2679     24.8758
   236.6000      2.7444      2.2933      2.2802     -0.0071    114.8403     24.7804
   236.7000      2.7444      2.2986      2.2360     -0.0070    114.9630     24.5066
   236.8000      2.7444      2.2988      2.2629     -0.0070    110.6493     24.4251
   236.9000      2.7444      2.2951      2.2537     -0.0071    105.6315     24.2005
   237.0000      2.7444      2.2883      2.2511     -0.0072    101.2040     23.5223
   237.1000      2.7444      2.2795      2.2511     -0.0074     98.7705     22.7767
   237.2000      2.7444      2.2736      2.2645     -0.0075    102.1579     22.3870
   237.3000      2.7444      2.2748      2.2145     -0.0075    109.9296     22.4118
   237.4000      2.7444      2.2800      2.2820     -0.0074    114.8595     22.7955
   237.5000      2.7444      2.2873      2.2307     -0.0073    113.7028     23.3733
   237.6000      2.7444      2.3013      2.2769     -0.0070    110.1177     23.9084
   237.7000      2.7444      2.3152      2.2875     -0.0067    107.2012     24.5690
   237.8000      2.7444      2.3156      2.2506     -0.0067    104.9972     25.4451
   237.9000      2.7444      2.3050      2.2429     -0.0069    104.2101     26.0844
   238.0000      2.7444      2.2953      2.2799     -0.0071    105.9403     26.3562
   238.1000      2.7444      2.2924      2.2467     -0.0072    109.7803     26.4462
   238.2000      2.7444      2.2994      2.2422     -0.0070    113.5152     26.4621
   238.3000      2.7444      2.3116      2.3033     -0.0068    115.5787     26.3772
   238.4000      2.7444      2.3140      2.2795     -0.0067    116.9189     26.0747
   238.5000      2.7444      2.2975      2.2889     -0.0071    117.8896     25.9211
   238.6000      2.7444      2.2678      2.2434     -0.0076    118.4180     26.0771
   238.7000      2.7444      2.2466      2.2253     -0.0081    119.7733     25.9856
   238.8000      2.7444      2.2509      2.2146     -0.0080    121.2215     25.5858
   238.9000      2.7444      2.2687      2.2601     -0.0076    119.7304     25.2609
   239.0000      2.7444      2.2769      2.2612     -0.0075    115.8041     24.9817
   239.1000      2.7444      2.2676      2.2686     -0.0077    112.4195     24.6832
   239.2000      2.7444      2.2473      2.2419     -0.0081    110.8260     24.7527
   239.3000      2.7444      2.2314      2.2040     -0.0084    110.8211     25.2721
   239.4000      2.7444      2.2312      2.2181     -0.0084    109.6992     25.5731
   239.5000      2.7444      2.2433      2.2241     -0.0081    106.0565     25.5674
   239.6000      2.7444      2.2572      2.2343     -0.0079    102.8675     25.8656
   239.7000      2.7444      2.2692      2.2521     -0.0076    100.8523     26.3051
   239.8000      2.7444      2.2851      2.2569     -0.0073     98.9563     26.0965
   239.9000      2.7444      2.3031      2.3026     -0.0069     97.7522     25.3613
   240.0000      2.7444      2.3138      2.2877     -0.0067     97.1875     24.8198
   240.1000      2.7444      2.3124      2.3024     -0.0068     96.1829     24.6919
   240.2000      2.7444      2.2964      2.2644     -0.0071     95.8229     24.6932
   240.3000      2.7444      2.2806      2.2402     -0.0074     97.6725     24.5006
