~Version Information
VERS.                      2.0: CWLS Log ASCII Standard - VERSION 2.0
WRAP.                       NO: One line per depth step
~Well Information Block
STRT.FT                -1.5000: 
STOP.FT              2898.5000: 
STEP.FT                 0.2500: 
NULL.                -999.2500: 
COMP.          Pioneer Natural Resources: COMPANY
WELL.          Hanginstone 21-27: WELL
FLD.           Purgatoire River: FIELD
LOC.           1186' FNL & 1606' FWL--: LOCATION
PROV.                 Colorado: PROVINCE
CNTY.               Las Animas: COUNTRY
SRVC.                Patterson: SERVICE COMPANY
DATE.          Mon Jan 23 11:03:53 2006: LOG DATE
UWI.           05 071 08632 00: UNIQUE WELL ID
~Curve Information Block
DEPT.FT            0 000 00 00: Depth
CCL.                          : Casing Collar Locator
TT3.usec                      : CBL 3' Travel Time
AMP3.mV                       : CBL 3' Amplitude
GR.GAPI                       : Gamma Ray
~Parameter Information Block
~A  Depth       CCL         TT3         AMP3         GR     
# ...
  2511.0000      0.0000    590.9828      5.4044     88.9224
  2511.2500      0.0000    611.6837      5.4480     78.5426
  2511.5000      0.0000    635.4122      5.5042     69.5522
  2511.7500      0.0000    658.6938      5.5758     62.5003
  2512.0000      0.0000    677.3385      5.6628     57.3567
  2512.2500      0.0000    689.1013      5.7478     53.4705
  2512.5000      0.0000    694.5119      5.8052     50.2414
  2512.7500      0.0000    695.2144      5.8215     47.9182
  2513.0000      0.0000    692.4124      5.7991     47.1191
  2513.2500      0.0000    687.0959      5.7461     47.5711
  2513.5000      0.0000    681.1691      5.6727     48.0937
  2513.7500      0.0000    677.3877      5.5913     47.9549
  2514.0000      0.0000    677.6656      5.5179     47.6064
  2514.2500      0.0000    681.6379      5.4734     47.9231
  2514.5000      0.0000    687.1826      5.4714     49.0411
  2514.7500      0.0000    692.0912      5.4980     49.9664
  2515.0000      0.0000    695.1888      5.5201     49.3491
  2515.2500      0.0000    696.1295      5.5124     46.9631
  2515.5000      0.0000    694.3421      5.4678     44.4397
  2515.7500      0.0000    687.8762      5.3982     44.1635
  2516.0000      0.0000    673.3826      5.3293     47.2409
  2516.2500      0.0000    648.2565      5.2843     52.5754
  2516.5000      0.0000    613.6998      5.2717     57.8944
  2516.7500      0.0000    575.4219      5.2875     61.5956
  2517.0000      0.0000    540.6562      5.3209     63.5675
  2517.2500      0.0000    513.8541      5.3635     64.3721
  2517.5000      0.0000    493.8082      5.4113     64.0716
  2517.7500      0.0000    474.5168      5.4567     62.2304
  2518.0000      0.0000    450.8371      5.4942     58.9212
  2518.2500      0.0000    423.9452      5.5274     55.2184
  2518.5000      0.0000    400.0668      5.5540     52.4124
  2518.7500      0.0000    384.5865      5.5606     50.8660
  2519.0000      0.0000    378.4090      5.5450     49.9116
  2519.2500      0.0000    378.4103      5.5211     48.8484
  2519.5000      0.0000    379.8406      5.5004     47.7146
  2519.7500      0.0000    378.8789      5.4869     46.9651
  2520.0000      0.0000    374.3592      5.4875     46.8243
  2520.2500      0.0000    367.7226      5.5115     47.2058
  2520.5000      0.0000    361.4223      5.5636     47.8552
  2520.7500      0.0000    357.2606      5.6350     48.3100
  2521.0000      0.0000    355.8986      5.7062     48.1591
  2521.2500      0.0000    357.4442      5.7687     47.6102
  2521.5000      0.0000    361.8750      5.8306     47.4578
  2521.7500      0.0000    368.6811      5.8998     48.1814
  2522.0000      0.0000    376.4646      5.9757     49.2550
  2522.2500      0.0000    383.6505      6.0472     49.6601
  2522.5000      0.0000    390.0556      6.0880     48.9970
  2522.7500      0.0000    397.9059      6.0714     47.7586
  2523.0000      0.0000    410.8268      5.9912     46.4552
  2523.2500      0.0000    430.6442      5.8513     44.8558
  2523.5000      0.0000    454.9512      5.6564     42.4549
  2523.7500      0.0000    479.5591      5.4372     39.5505
  2524.0000      0.0000    503.4937      5.2521     37.4332
  2524.2500      0.0000    527.5970      5.1365     37.2858
  2524.5000      0.0000    546.9155      5.0752     39.0148
  2524.7500      0.0000    550.5876      5.0379     41.3688
  2525.0000      0.0000    534.3776      5.0177     43.1158
  2525.2500      0.0000    510.4281      5.0244     43.9704
  2525.5000      0.0000    499.8091      5.0559     44.5676
  2525.7500      0.0000    514.5287      5.0901     45.8691
  2526.0000      0.0000    547.2839      5.1072     48.6136
  2526.2500      0.0000    578.1305      5.1083     52.9372
  2526.5000      0.0000    590.6949      5.1031     58.1626
  2526.7500      0.0000    582.8792      5.0899     63.1557
  2527.0000      0.0000    564.2391      5.0540     67.2416
  2527.2500      0.0000    546.3914      4.9841     70.7369
  2527.5000      0.0000    537.4174      4.8757     74.3518
  2527.7500      0.0000    542.2010      4.7169     78.2397
  2528.0000      0.0000    562.7393      4.4902     81.9842
  2528.2500      0.0000    595.9736      4.2067     85.1940
  2528.5000      0.0000    633.6038      3.9315     87.5277
  2528.7500      0.0000    666.8488      3.7546     88.4617
  2529.0000      0.0000    691.7989      3.7150     87.8006
  2529.2500      0.0000    709.4213      3.7624     86.2888
  2529.5000      0.0000    721.3997      3.8152     84.9186
  2529.7500      0.0000    727.9355      3.8468     83.6442
  2530.0000      0.0000    729.4374      3.8860     81.4629
  2530.2500      2.0000    728.0789      3.9478     77.9425
  2530.5000      2.0000    726.2709      4.0019     74.1331
  2530.7500     -2.0000    724.3329      4.0173     71.7012
  2531.0000      0.0000    720.6824      4.0164     71.4111
  2531.2500      0.0000    713.9711      4.0659     72.6108
  2531.5000      0.0000    704.0932      4.2124     73.9811
  2531.7500      0.0000    690.3076      4.4297     74.6535
  2532.0000      0.0000    668.5728      4.6432     74.8327
  2532.2500      0.0000    632.9966      4.8167     75.3759
  2532.5000      0.0000    582.8513      4.9921     76.4512
  2532.7500      0.0000    528.2857      5.2287     76.6996
  2533.0000      0.0000    485.7419      5.5272     74.4759
  2533.2500      0.0000    465.0338      5.8310     70.0416
  2533.5000      0.0000    461.0745      6.0820     65.7765
  2533.7500      0.0000    459.3547      6.2564     63.9850
  2534.0000      0.0000    449.6434      6.3603     65.1284
  2534.2500      0.0000    433.8303      6.4112     68.2813
  2534.5000      0.0000    421.8515      6.4242     72.4210
  2534.7500      0.0000    423.0689      6.4076     76.8750
  2535.0000      0.0000    441.1631      6.3674     81.1802
  2535.2500      0.0000    472.8139      6.3136     85.2134
  2535.5000      0.0000    509.2476      6.2612     89.4163
  2535.7500      0.0000    541.3815      6.2268     94.3547
  2536.0000      0.0000    565.2661      6.2220     99.7603
  2536.2500      0.0000    582.3480      6.2423    104.2759
  2536.5000      0.0000    595.2780      6.2607    106.5512
  2536.7500      0.0000    605.0302      6.2421    106.4892
  2537.0000      0.0000    611.3895      6.1709    105.0925
  2537.2500      0.0000    614.2932      6.0640    103.3166
  2537.5000      0.0000    613.8734      5.9572    101.5026
  2537.7500      0.0000    609.9973      5.8767     99.4795
  2538.0000      0.0000    602.5947      5.8234     96.5429
  2538.2500      0.0000    592.4373      5.7801     91.7059
  2538.5000      0.0000    580.6744      5.7310     84.7305
  2538.7500      0.0000    566.7780      5.6758     76.7356
  2539.0000      0.0000    547.6799      5.6271     69.3074
  2539.2500      0.0000    520.6962      5.5984     63.2626
  2539.5000      0.0000    487.8322      5.5956     58.5850
  2539.7500      0.0000    455.8947      5.6177     55.1976
  2540.0000      0.0000    431.5195      5.6606     53.4015
  2540.2500      0.0000    416.9526      5.7176     53.5326
  2540.5000      0.0000    410.8782      5.7811     55.1969
  2540.7500      0.0000    412.0515      5.8442     56.9800
  2541.0000      0.0000    420.7163      5.9019     57.2270
  2541.2500      0.0000    436.0625      5.9504     55.2708
  2541.5000      0.0000    453.3407      5.9863     51.8469
  2541.7500      0.0000    466.8646      6.0049     48.3878
  2542.0000      0.0000    478.0171      6.0008     46.0378
  2542.2500      0.0000    496.9364      5.9744     45.1602
  2542.5000      0.0000    531.5253      5.9383     45.4741
  2542.7500      0.0000    575.6044      5.9139     46.5824
  2543.0000      0.0000    611.9164      5.9192     48.3839
  2543.2500      0.0000    627.6799      5.9586     50.9089
  2543.5000      0.0000    625.7663      6.0169     53.7335
  2543.7500      0.0000    620.3452      6.0647     55.7355
  2544.0000      0.0000    622.7451      6.0722     55.7579
  2544.2500      0.0000    632.5695      6.0208     53.5780
