~Version Information
VERS.                      2.0: CWLS Log ASCII Standard - VERSION 2.0
WRAP.                       NO: One line per depth step
~Well Information Block
STRT.FT                 0.0000: 
STOP.FT               683.5000: 
STEP.FT                 0.2500: 
NULL.                -999.2500: 
COMP.          Pioneer Natural Resources: COMPANY
WELL.           Belvedere 14-7: WELL
FLD.           Purgatorie River: FIELD
LOC.           786' FSL & 1283' FWL: LOCATION
PROV.                 Colorado: PROVINCE
CNTY.               Las Animas: COUNTRY
SRVC.                Patterson: SERVICE COMPANY
DATE.          Fri Dec 02 12:52:31 2005: LOG DATE
UWI.           05-071-08557               : UNIQUE WELL ID
~Curve Information Block
DEPT.FT            0 000 00 00: Depth
CCL.                          : Casing Collar Locator
TT3.usec                      : CBL 3' Travel Time
AMP3.mV                       : CBL 3' Amplitude
GR.GAPI                       : Gamma Ray
~Parameter Information Block
~A  Depth       CCL         TT3         AMP3         GR     
# ...
   100.5000      0.0000    727.7963     12.6878     62.8801
   100.7500      0.0000    727.8379     12.6564     62.7148
   101.0000      0.0000    727.9020     12.6420     62.7415
   101.2500      0.0000    727.9948     12.5755     61.7514
   101.5000      0.0000    728.0958     12.4006     58.9538
   101.7500      0.0000    728.1915     12.1501     54.5702
   102.0000      0.0000    728.2422     11.9185     49.6489
   102.2500      0.0000    728.1705     11.7506     45.4709
   102.5000      0.0000    727.9614     11.5863     43.0382
   102.7500      0.0000    727.5148     11.3529     42.7753
   103.0000      0.0000    726.1614     11.0765     44.4240
   103.2500      0.0000    722.8423     10.8520     47.1512
   103.5000      0.0000    718.1716     10.7235     49.8623
   103.7500      0.0000    715.5036     10.6500     51.6828
   104.0000      0.0000    716.3286     10.5846     52.4999
   104.2500      0.0000    716.4111     10.5379     53.0699
   104.5000      0.0000    711.7712     10.5607     54.2953
   104.7500      0.0000    706.0010     10.6758     56.2192
   105.0000      0.0000    706.2375     10.8262     57.9497
   105.2500      0.0000    713.2866     10.9293     58.6750
   105.5000      0.0000    721.3020     10.9646     58.4972
   105.7500      0.0000    725.9592     10.9594     58.2201
   106.0000      0.0000    727.5535     10.9383     58.6380
   106.2500      0.0000    727.8755     10.9091     60.0968
   106.5000      0.0000    727.8962     10.8669     62.5452
   106.7500      0.0000    727.5764     10.8129     65.8527
   107.0000      0.0000    725.9075     10.7625     70.0939
   107.2500      0.0000    720.9286     10.7281     75.5150
   107.5000      0.0000    711.3950     10.7164     82.1017
   107.7500      0.0000    699.6080     10.7383     89.0227
   108.0000      0.0000    690.4289     10.8030     94.6011
   108.2500      0.0000    686.7876     10.8910     97.2336
   108.5000      0.0000    688.3752     10.9488     96.5854
   108.7500      0.0000    692.5591     10.9337     93.7181
   109.0000      0.0000    694.7841     10.8592     90.0278
   109.2500      0.0000    692.3759     10.7924     86.2870
   109.5000      0.0000    687.8675     10.8159     82.6498
   109.7500      0.0000    685.1230     10.9589     79.1983
   110.0000      0.0000    685.6456     11.1541     76.3181
   110.2500      0.0000    690.2523     11.3012     74.5850
   110.5000      0.0000    699.5464     11.3762     74.3529
   110.7500      0.0000    711.1909     11.4124     75.5878
   111.0000      0.0000    720.5641     11.3844     78.0449
   111.2500      0.0000    725.3822     11.2468     81.2291
   111.5000      0.0000    726.8974     11.0740     84.3878
   111.7500      0.0000    727.1357     11.0068     87.1574
   112.0000      0.0000    727.1740     11.1078     90.0760
   112.2500      0.0000    727.2751     11.3638     93.7850
   112.5000      0.0000    727.3909     11.7004     97.7267
   112.7500      0.0000    727.4611     11.9687    100.1657
   113.0000      0.0000    727.4635     12.0754     99.6172
   113.2500      0.0000    727.3743     12.0835     96.0256
   113.5000      0.0000    727.2287     12.0804     90.7107
   113.7500      0.0000    727.1499     12.0468     85.4633
   114.0000      0.0000    727.1793     11.9352     81.5297
   114.2500      0.0000    727.0469     11.7882     79.0776
   114.5000      0.0000    725.9464     11.6669     77.5182
   114.7500      0.0000    722.7941     11.5389     76.2488
   115.0000      0.0000    718.1872     11.3583     74.8717
   115.2500      0.0000    715.6869     11.1831     72.8913
   115.5000      0.0000    717.8093     11.1223     69.7771
   115.7500      0.0000    722.2335     11.2170     65.6141
   116.0000      0.0000    725.3784     11.3967     61.4983
   116.2500      0.0000    725.9663     11.5461     59.0043
   116.5000      0.0000    722.5952     11.6267     59.2063
   116.7500      0.0000    710.3998     11.6899     62.2386
   117.0000      0.0000    682.9594     11.7872     67.5666
   117.2500      0.0000    639.8727     11.9204     74.3644
   117.5000      0.0000    592.1140     12.0620     81.6535
   117.7500      0.0000    553.3226     12.2062     88.4529
   118.0000      0.0000    524.5799     12.3671     94.0844
   118.2500      0.0000    507.3176     12.4430     98.2939
   118.5000      0.0000    521.5945     12.2224    100.9764
   118.7500      0.0000    576.8503     11.7840    101.8801
   119.0000      0.0000    647.3351     11.5278    100.7595
   119.2500      0.0000    694.7938     11.6207     97.8348
   119.5000      0.0000    701.2980     11.9425     94.0789
   119.7500      2.0000    683.6039     12.4080     91.0215
   120.0000     -2.0000    668.4603     12.9927     90.0605
   120.2500      0.0000    651.9051     13.6815     91.6638
   120.5000      0.0000    607.2825     14.4986     95.0628
   120.7500      0.0000    534.3617     15.5121     98.6517
   121.0000      0.0000    465.4838     16.6338    100.7161
   121.2500      0.0000    421.0288     17.4461    100.0828
   121.5000      0.0000    390.6130     17.8721     96.6930
   121.7500      0.0000    359.2534     18.5772     91.8457
   122.0000      0.0000    330.1754     19.8041     87.4529
   122.2500      0.0000    312.8138     20.9400     84.6889
   122.5000      0.0000    306.4952     21.6031     83.4831
   122.7500      0.0000    305.0877     21.9551     83.1151
   123.0000      0.0000    304.8652     22.1710     82.8457
   123.2500      0.0000    304.7634     22.3111     82.1121
   123.5000      0.0000    304.6285     22.4398     80.7541
   123.7500      0.0000    304.5115     22.5701     79.1971
   124.0000      0.0000    304.5131     22.5960     78.0890
   124.2500      0.0000    304.6681     22.3883     77.6153
   124.5000      0.0000    304.9158     21.9530     77.2866
   124.7500      0.0000    305.1608     21.4695     76.3719
   125.0000      0.0000    305.3432     21.1419     74.5823
   125.2500      0.0000    305.4571     21.0260     72.4868
   125.5000      0.0000    305.5293     21.0231     71.1720
   125.7500      0.0000    305.5876     21.0127     71.2735
   126.0000      0.0000    305.6474     20.9829     72.3249
   126.2500      0.0000    305.7278     21.0308     73.0927
   126.5000      0.0000    305.8296     21.2158     72.5897
   126.7500      0.0000    305.9030     21.4364     70.8362
   127.0000      0.0000    305.9235     21.5039     68.6782
   127.2500      0.0000    305.9649     21.3579     66.8338
   127.5000      0.0000    306.0781     21.1463     65.2151
   127.7500      0.0000    306.1801     21.0390     63.2567
   128.0000      0.0000    306.1920     21.0502     60.8078
   128.2500      0.0000    306.1493     21.0972     58.6090
   128.5000      0.0000    306.0864     21.1342     57.8434
   128.7500      0.0000    305.9874     21.1646     59.0247
   129.0000      0.0000    305.8764     21.1748     61.2418
   129.2500      0.0000    305.8612     21.1214     62.7455
   129.5000      0.0000    306.3283     20.9605     62.4434
   129.7500      0.0000    309.3606     20.6509     60.7954
   130.0000      0.0000    321.8482     20.1897     59.4161
   130.2500      0.0000    353.7092     19.6837     59.9528
   130.5000      0.0000    400.5456     19.3024     63.0020
   130.7500      0.0000    435.0711     19.1155     67.7585
   131.0000      0.0000    444.1251     19.0510     72.6827
   131.2500      0.0000    447.2040     19.0172     76.4690
   131.5000      0.0000    453.1774     18.9747     78.5380
   131.7500      0.0000    461.5634     18.8958     79.2303
   132.0000      0.0000    489.6232     18.7425     79.8310
   132.2500      0.0000    524.4181     18.5042     81.8799
   132.5000      0.0000    512.6252     18.2243     85.9303
   132.7500      0.0000    444.0348     17.9722     91.0149
   133.0000      0.0000    369.1381     17.7979     95.3455
   133.2500      0.0000    326.2436     17.7250     97.4113
   133.5000      0.0000    311.5396     17.7614     96.7650
   133.7500      0.0000    308.4196     17.8908     94.4383
