~Version Information
 VERS.                                  2.0 : CWLS LAS VERSION
 WRAP.                                   NO : WRAPING MODE
 SWARE .                 MController 2.5.0J : SOFTWARE VERSION
~Well Information
 WELL.                     Hemisphere 32-24 : WELL
 COMP.    Pioneer Natural Resources USA Inc : COMPANY
 FLD.                      Purgatoire River : FIELD
 LOC.                 SE/SW Sec 24 T33 R67W : LOCATION
 DATE.                             08/14/05 : DATE(S) LOGGED
 SRVC.       BLANCO Geological Services LLC : SERVICE COMPANY
 STAT.                                   CO : STATE
 CNTY.                           Las Animas : COUNTY
 CTRY.                                  USA : COUNTRY
 API.                       05-071-08440-00 : API NUMBER
 STRT.FT                             399.00 : START DEPTH
 STOP.FT                            2171.00 : STOP DEPTH
 STEP.FT                               1.00 : DEPTH INCREMENT
 NULL.                                -9999 : NULL VALUE
~Curve information
 DEPTH.FT                                   :
 ROP.MIN/FT                                 :
 GAS.UNITS                                  :
~ASCII Log data
# ...
      1999.0         0.20         64.0 
      2000.0         0.17         64.0 
      2001.0         0.20         74.9 
      2002.0         0.27         76.1 
      2003.0         0.23         73.6 
      2004.0         0.53         71.9 
      2005.0         0.72         66.9 
      2006.0         5.58        112.6 
      2007.0         0.73         57.5 
      2008.0         0.48         51.2 
      2009.0         0.23         46.7 
      2010.0         0.30         45.4 
      2011.0         0.27         43.3 
      2012.0         0.20         42.7 
      2013.0         0.20         41.7 
      2014.0         0.17         41.7 
      2015.0         0.27         41.9 
      2016.0         0.23         42.4 
      2017.0         0.13         43.1 
      2018.0         0.30         48.4 
      2019.0         0.30         54.6 
      2020.0         0.33         58.6 
      2021.0         0.28         59.1 
      2022.0         0.10         55.3 
      2023.0         0.10         55.3 
      2024.0         0.23         51.7 
      2025.0         0.27         55.1 
      2026.0         0.27         61.6 
      2027.0         0.27         73.7 
      2028.0         0.23         74.2 
      2029.0         0.10         71.6 
      2030.0         0.27         68.7 
      2031.0         0.23         67.6 
      2032.0         0.20         74.4 
      2033.0         0.53         76.0 
      2034.0         0.62         52.8 
      2035.0         0.10         45.0 
      2036.0         2.23         93.1 
      2037.0         0.60         83.1 
      2038.0         0.55         83.3 
      2039.0         0.40         73.5 
      2040.0         0.40         65.6 
      2041.0         0.40         58.8 
      2042.0         0.33         51.6 
      2043.0         0.37         48.9 
      2044.0         0.33         44.4 
      2045.0         0.30         44.4 
      2046.0         0.33         43.3 
      2047.0         0.35         43.6 
      2048.0         0.33         45.8 
      2049.0         0.37         46.4 
      2050.0         0.47         45.5 
      2051.0         0.40         45.2 
      2052.0         0.23         44.5 
      2053.0         0.23         43.8 
      2054.0         0.23         44.4 
      2055.0         0.27         43.8 
      2056.0         0.27         44.9 
      2057.0         0.30         45.7 
      2058.0         0.48         45.7 
      2059.0         0.33         45.5 
      2060.0         0.30         45.6 
      2061.0         0.33         43.3 
      2062.0         0.30         43.9 
      2063.0         0.13         43.9 
      2064.0         0.43         44.2 
      2065.0         0.63         41.6 
      2066.0         2.92        103.8 
      2067.0         0.30         70.4 
      2068.0         0.33         62.8 
      2069.0         0.35         56.0 
      2070.0         0.37         50.6 
      2071.0         0.33         50.2 
      2072.0         0.30         48.3 
      2073.0         0.33         47.0 
      2074.0         0.30         43.1 
      2075.0         0.30         42.6 
      2076.0         0.30         43.0 
      2077.0         0.30         43.6 
      2078.0         0.27         43.0 
      2079.0         0.30         44.2 
      2080.0         0.32         44.5 
      2081.0         0.30         44.7 
      2082.0         0.33         44.8 
      2083.0         0.33         44.3 
      2084.0         0.40         44.3 
      2085.0         0.33         44.9 
      2086.0         0.33         44.8 
      2087.0         0.33         44.3 
      2088.0         0.33         44.5 
      2089.0         0.62         44.4 
      2090.0         0.13         43.2 
      2091.0         0.10         44.1 
      2092.0         0.30         43.9 
      2093.0         0.60         37.4 
      2094.0         0.13         29.8 
      2095.0         0.10         29.8 
      2096.0         1.80         88.1 
      2097.0         0.38         91.8 
      2098.0         0.43         92.8 
      2099.0         0.47         79.4 
      2100.0         0.40         66.0 
      2101.0         0.43         56.6 
      2102.0         0.40         48.6 
      2103.0         0.43         45.0 
      2104.0         0.45         43.7 
      2105.0         0.43         42.0 
      2106.0         0.40         41.5 
      2107.0         0.40         40.7 
      2108.0         0.40         39.9 
      2109.0         0.40         39.7 
      2110.0         0.37         38.5 
      2111.0         0.37         38.4 
      2112.0         0.40         38.3 
      2113.0         0.38         38.4 
      2114.0         0.37         39.1 
      2115.0         0.33         40.3 
      2116.0         0.40         41.2 
      2117.0         0.37         41.8 
      2118.0         0.37         41.7 
      2119.0         0.57         42.4 
      2120.0         0.47         41.2 
      2121.0         0.52         39.7 
      2122.0         0.40         39.1 
      2123.0         0.43         40.2 
      2124.0         0.47         41.1 
      2125.0         0.20         41.1 
      2126.0         2.65         55.4 
      2127.0         0.57         87.7 
      2128.0         0.53        100.9 
      2129.0         0.43         94.4 
      2130.0         0.47         77.7 
      2131.0         0.42         63.2 
      2132.0         0.40         53.7 
      2133.0         0.33         49.8 
      2134.0         0.33         49.9 
      2135.0         0.37         50.2 
      2136.0         0.37         49.2 
      2137.0         0.33         49.5 
      2138.0         0.37         49.4 
      2139.0         0.30         49.0 
      2140.0         0.37         49.4 
      2141.0         0.32         48.8 
      2142.0         0.30         48.5 
      2143.0         0.33         48.0 
      2144.0         0.33         50.5 
      2145.0         0.30         53.1 
      2146.0         0.47         53.2 
      2147.0         0.30         51.6 
      2148.0         0.40         49.1 
      2149.0         0.30         48.2 
      2150.0         0.38         48.6 
      2151.0         0.30         48.7 
      2152.0         0.37         48.7 
      2153.0         0.43         48.5 
      2154.0         0.37         47.9 
      2155.0         0.07         47.7 
      2156.0         1.17         47.5 
      2157.0         0.65         40.2 
      2158.0         0.70         60.2 
      2159.0         0.43         92.7 
      2160.0         0.50        112.7 
      2161.0         0.43        107.2 
      2162.0         0.50         99.4 
      2163.0         0.40         69.9 
      2164.0         0.48         62.4 
      2165.0         0.57         56.1 
      2166.0         0.43         51.6 
      2167.0         0.30         48.2 
      2168.0         0.43         47.6 
      2169.0         0.37         46.4 
      2170.0         0.33         45.3 
      2171.0         5.13      -9999.0 
