~Version Information
VERS.                      2.0: CWLS Log ASCII Standard - VERSION 2.0
WRAP.                       NO: One line per depth step
~Well Information Block
STRT.FT               400.0000: 
STOP.FT              1577.5000: 
STEP.FT                 0.1000: 
NULL.                -999.2500: 
COMP.          Pioneer Natural Resources: COMPANY
WELL.          Lorencito 10-36-33-67: WELL
FLD.           Purgatoire River: FIELD
LOC.           2130' FSL & 2362' FEL: LOCATION
STAT.                 Colorado: State
CNTY.               Las Animas: COUNTY
CTRY. USA : Country
SECT. 36 : Section
TOWN. 33S : Township
RANG. 67W : Range
SRVC.                Patterson: SERVICE COMPANY
DATE.          Mon Aug 29 07:03:31 2005: LOG DATE
API.           05 071 08501 00: UNIQUE WELL ID
~Curve Information Block
DEPT.FT            0 000 00 00: Depth
DCAL.in                       : CDL Caliper
RHOB.g/cc                     : CDL Bulk Density
RHOC.g/cc                     : CDL Density Correction
DPOR.pu                       : CDL Density Porosity
GR.GAPI                       : Gamma Ray
NPOR.pu                       : Neutron Porosity
~Parameter Information Block
~A  Depth       DCAL        RHOB        RHOC        DPOR         GR         NPOR    
# ...
  1484.8000      7.9027      2.8553      0.0186    -12.4407    416.8119     26.8760
  1484.9000      7.9027      2.8292      0.0263    -10.8619    385.4825     26.6681
  1485.0000      7.8880      2.8077      0.0110     -9.5562    351.8675     26.2670
  1485.1000      7.8880      2.7824     -0.0008     -8.0259    318.8494     26.0004
  1485.2000      7.8880      2.7409      0.0304     -5.5108    280.5513     25.8902
  1485.3000      7.8891      2.6927     -0.0362     -2.5850    244.3084     25.7278
  1485.4000      7.8891      2.6660     -0.0461     -0.9719    213.7568     25.7673
  1485.5000      7.8949      2.6746     -0.0398     -1.4930    183.1131     26.2303
  1485.6000      7.8949      2.7032      0.0406     -3.2233    155.3516     26.6012
  1485.7000      7.8949      2.7274      0.0565     -4.6889    138.2186     26.3993
  1485.8000      7.9062      2.7398      0.0730     -5.4448    127.8388     25.7459
  1485.9000      7.9062      2.7385      0.1145     -5.3642    115.1501     25.0977
  1486.0000      7.9126      2.7207      0.1094     -4.2871    101.2499     24.4766
  1486.1000      7.9126      2.6940      0.0696     -2.6677     90.1610     23.3612
  1486.2000      7.9126      2.6593      0.1098     -0.5636     80.5919     21.8539
  1486.3000      7.9037      2.6071      0.0227      2.5984     72.8562     20.8520
  1486.4000      7.9037      2.5532      0.0252      5.8695     70.4024     20.4319
  1486.5000      7.9139      2.5313     -0.0369      7.1946     71.4871     20.1355
  1486.6000      7.9139      2.5414      0.0906      6.5825     71.5402     20.1648
  1486.7000      7.9139      2.5434      0.0904      6.4582     68.5354     20.1208
  1486.8000      7.9267      2.5191      0.0751      7.9354     61.4597     19.3996
  1486.9000      7.9267      2.4907     -0.0131      9.6562     54.8553     18.4217
  1487.0000      7.9329      2.4773      0.0156     10.4692     53.0054     18.0718
  1487.1000      7.9329      2.4739     -0.0090     10.6713     52.7828     18.3988
  1487.2000      7.9329      2.4704      0.0527     10.8847     53.2786     18.5932
  1487.3000      7.9370      2.4574      0.0600     11.6709     55.4314     18.2920
  1487.4000      7.9370      2.4371      0.0136     12.9010     55.5701     18.0770
  1487.5000      7.9400      2.4296      0.0022     13.3560     51.2398     18.0496
  1487.6000      7.9400      2.4405      0.0423     12.6997     47.8180     17.3647
  1487.7000      7.9400      2.4554     -0.0088     11.7934     52.0391     15.9777
  1487.8000      7.9716      2.4722      0.0210     10.7783     59.9483     15.1075
  1487.9000      7.9716      2.4903      0.0551      9.6814     65.6871     15.4469
  1488.0000      7.9727      2.4993      0.0536      9.1332     70.4098     16.2451
  1488.1000      7.9727      2.5007      0.0111      9.0485     72.5340     16.7594
  1488.2000      7.9727      2.5025      0.0033      8.9414     68.4270     17.0489
  1488.3000      7.9757      2.4982     -0.0004      9.1998     61.9013     17.2628
  1488.4000      7.9757      2.4828      0.0207     10.1349     60.5681     17.4454
  1488.5000      7.9756      2.4689      0.0188     10.9746     66.1264     17.6825
  1488.6000      7.9756      2.4663     -0.0064     11.1337     72.6961     17.9330
  1488.7000      7.9756      2.4714      0.0198     10.8228     73.3567     18.2356
  1488.8000      7.9848      2.4774      0.0049     10.4608     68.4962     18.4127
  1488.9000      7.9848      2.4795      0.0359     10.3359     64.8219     18.2178
  1489.0000      7.9866      2.4793      0.0073     10.3464     64.2682     17.9670
  1489.1000      7.9866      2.4843      0.0292     10.0413     64.5135     17.9248
  1489.2000      7.9866      2.4925      0.0615      9.5454     64.0513     18.1762
  1489.3000      7.9865      2.4921      0.0438      9.5725     63.9845     18.6286
  1489.4000      7.9865      2.4784      0.0636     10.3993     66.8813     18.9192
  1489.5000      7.9858      2.4631      0.0150     11.3298     69.8094     18.8144
  1489.6000      7.9858      2.4577      0.0593     11.6569     68.9117     18.3099
  1489.7000      7.9858      2.4602      0.0350     11.5010     66.6711     17.7190
  1489.8000      7.9868      2.4655      0.0397     11.1794     66.8149     17.4193
  1489.9000      7.9868      2.4682      0.0399     11.0185     70.5721     17.7031
  1490.0000      7.9819      2.4674      0.0474     11.0640     74.4797     18.3964
  1490.1000      7.9819      2.4742      0.0259     10.6528     74.3270     18.4910
  1490.2000      7.9819      2.4825      0.0771     10.1520     70.7509     17.7343
  1490.3000      7.9838      2.4641      0.0583     11.2658     66.5892     16.8389
  1490.4000      7.9838      2.4230      0.0072     13.7558     63.6296     16.1637
  1490.5000      7.9789      2.4002     -0.0079     15.1384     62.1749     15.9641
  1490.6000      7.9789      2.4074      0.0211     14.7031     60.9715     16.4653
  1490.7000      7.9789      2.4163      0.0293     14.1632     59.6473     17.1398
  1490.8000      7.9756      2.4137      0.0056     14.3203     59.4516     17.1101
  1490.9000      7.9756      2.4135     -0.0084     14.3310     61.2442     16.6735
  1491.0000      7.9865      2.4264     -0.0146     13.5493     63.9765     16.8213
  1491.1000      7.9865      2.4495      0.0353     12.1545     65.1284     17.4831
  1491.2000      7.9865      2.4714      0.0227     10.8249     64.4266     17.8875
  1491.3000      7.9887      2.4817      0.0659     10.1986     66.3053     17.9466
  1491.4000      7.9887      2.4738      0.0549     10.6764     71.3903     17.9318
  1491.5000      7.9842      2.4504      0.0493     12.0988     72.3064     18.0373
  1491.6000      7.9842      2.4271     -0.0208     13.5095     66.4625     18.5142
  1491.7000      7.9842      2.4205      0.0035     13.9119     61.8393     19.0325
  1491.8000      7.9862      2.4296     -0.0206     13.3557     61.6352     19.3319
  1491.9000      7.9862      2.4402      0.0311     12.7150     61.8302     19.6080
  1492.0000      7.9775      2.4356      0.0516     12.9927     63.5974     19.5432
  1492.1000      7.9775      2.4160     -0.0225     14.1814     68.0881     19.0030
  1492.2000      7.9775      2.4050     -0.0299     14.8488     70.2929     18.8178
  1492.3000      7.9732      2.4164      0.0064     14.1583     68.2016     19.5153
  1492.4000      7.9732      2.4371      0.0526     12.9015     65.3756     19.9163
  1492.5000      7.9899      2.4513      0.0219     12.0433     64.5879     18.7575
  1492.6000      7.9899      2.4513      0.0700     12.0439     64.7166     16.9531
  1492.7000      7.9899      2.4394     -0.0153     12.7626     61.7953     15.9641
  1492.8000      7.9865      2.4317      0.0234     13.2325     55.8333     16.0416
  1492.9000      7.9865      2.4310      0.0277     13.2748     53.2014     16.6786
  1493.0000      7.9900      2.4280      0.0093     13.4517     55.8992     17.0908
  1493.1000      7.9900      2.4219      0.0353     13.8269     59.9222     17.0568
  1493.2000      7.9900      2.4190     -0.0187     13.9997     64.2885     17.0043
  1493.3000      8.0083      2.4259      0.0462     13.5813     70.2961     16.8355
  1493.4000      8.0083      2.4362     -0.0138     12.9555     74.0544     16.1455
  1493.5000      8.0085      2.4406      0.0056     12.6896     74.1343     15.2855
  1493.6000      8.0085      2.4401      0.0276     12.7216     75.9167     15.2285
  1493.7000      8.0085      2.4426      0.0068     12.5711     78.6637     16.3348
  1493.8000      8.0034      2.4488      0.0578     12.1926     76.4072     17.6729
  1493.9000      8.0034      2.4472      0.0589     12.2888     70.3479     18.3227
  1494.0000      7.9917      2.4333      0.0417     13.1352     66.5829     18.5392
  1494.1000      7.9917      2.4185      0.0285     14.0298     65.5318     18.6726
  1494.2000      7.9917      2.4163      0.0040     14.1637     63.0834     18.6070
  1494.3000      7.9927      2.4280      0.0550     13.4524     60.0809     18.4015
