~Version Information
VERS.                      2.0: CWLS Log ASCII Standard - VERSION 2.0
WRAP.                       NO: One line per depth step
~Well Information Block
STRT.FT               345.0000: 
STOP.FT              2167.7000: 
STEP.FT                 0.1000: 
NULL.                -999.2500: 
COMP.          Pioneer Natural Resources: COMPANY
WELL.          Hemisphere 32-24: WELL
FLD.           Purgatoire River: FIELD
LOC.           1850' FNL & 2284' FEL--: LOCATION
PROV.                 Colorado: PROVINCE
CNTY.               Las Animas: COUNTRY
SRVC.                Patterson: SERVICE COMPANY
DATE.          Mon Aug 15 07:19:13 2005: LOG DATE
UWI.           05 071 08440 00: UNIQUE WELL ID
~Curve Information Block
DEPT.FT            0 000 00 00: Depth
DCAL.in                       : CDL Caliper
RHOB.g/cc                     : CDL Bulk Density
RHOC.g/cc                     : CDL Density Correction
DPOR.pu                       : CDL Density Porosity
NPOR.pu                       : Neutron Porosity
GR.GAPI                       : Gamma Ray
~Parameter Information Block
~A  Depth       DCAL        RHOB        RHOC        DPOR        NPOR         GR     
# ...
  1545.0000      8.0746      2.3855      0.0569     16.0315     28.4342    116.7436
  1545.1000      8.0746      2.3894      0.0554     15.7959     28.7135    120.1000
  1545.2000      8.0746      2.4023      0.0693     15.0103     28.9620    125.7210
  1545.3000      8.0782      2.4185      0.0430     14.0282     29.0818    131.6527
  1545.4000      8.0782      2.4430      0.0625     12.5458     29.0645    133.4915
  1545.5000      8.0848      2.4765      0.1170     10.5156     28.8500    129.4300
  1545.6000      8.0848      2.5016      0.1873      8.9955     28.4447    125.1107
  1545.7000      8.0848      2.5008      0.1441      9.0395     28.0269    125.4358
  1545.8000      8.0870      2.4879      0.0824      9.8219     27.7338    127.4297
  1545.9000      8.0870      2.4866      0.0887      9.9024     27.7073    128.0643
  1546.0000      8.0750      2.4984      0.1090      9.1904     27.9100    128.2142
  1546.1000      8.0750      2.5093      0.1321      8.5257     27.9763    125.4005
  1546.2000      8.0750      2.5125      0.0841      8.3333     27.8517    117.7174
  1546.3000      8.0606      2.5142      0.0390      8.2309     27.8387    112.7369
  1546.4000      8.0606      2.5195      0.0817      7.9079     27.9044    116.0931
  1546.5000      8.0606      2.5234      0.0700      7.6727     27.7440    122.3102
  1546.6000      8.0606      2.5237      0.0613      7.6534     27.4368    124.4836
  1546.7000      8.0606      2.5212      0.0515      7.8032     27.3049    122.4379
  1546.8000      8.0711      2.5032      0.0720      8.8988     27.5958    119.6784
  1546.9000      8.0711      2.4640      0.0456     11.2742     28.4896    120.6903
  1547.0000      8.0778      2.4303      0.0106     13.3142     29.6038    125.4807
  1547.1000      8.0778      2.4238     -0.0004     13.7102     30.0977    131.6937
  1547.2000      8.0778      2.4254      0.0427     13.6101     29.9337    137.0818
  1547.3000      8.0772      2.4192      0.0089     13.9898     29.7500    136.5402
  1547.4000      8.0772      2.4223      0.0133     13.8016     29.7286    130.3401
  1547.5000      8.0756      2.4412      0.0505     12.6522     29.7398    126.1097
  1547.6000      8.0756      2.4550      0.0742     11.8156     29.7961    128.4207
  1547.7000      8.0756      2.4436      0.0828     12.5105     29.8983    132.8110
  1547.8000      8.0821      2.4075      0.0794     14.6968     30.2341    132.5495
  1547.9000      8.0821      2.3672      0.0763     17.1396     31.0237    128.1431
  1548.0000      8.0902      2.3383      0.0958     18.8909     31.5759    125.1192
  1548.1000      8.0902      2.3229      0.0346     19.8255     31.2934    125.5880
  1548.2000      8.0902      2.3182      0.0392     20.1111     30.9007    125.8964
  1548.3000      8.0809      2.3121      0.0485     20.4785     31.0572    122.6718
  1548.4000      8.0809      2.3009      0.0113     21.1580     31.1686    118.2354
  1548.5000      8.0531      2.2976      0.0392     21.3600     30.4885    115.3709
  1548.6000      8.0531      2.3017      0.0728     21.1114     29.4588    114.0104
  1548.7000      8.0531      2.2954      0.0979     21.4933     28.8925    112.0407
  1548.8000      8.0234      2.2741      0.0252     22.7829     28.7388    109.4761
  1548.9000      8.0234      2.2535      0.0519     24.0290     28.6511    111.3633
  1549.0000      8.0053      2.2508      0.0191     24.1945     28.8001    117.5904
  1549.1000      8.0053      2.2734      0.0470     22.8232     29.1868    120.4838
  1549.2000      8.0053      2.3081      0.1018     20.7226     29.4379    117.3713
  1549.3000      7.9997      2.3320      0.1217     19.2756     29.5411    114.6494
  1549.4000      7.9997      2.3431      0.1066     18.6013     29.6653    118.7226
  1549.5000      7.9998      2.3539      0.1200     17.9460     29.7392    124.9294
  1549.6000      7.9998      2.3645      0.1425     17.3027     29.6144    126.6157
  1549.7000      7.9998      2.3719      0.0994     16.8563     29.2816    125.6482
  1549.8000      8.0003      2.3883      0.0848     15.8628     28.7283    124.5368
  1549.9000      8.0003      2.4219      0.1137     13.8254     28.0946    122.7982
  1550.0000      7.9981      2.4568      0.1407     11.7111     27.6924    120.1360
  1550.1000      7.9981      2.4773      0.1170     10.4672     27.5570    116.6867
  1550.2000      7.9981      2.4959      0.0819      9.3398     27.4118    115.2981
  1550.3000      7.9958      2.5317      0.0829      7.1716     26.9122    119.5893
  1550.4000      7.9958      2.5795      0.1618      4.2703     25.9197    126.9188
  1550.5000      7.9955      2.6105      0.1699      2.3936     25.0255    129.2197
  1550.6000      7.9955      2.6057      0.1146      2.6853     24.9419    125.0577
  1550.7000      7.9955      2.5838      0.0753      4.0111     25.4568    121.1944
  1550.8000      7.9941      2.5775      0.0805      4.3925     25.8932    121.5780
  1550.9000      7.9941      2.5979      0.0714      3.1571     25.9552    120.4071
  1551.0000      7.9941      2.6253      0.1014      1.4956     25.8490    113.1942
  1551.1000      7.9941      2.6279      0.1116      1.3386     25.8221    104.9929
  1551.2000      7.9941      2.6052      0.0550      2.7147     25.8799    100.1907
  1551.3000      7.9949      2.5794      0.0903      4.2807     26.0191     99.1843
  1551.4000      7.9949      2.5513      0.0507      5.9839     26.0897    101.8745
  1551.5000      7.9939      2.5222      0.0342      7.7484     25.8053    105.0543
  1551.6000      7.9939      2.5089      0.0520      8.5539     25.1821    105.2554
  1551.7000      7.9939      2.5207      0.0421      7.8369     24.7298    103.0364
  1551.8000      7.9948      2.5473      0.0745      6.2238     24.8893    101.2743
  1551.9000      7.9948      2.5623      0.0952      5.3168     25.3584    102.2658
  1552.0000      7.9963      2.5547      0.0684      5.7751     25.7693    106.7043
  1552.1000      7.9963      2.5475      0.0986      6.2144     25.9398    113.0938
  1552.2000      7.9963      2.5616      0.0851      5.3552     25.7939    119.8700
  1552.3000      7.9967      2.5865      0.1138      3.8515     25.6822    124.9756
  1552.4000      7.9967      2.5997      0.1135      3.0463     25.8641    125.4818
  1552.5000      7.9963      2.5990      0.0665      3.0908     26.2700    122.0831
  1552.6000      7.9963      2.5838      0.1564      4.0122     26.6313    119.9224
  1552.7000      7.9963      2.5465      0.0687      6.2715     26.7983    122.7519
  1552.8000      7.9971      2.5024      0.0383      8.9430     26.9257    128.5313
  1552.9000      7.9971      2.4801      0.0122     10.2996     26.8617    130.7196
  1553.0000      8.0046      2.4872      0.0384      9.8674     26.3846    129.3279
  1553.1000      8.0046      2.5094      0.0264      8.5232     25.9113    132.6646
  1553.2000      8.0046      2.5297      0.0593      7.2907     26.0525    138.8059
  1553.3000      8.0175      2.5386      0.0378      6.7515     26.3423    137.1329
  1553.4000      8.0175      2.5389      0.0624      6.7352     25.6878    128.8915
  1553.5000      8.0243      2.5380      0.0450      6.7872     24.6160    123.6788
  1553.6000      8.0243      2.5391      0.0334      6.7225     24.3920    120.9468
  1553.7000      8.0243      2.5406      0.0349      6.6299     24.7852    117.0153
  1553.8000      8.0242      2.5429      0.0384      6.4934     25.2235    116.5091
  1553.9000      8.0242      2.5497      0.0664      6.0786     25.9384    121.6601
  1554.0000      8.0209      2.5558      0.0796      5.7088     26.5858    128.3467
  1554.1000      8.0209      2.5499      0.0646      6.0658     26.4398    132.8650
  1554.2000      8.0209      2.5272      0.0540      7.4438     25.5567    131.5036
  1554.3000      8.0125      2.5008      0.0035      9.0447     24.5320    123.6199
  1554.4000      8.0125      2.4970      0.0241      9.2726     23.9211    115.4164
  1554.5000      8.0014      2.5190      0.0518      7.9397     23.9755    113.3801
