~Version Information
VERS.                      2.0: CWLS Log ASCII Standard - VERSION 2.0
WRAP.                       NO: One line per depth step
~Well Information Block
STRT.FT               245.0000: 
STOP.FT              1208.2000: 
STEP.FT                 0.1000: 
NULL.                -999.2500: 
COMP.          Pioneer Natural Resources: COMPANY
WELL.              Davida 34-8: WELL
FLD.           Purgatoire River: FIELD
LOC.           418' FSL & 1923' FEL--: LOCATION
CNTY.               Las Animas: COUNTY
SRVC.                Patterson: SERVICE COMPANY
DATE.          Mon Mar 20 08:22:01 2006: LOG DATE
UWI.           05 071 08722 00: UNIQUE WELL ID
STAT.                 Colorado: STATE
~Curve Information Block
DEPT.FT            0 000 00 00: Depth
DCAL.in                       : CDL Caliper
RHOB.g/cc                     : CDL Bulk Density
RHOC.g/cc                     : CDL Density Correction
DPOR.pu                       : CDL Density Porosity
NPOR.pu                       : Neutron Porosity
GR.GAPI                       : Gamma Ray
~Parameter Information Block
~A  Depth       DCAL        RHOB        RHOC        DPOR        NPOR         GR     
# ...
   619.4000      7.9922      2.3894      0.0921     15.7940     14.2253     60.7158
   619.5000      7.9859      2.3679      0.0837     17.0988     14.6389     61.4309
   619.6000      7.9859      2.3495      0.0013     18.2124     14.9495     62.4086
   619.7000      7.9859      2.3513      0.0684     18.1054     15.0882     61.4148
   619.8000      7.9762      2.3631      0.0338     17.3901     15.0315     59.1940
   619.9000      7.9762      2.3755      0.0637     16.6361     14.8429     58.2756
   620.0000      7.9679      2.3914      0.0615     15.6733     14.6836     58.0465
   620.1000      7.9679      2.4071      0.1124     14.7198     14.6705     57.6078
   620.2000      7.9679      2.4089      0.1019     14.6134     14.7046     59.0707
   620.3000      7.9592      2.3957      0.0561     15.4136     14.6546     61.7039
   620.4000      7.9592      2.3834      0.0476     16.1573     14.6182     63.1596
   620.5000      7.9504      2.3800      0.0328     16.3629     14.6024     65.1206
   620.6000      7.9504      2.3827      0.0523     16.2016     14.4569     67.5422
   620.7000      7.9504      2.3956      0.0426     15.4196     14.2926     67.3343
   620.8000      7.9449      2.4247      0.0726     13.6550     14.3461     64.4957
   620.9000      7.9449      2.4544      0.1130     11.8557     14.5001     61.2371
   621.0000      7.9415      2.4550      0.1126     11.8207     14.5543     60.1380
   621.1000      7.9415      2.4201      0.0770     13.9311     14.5484     62.1669
   621.2000      7.9415      2.3764      0.0353     16.5828     14.5751     64.4097
   621.3000      7.9380      2.3509      0.0022     18.1264     14.6832     65.0310
   621.4000      7.9380      2.3512      0.0241     18.1103     14.8315     65.2220
   621.5000      7.9368      2.3686      0.0495     17.0516     14.8513     65.1311
   621.6000      7.9368      2.3886      0.0850     15.8398     14.7013     65.3717
   621.7000      7.9368      2.4067      0.0397     14.7425     14.5295     67.3971
   621.8000      7.9400      2.4318      0.0729     13.2259     14.3897     68.9280
   621.9000      7.9400      2.4556      0.1128     11.7813     14.2101     66.5603
   622.0000      7.9375      2.4595      0.0812     11.5457     13.9857     63.4612
   622.1000      7.9375      2.4481      0.0890     12.2366     13.8221     62.9660
   622.2000      7.9375      2.4368      0.0905     12.9203     13.9003     63.5772
   622.3000      7.9283      2.4285      0.0886     13.4249     14.2251     64.8930
   622.4000      7.9283      2.4178      0.0691     14.0739     14.6161     66.9076
   622.5000      7.9236      2.4041      0.0359     14.9012     14.9634     68.4410
   622.6000      7.9236      2.3892      0.0364     15.8061     14.9688     70.1073
   622.7000      7.9236      2.3761      0.0439     16.6023     14.4669     71.9099
   622.8000      7.9234      2.3754      0.0158     16.6437     13.8896     72.1505
   622.9000      7.9234      2.3890      0.0472     15.8158     13.7265     71.2652
   623.0000      7.9292      2.3994      0.0898     15.1868     13.9412     71.4806
   623.1000      7.9292      2.3968      0.0597     15.3431     14.1040     72.8268
   623.2000      7.9292      2.3959      0.0233     15.4003     13.9781     71.6799
   623.3000      7.9445      2.4112      0.0763     14.4742     13.6566     67.2606
   623.4000      7.9445      2.4336      0.0697     13.1148     13.3952     64.9880
   623.5000      7.9634      2.4431      0.0902     12.5411     13.3094     65.7703
   623.6000      7.9634      2.4336      0.0675     13.1138     13.3515     65.2720
   623.7000      7.9634      2.4176      0.0574     14.0834     13.6689     63.2844
   623.8000      7.9750      2.4071      0.0482     14.7231     14.1652     61.7719
   623.9000      7.9750      2.3972      0.0699     15.3233     14.2710     60.7022
   624.0000      7.9738      2.3781      0.0353     16.4786     14.1526     60.1804
   624.1000      7.9738      2.3571      0.0186     17.7507     14.3843     60.5786
   624.2000      7.9738      2.3516      0.0224     18.0827     14.6467     61.5813
   624.3000      7.9699      2.3638      0.0554     17.3477     14.5926     61.6934
   624.4000      7.9699      2.3803      0.0591     16.3463     14.4899     58.9439
   624.5000      7.9700      2.3980      0.0234     15.2697     14.4862     56.2530
   624.6000      7.9700      2.4203      0.0489     13.9236     14.6118     58.6356
   624.7000      7.9700      2.4401      0.0812     12.7222     14.9568     64.5046
   624.8000      7.9660      2.4516      0.0497     12.0258     15.4462     68.7892
   624.9000      7.9660      2.4567      0.0758     11.7123     15.8097     69.9940
   625.0000      7.9631      2.4566      0.0716     11.7226     15.8195     68.7616
   625.1000      7.9631      2.4528      0.0999     11.9535     15.5546     66.4500
   625.2000      7.9631      2.4500      0.0653     12.1198     15.2753     65.3202
   625.3000      7.9664      2.4482      0.0991     12.2314     15.0383     66.5117
   625.4000      7.9664      2.4404      0.0371     12.7028     14.7736     68.6540
   625.5000      7.9774      2.4232      0.0515     13.7465     14.4902     70.6252
   625.6000      7.9774      2.3947      0.0554     15.4709     14.1561     71.6466
   625.7000      7.9774      2.3592      0.0226     17.6231     13.8025     70.7165
   625.8000      7.9855      2.3280      0.0400     19.5156     13.6062     68.7995
   625.9000      7.9855      2.3141     -0.0150     20.3554     13.7178     66.5358
   626.0000      7.9715      2.3338     -0.0094     19.1623     14.0400     64.0730
   626.1000      7.9715      2.3877      0.0516     15.8993     14.3661     61.5832
   626.2000      7.9715      2.4560      0.0697     11.7604     14.4967     57.3517
   626.3000      7.9466      2.5169      0.1637      8.0695     14.4525     53.1091
   626.4000      7.9466      2.5533      0.1778      5.8580     14.6045     52.8785
   626.5000      7.9348      2.5668      0.1485      5.0448     15.1263     54.3247
   626.6000      7.9348      2.5779      0.1573      4.3681     15.9289     53.8791
   626.7000      7.9348      2.6040      0.1434      2.7896     16.8571     53.4676
   626.8000      7.9369      2.6347      0.1909      0.9284     17.3812     54.8491
   626.9000      7.9369      2.6402      0.1629      0.5962     17.3811     57.5062
   627.0000      7.9389      2.6149      0.0944      2.1245     17.3894     59.6840
   627.1000      7.9389      2.5883      0.0385      3.7390     17.6115     60.5695
   627.2000      7.9389      2.5783      0.0609      4.3429     18.0940     61.2202
   627.3000      7.9279      2.5702      0.0557      4.8349     18.8962     61.6789
   627.4000      7.9279      2.5551      0.0094      5.7496     19.5923     60.8030
   627.5000      7.9105      2.5455      0.0544      6.3326     19.7613     59.5016
   627.6000      7.9105      2.5468      0.0332      6.2535     19.5975     59.7553
   627.7000      7.9105      2.5498      0.0778      6.0698     19.2261     62.1662
   627.8000      7.9004      2.5464      0.0423      6.2772     18.4493     64.7157
   627.9000      7.9004      2.5465      0.0183      6.2727     17.4940     65.3646
   628.0000      7.8995      2.5602      0.0474      5.4449     16.9818     66.8586
   628.1000      7.8995      2.5749      0.0880      4.5512     17.2300     70.6991
   628.2000      7.8995      2.5797      0.0506      4.2606     18.0566     71.8572
   628.3000      7.9102      2.5862      0.0082      3.8696     18.7725     67.5331
   628.4000      7.9102      2.5967      0.0337      3.2326     18.7574     60.6408
   628.5000      7.9312      2.5914      0.0468      3.5521     18.2918     54.0345
   628.6000      7.9312      2.5710      0.0025      4.7869     17.9183     50.5477
   628.7000      7.9312      2.5575      0.0094      5.6075     17.6849     51.8827
   628.8000      7.9460      2.5538     -0.0161      5.8282     17.5545     56.1411
   628.9000      7.9460      2.5488      0.0182      6.1362     17.5691     60.6292
