~Version Information
VERS.                      2.0: CWLS Log ASCII Standard - VERSION 2.0
WRAP.                       NO: One line per depth step
~Well Information Block
STRT.FT                10.0000: 
STOP.FT               743.5000: 
STEP.FT                 0.1000: 
NULL.                -999.2500: 
COMP.          Pioneer Natural Resources: COMPANY
WELL.                Mia 21-18: WELL
FLD.           Purgatorie River: FIELD
LOC.           1067' FNL & 1824' FWL: LOCATION
PROV.                 Colorado: PROVINCE
CNTY.               Las Animas: COUNTRY
SRVC.                Patterson: SERVICE COMPANY
DATE.          Tue Nov 22 15:40:03 2005: LOG DATE
UWI.           05-071-08559               : UNIQUE WELL ID
~Curve Information Block
DEPT.FT            0 000 00 00: Depth
DCAL.in                       : CDL Caliper
RHOB.g/cc                     : CDL Bulk Density
RHOC.g/cc                     : CDL Density Correction
DPOR.pu                       : CDL Density Porosity
GR.GAPI                       : Gamma Ray
NPOR.pu                       : Neutron Porosity
~Parameter Information Block
~A  Depth       DCAL        RHOB        RHOC        DPOR         GR         NPOR    
# ...
   298.0000      8.0381      2.5666      0.0395      5.0547    125.8013     24.6275
   298.1000      8.0381      2.5224      0.0456      7.7322    130.4760     24.2185
   298.2000      8.0381      2.4831     -0.0914     10.1177    135.6790     23.6461
   298.3000      8.0652      2.4743     -0.0625     10.6486    139.4059     23.3475
   298.4000      8.0652      2.4926      0.0190      9.5421    140.6301     23.5857
   298.5000      8.1688      2.5198     -0.0031      7.8882    143.5820     23.9769
   298.6000      8.1688      2.5420      0.0711      6.5479    149.2977     24.1813
   298.7000      8.1688      2.5470      0.0296      6.2453    154.1051     24.3685
   298.8000      8.1532      2.5395      0.0559      6.6954    156.3512     24.7265
   298.9000      8.1532      2.5375      0.0357      6.8161    155.5588     25.1025
   299.0000      8.1049      2.5517      0.0692      5.9555    152.3225     25.2636
   299.1000      8.1049      2.5732      0.0991      4.6530    150.4943     25.3476
   299.2000      8.1049      2.5817      0.1011      4.1378    151.4683     25.4867
   299.3000      8.0899      2.5660      0.1030      5.0918    152.7242     25.4855
   299.4000      8.0899      2.5328      0.0575      7.1019    153.5549     25.3309
   299.5000      8.0953      2.4999      0.0595      9.0961    154.9512     25.2809
   299.6000      8.0953      2.4818      0.0448     10.1961    157.9469     25.2248
   299.7000      8.0953      2.4802      0.0485     10.2891    162.7926     24.9045
   299.8000      8.1314      2.4784      0.1091     10.3998    166.7280     24.4670
   299.9000      8.1314      2.4597      0.0791     11.5352    167.3347     24.1521
   300.0000      8.1177      2.4346      0.0138     13.0565    167.5448     24.0051
   300.1000      8.1177      2.4136      0.0520     14.3275    170.0511     24.0191
   300.2000      8.1177      2.3915      0.0025     15.6675    171.2451     24.1397
   300.3000      8.1900      2.3791      0.0092     16.4204    168.6441     24.2103
   300.4000      8.1900      2.3921      0.0684     15.6314    165.4638     24.1724
   300.5000      8.2102      2.4254      0.1326     13.6107    163.4436     24.1263
   300.6000      8.2102      2.4712      0.1361     10.8381    159.9435     24.1912
   300.7000      8.2102      2.5269      0.2163      7.4607    156.2294     24.3985
   300.8000      8.1695      2.5755      0.2947      4.5127    158.4529     24.5553
   300.9000      8.1695      2.6004      0.2517      3.0065    166.6631     24.6192
   301.0000      8.0971      2.6068      0.2153      2.6170    173.4799     24.8589
   301.1000      8.0971      2.6026      0.2281      2.8740    174.6493     25.4042
   301.2000      8.0971      2.5931      0.2255      3.4510    171.6327     26.0618
   301.3000      8.1071      2.5911      0.1702      3.5702    166.7140     26.5187
   301.4000      8.1071      2.6002      0.1910      3.0210    162.8321     26.4418
   301.5000      8.1173      2.6038      0.1570      2.7989    161.1427     25.9437
   301.6000      8.1173      2.5912      0.0956      3.5649    159.4165     25.6475
   301.7000      8.1173      2.5712      0.1258      4.7753    157.5073     25.9487
   301.8000      8.1217      2.5532      0.1346      5.8695    156.8545     26.5340
   301.9000      8.1217      2.5400      0.0805      6.6672    157.9466     26.8993
   302.0000      8.0914      2.5301      0.1015      7.2644    159.7895     27.0305
   302.1000      8.0914      2.5169      0.0449      8.0696    158.3815     27.2158
   302.2000      8.0914      2.5049      0.0575      8.7920    154.9077     27.4790
   302.3000      8.1018      2.5091      0.0544      8.5408    153.0754     27.4966
   302.4000      8.1018      2.5326      0.0822      7.1136    150.6984     27.2124
   302.5000      8.1133      2.5641      0.1203      5.2054    146.0064     26.9944
   302.6000      8.1133      2.5994      0.1342      3.0664    142.1504     26.9886
   302.7000      8.1133      2.6454      0.1575      0.2814    141.0314     27.1283
   302.8000      8.0949      2.6951      0.1959     -2.7304    141.1514     27.3757
   302.9000      8.0949      2.7264      0.2069     -4.6294    141.3138     27.6765
   303.0000      8.0606      2.7331      0.1515     -5.0351    141.0724     27.8596
   303.1000      8.0606      2.7293      0.1694     -4.8081    137.7686     27.8083
   303.2000      8.0606      2.7250      0.1514     -4.5449    131.7742     27.8315
   303.3000      8.0468      2.7221      0.1320     -4.3725    127.2480     28.1433
   303.4000      8.0468      2.7119      0.1301     -3.7522    125.0629     28.4406
   303.5000      8.0562      2.6835      0.0421     -2.0287    124.6580     28.4469
   303.6000      8.0562      2.6479     -0.0231      0.1301    126.0378     28.2286
   303.7000      8.0562      2.6247     -0.0265      1.5362    127.8403     28.0327
   303.8000      8.0182      2.6202     -0.0322      1.8084    129.6059     27.8076
   303.9000      8.0182      2.6264      0.0481      1.4289    131.7080     27.2932
   304.0000      8.0585      2.6295      0.0436      1.2448    135.0265     26.7323
   304.1000      8.0585      2.6196      0.0401      1.8434    139.8790     26.3908
   304.2000      8.0585      2.5969     -0.0117      3.2177    146.1593     26.0799
   304.3000      8.0773      2.5715      0.0610      4.7584    153.3029     25.6902
   304.4000      8.0773      2.5481      0.0379      6.1780    158.6590     25.2317
   304.5000      8.0965      2.5197      0.0405      7.8978    160.3161     24.6466
   304.6000      8.0965      2.4859      0.0303      9.9460    161.5327     23.9322
   304.7000      8.0965      2.4603      0.0257     11.4962    165.2115     23.2492
   304.8000      8.1174      2.4487      0.0737     12.2014    168.9008     22.8665
   304.9000      8.1174      2.4405      0.0571     12.6991    170.7144     22.8188
   305.0000      8.1626      2.4258      0.0527     13.5854    172.2289     22.9210
   305.1000      8.1626      2.4043      0.0692     14.8887    174.5251     23.0844
   305.2000      8.1626      2.3882      0.0045     15.8688    175.4214     23.2878
   305.3000      8.1862      2.3940      0.0161     15.5178    173.4747     23.4152
   305.4000      8.1862      2.4228      0.0438     13.7722    171.8738     23.5327
   305.5000      8.1275      2.4620      0.1096     11.3916    172.7675     23.8807
   305.6000      8.1275      2.4986      0.1398      9.1752    174.5696     24.3839
   305.7000      8.1275      2.5257      0.1583      7.5359    175.6853     24.9065
   305.8000      8.1139      2.5493      0.1462      6.1033    174.7912     25.5195
   305.9000      8.1139      2.5847      0.1413      3.9574    170.9479     26.2675
   306.0000      8.1350      2.6330      0.1786      1.0308    164.6211     27.0582
   306.1000      8.1350      2.6782      0.1494     -1.7083    159.3784     27.7625
   306.2000      8.1350      2.7156      0.1382     -3.9728    156.6008     28.3896
   306.3000      8.0887      2.7561      0.1257     -6.4302    151.5687     29.0034
   306.4000      8.0887      2.8039      0.1033     -9.3245    142.5457     29.4630
   306.5000      8.0829      2.8414      0.1516    -11.6001    134.4876     29.6181
   306.6000      8.0829      2.8499      0.1043    -12.1179    130.8839     29.4349
   306.7000      8.0829      2.8328      0.0871    -11.0807    130.3599     28.9701
   306.8000      8.0802      2.7976      0.0779     -8.9442    130.3677     28.4511
   306.9000      8.0802      2.7432      0.0490     -5.6468    131.0534     27.8842
   307.0000      8.0765      2.6716      0.0054     -1.3075    133.9176     27.0996
   307.1000      8.0765      2.5956     -0.0474      3.2962    138.6925     26.2019
   307.2000      8.0765      2.5372     -0.1241      6.8358    144.2377     25.2894
   307.3000      8.0652      2.5118     -0.0190      8.3732    149.4104     24.5281
   307.4000      8.0652      2.5076      0.0825      8.6287    153.7932     24.2831
   307.5000      8.0963      2.4966      0.1312      9.2943    158.6384     24.4648
