~Version Information
VERS.                      2.0: CWLS Log ASCII Standard - VERSION 2.0
WRAP.                       NO: One line per depth step
~Well Information Block
STRT.FT                -7.5000: 
STOP.FT              1517.5000: 
STEP.FT                 0.2500: 
NULL.                -999.2500: 
COMP.          Pioneer Natural Resources: COMPANY
WELL.          McClaren 13-34 Tr: WELL
FLD.           Purgatorie River: FIELD
LOC.           1934' FSL & 826' WL--: LOCATION
PROV.                       CO: PROVINCE
CNTY.               Las Animas: COUNTRY
SRVC.          Patterson Wireline: SERVICE COMPANY
DATE.          Fri Jul 15 13:10:35 2005: LOG DATE
UWI.           05 071 08437 00: UNIQUE WELL ID
~Curve Information Block
DEPT.FT            0 000 00 00: Depth
CCL.                          : Casing Collar Locator
TT3.usec                      : CBL 3' Travel Time
AMP3.mV                       : CBL 3' Amplitude
GR.GAPI                       : Gamma Ray
~Parameter Information Block
~A  Depth       CCL         TT3         AMP3         GR     
# ...
   294.0000      0.0000    304.8540     25.6061     95.0945
   294.2500      0.0000    304.7648     25.7310     96.9935
   294.5000      0.0000    304.6677     25.8530     95.8733
   294.7500      0.0000    304.5765     25.9383     91.2665
   295.0000      0.0000    304.5043     25.9721     85.1009
   295.2500      0.0000    304.4890     25.9510     80.1881
   295.5000      0.0000    304.6534     25.8610     78.0915
   295.7500      0.0000    305.5042     25.6660     78.3155
   296.0000      0.0000    308.6624     25.3036     79.3219
   296.2500      0.0000    317.8553     24.6672     79.9652
   296.5000      0.0000    338.5645     23.5992     79.9213
   296.7500      0.0000    373.8506     21.9843     79.1793
   297.0000      0.0000    417.4412     19.9444     77.6231
   297.2500      0.0000    452.1084     17.9241     75.2205
   297.5000      0.0000    460.0220     16.4745     72.3150
   297.7500      0.0000    437.4605     15.8827     69.4492
   298.0000      0.0000    397.9899     16.0030     66.9465
   298.2500      0.0000    360.9730     16.4330     65.0046
   298.5000      0.0000    339.1154     16.8139     64.2496
   298.7500     -2.0000    335.8405     16.9948     65.7782
   299.0000      0.0000    349.3159     17.0075     70.3273
   299.2500      0.0000    374.7996     16.9963     77.4624
   299.5000      0.0000    403.5161     17.1845     85.6230
   299.7500      0.0000    422.8155     17.8069     92.8706
   300.0000      0.0000    421.7524     18.9455     97.6897
   300.2500      0.0000    399.3200     20.4223     99.5513
   300.5000      0.0000    366.2261     21.9172     99.0645
   300.7500      0.0000    336.4736     23.1804     97.5014
   301.0000      0.0000    317.5069     24.1036     96.0103
   301.2500      0.0000    308.5240     24.6812     95.2307
   301.5000      0.0000    305.2964     24.9886     95.3851
   301.7500      0.0000    304.4052     25.1529     96.2929
   302.0000      0.0000    304.2191     25.2816     97.2495
   302.2500      0.0000    304.1895     25.4186     97.2669
   302.5000      0.0000    304.1931     25.5618     95.6245
   302.7500      0.0000    304.1871     25.7034     92.1955
   303.0000      0.0000    304.1606     25.8436     87.4110
   303.2500      0.0000    304.1104     25.9862     82.0012
   303.5000      0.0000    304.0409     26.1324     76.5444
   303.7500      0.0000    303.9593     26.2817     71.1820
   304.0000      0.0000    303.8736     26.4326     65.9340
   304.2500      0.0000    303.7918     26.5814     61.3022
   304.5000      0.0000    303.7213     26.7207     58.2080
   304.7500      0.0000    303.6663     26.8397     57.0733
   305.0000      0.0000    303.6278     26.9227     57.1691
   305.2500      0.0000    303.6061     26.9503     57.2748
   305.5000      0.0000    303.6055     26.9066     56.9624
   305.7500      0.0000    303.6338     26.7948     56.9078
   306.0000      0.0000    303.6929     26.6435     57.9464
   306.2500      0.0000    303.7708     26.4946     60.1425
   306.5000      0.0000    303.8457     26.3812     62.8601
   306.7500      0.0000    303.9004     26.3151     65.5682
   307.0000      0.0000    303.9303     26.2892     68.4377
   307.2500      0.0000    303.9416     26.2862     72.0002
   307.5000      0.0000    303.9455     26.2869     76.0895
   307.7500      0.0000    303.9545     26.2748     79.4065
   308.0000      0.0000    303.9784     26.2396     80.7033
   308.2500      0.0000    304.0187     26.1809     80.3871
   308.5000      0.0000    304.0678     26.1143     80.5013
   308.7500      0.0000    304.1125     26.0691     82.9468
   309.0000      0.0000    304.1396     26.0715     87.7336
   309.2500      0.0000    304.1415     26.1271     92.7573
   309.5000      0.0000    304.1173     26.2201     95.2361
   309.7500      0.0000    304.0707     26.3333     93.6788
   310.0000      0.0000    304.0056     26.4653     88.7061
   310.2500      0.0000    303.9239     26.6296     82.1493
   310.5000      0.0000    303.8276     26.8419     75.6367
   310.7500      0.0000    303.7212     27.1114     70.0184
   311.0000      0.0000    303.6097     27.4363     65.6078
   311.2500      0.0000    303.4946     27.8071     62.4505
   311.5000      0.0000    303.3757     28.2096     60.3132
   311.7500      0.0000    303.2555     28.6176     58.7767
   312.0000      0.0000    303.1436     28.9779     57.7591
   312.2500      0.0000    303.0601     29.2144     57.8977
   312.5000      0.0000    303.0315     29.2727     60.0751
   312.7500      0.0000    303.0756     29.1671     64.4872
   313.0000      0.0000    303.1831     28.9733     70.4325
   313.2500      0.0000    303.3189     28.7677     76.8872
   313.5000      0.0000    303.4447     28.5775     82.9440
   313.7500      0.0000    303.5421     28.3869     87.8561
   314.0000      0.0000    303.6145     28.1790     91.0914
   314.2500      0.0000    303.6704     27.9676     92.4826
   314.5000      0.0000    303.7099     27.7897     92.3451
   314.7500      0.0000    303.7297     27.6724     91.5176
   315.0000      0.0000    303.7358     27.6129     91.1031
   315.2500      0.0000    303.7426     27.5855     91.7731
   315.5000      0.0000    303.7587     27.5614     93.1045
   315.7500      0.0000    303.7800     27.5224     93.7599
   316.0000      0.0000    303.7951     27.4661     92.6440
   316.2500      0.0000    303.7959     27.4058     89.8169
   316.5000      0.0000    303.7805     27.3603     86.0940
   316.7500      0.0000    303.7534     27.3383     81.9994
   317.0000      0.0000    303.7240     27.3332     77.5395
   317.2500      0.0000    303.7025     27.3340     72.8695
   317.5000      0.0000    303.6934     27.3347     68.6404
   317.7500      0.0000    303.6926     27.3344     65.4563
   318.0000      0.0000    303.6921     27.3332     63.2494
   318.2500      0.0000    303.6905     27.3254     61.3408
   318.5000      0.0000    303.6939     27.2983     58.8932
   318.7500      0.0000    303.7064     27.2394     55.3670
   319.0000      0.0000    303.7207     27.1524     51.0208
   319.2500      0.0000    303.7232     27.0615     47.1248
   319.5000      0.0000    303.7067     26.9953     45.3217
   319.7500      0.0000    303.6799     26.9649     46.5650
   320.0000      0.0000    303.6635     26.9561     50.7704
   320.2500      0.0000    303.6765     26.9437     57.4259
   320.5000      0.0000    303.7209     26.9117     66.1765
   320.7500      0.0000    303.7775     26.8633     76.4845
   321.0000      0.0000    303.8157     26.8120     86.9732
   321.2500      0.0000    303.8184     26.7658     95.8612
   321.5000      0.0000    303.7969     26.7204    102.3213
   321.7500      0.0000    303.7805     26.6631    106.8982
   322.0000      0.0000    303.7894     26.5821    110.3518
   322.2500      0.0000    303.8207     26.4725    112.8643
   322.5000      0.0000    303.8561     26.3403    114.7910
   322.7500      0.0000    303.8768     26.2037    117.2962
   323.0000      0.0000    303.8722     26.0858    121.3765
   323.2500      0.0000    303.8394     26.0027    126.5464
   323.5000      0.0000    303.7811     25.9556    131.0195
   323.7500      0.0000    303.7048     25.9331    133.0028
   324.0000      0.0000    303.6250     25.9194    131.5887
   324.2500      0.0000    303.5601     25.9008    126.7945
   324.5000      0.0000    303.5243     25.8728    119.3573
   324.7500      0.0000    303.5193     25.8450    110.7444
   325.0000      0.0000    303.5313     25.8341    103.0951
   325.2500      0.0000    303.5369     25.8500     98.3532
   325.5000      0.0000    303.5151     25.8898     96.9415
   325.7500      0.0000    303.4604     25.9411     97.5082
   326.0000      0.0000    303.3855     25.9883     98.1632
   326.2500      0.0000    303.3135     26.0202     97.8144
   326.5000      0.0000    303.2640     26.0406     96.5435
   326.7500      0.0000    303.2460     26.0677     95.2959
   327.0000      0.0000    303.2574     26.1151     95.1272
   327.2500      0.0000    303.2908     26.1729     96.2492
