~Version Information
VERS.                      2.0: CWLS Log ASCII Standard - VERSION 2.0
WRAP.                       NO: One line per depth step
~Well Information Block
STRT.FT               400.0000: 
STOP.FT              1577.5000: 
STEP.FT                 0.1000: 
NULL.                -999.2500: 
COMP.          Pioneer Natural Resources: COMPANY
WELL.          Lorencito 10-36-33-67: WELL
FLD.           Purgatoire River: FIELD
LOC.           2130' FSL & 2362' FEL: LOCATION
STAT.                 Colorado: State
CNTY.               Las Animas: COUNTY
CTRY. USA : Country
SECT. 36 : Section
TOWN. 33S : Township
RANG. 67W : Range
SRVC.                Patterson: SERVICE COMPANY
DATE.          Mon Aug 29 07:03:31 2005: LOG DATE
API.           05 071 08501 00: UNIQUE WELL ID
~Curve Information Block
DEPT.FT            0 000 00 00: Depth
DCAL.in                       : CDL Caliper
RHOB.g/cc                     : CDL Bulk Density
RHOC.g/cc                     : CDL Density Correction
DPOR.pu                       : CDL Density Porosity
GR.GAPI                       : Gamma Ray
NPOR.pu                       : Neutron Porosity
~Parameter Information Block
~A  Depth       DCAL        RHOB        RHOC        DPOR         GR         NPOR    
# ...
  1408.0000      7.9147      2.5229      0.0325      7.7015     80.8685     23.7901
  1408.1000      7.9147      2.5328      0.0784      7.1031     74.4260     23.2150
  1408.2000      7.9147      2.5387      0.0639      6.7477     68.9160     22.4483
  1408.3000      7.9287      2.5334      0.0386      7.0674     70.9991     22.1737
  1408.4000      7.9287      2.5239      0.0393      7.6436     79.6428     22.0932
  1408.5000      7.9340      2.5204      0.0316      7.8569     89.1317     21.4242
  1408.6000      7.9340      2.5235      0.0250      7.6647     96.0548     19.9721
  1408.7000      7.9340      2.5257      0.0394      7.5355     98.3455     18.7884
  1408.8000      7.9322      2.5233      0.0326      7.6780     95.7040     19.0521
  1408.9000      7.9322      2.5206      0.0536      7.8398     90.9275     20.5813
  1409.0000      7.9294      2.5197      0.0446      7.8999     86.3125     22.4287
  1409.1000      7.9294      2.5155      0.0823      8.1489     85.0143     23.7803
  1409.2000      7.9294      2.4996      0.1033      9.1168     86.9002     24.0263
  1409.3000      7.9301      2.4698      0.0949     10.9209     86.9071     23.5067
  1409.4000      7.9301      2.4376      0.0390     12.8752     83.8629     23.1515
  1409.5000      7.9257      2.4226     -0.0094     13.7834     81.5329     23.4864
  1409.6000      7.9257      2.4302      0.0121     13.3242     82.9161     24.2039
  1409.7000      7.9257      2.4391      0.0424     12.7812     85.2936     24.4951
  1409.8000      7.9347      2.4323      0.0589     13.1951     82.3963     24.3021
  1409.9000      7.9347      2.4209     -0.0185     13.8877     77.2657     24.0658
  1410.0000      7.9574      2.4276     -0.0274     13.4759     77.9366     23.8252
  1410.1000      7.9574      2.4553      0.0639     11.7994     80.5667     23.5290
  1410.2000      7.9574      2.4830      0.0914     10.1199     79.1917     23.2080
  1410.3000      7.9698      2.4969      0.0847      9.2787     78.2315     23.1568
  1410.4000      7.9698      2.5058      0.0537      8.7373     77.9265     23.3587
  1410.5000      7.9532      2.5179      0.1205      8.0036     74.6648     23.2513
  1410.6000      7.9532      2.5258      0.0663      7.5287     71.5018     22.7061
  1410.7000      7.9532      2.5270      0.1013      7.4542     71.4309     21.8400
  1410.8000      7.9055      2.5310      0.0484      7.2097     71.4295     20.7566
  1410.9000      7.9055      2.5489      0.0836      6.1283     68.0274     20.0382
  1411.0000      7.9084      2.5711      0.1195      4.7796     63.9251     20.4776
  1411.1000      7.9084      2.5759      0.1094      4.4931     65.1897     21.9177
  1411.2000      7.9084      2.5606      0.0746      5.4166     72.8736     23.0906
  1411.3000      7.9071      2.5386      0.0893      6.7533     78.2330     23.3922
  1411.4000      7.9071      2.5243     -0.0161      7.6198     74.9478     23.3399
  1411.5000      7.9216      2.5214      0.0322      7.7967     70.7113     22.9305
  1411.6000      7.9216      2.5105      0.0215      8.4535     74.2281     22.2472
  1411.7000      7.9216      2.4807     -0.0022     10.2633     81.3560     22.1833
  1411.8000      7.9463      2.4428     -0.0264     12.5606     84.8130     22.7377
  1411.9000      7.9463      2.4045      0.0364     14.8767     84.9083     23.2122
  1412.0000      7.9639      2.3737     -0.0518     16.7469     86.6292     23.6938
  1412.1000      7.9639      2.3611      0.0151     17.5099     89.2395     24.4366
  1412.2000      7.9639      2.3584      0.0054     17.6743     89.5302     25.0415
  1412.3000      7.9695      2.3447      0.0549     18.5029     91.8206     25.1592
  1412.4000      7.9695      2.3159     -0.0113     20.2460     95.4303     24.8571
  1412.5000      7.9607      2.2999     -0.0630     21.2170     95.2093     23.9872
  1412.6000      7.9607      2.3224     -0.0034     19.8573     93.3722     22.7759
  1412.7000      7.9607      2.3662      0.0421     17.2021     90.6520     22.0054
  1412.8000      7.9647      2.3926      0.0960     15.5976     85.9563     21.9862
  1412.9000      7.9647      2.3864      0.0755     15.9743     85.2781     22.5651
  1413.0000      7.9450      2.3687      0.0417     17.0465     90.6466     23.2647
  1413.1000      7.9450      2.3716      0.0144     16.8750     95.1482     23.5964
  1413.2000      7.9450      2.4029      0.0478     14.9748     96.8439     23.8081
  1413.3000      7.9976      2.4440      0.0710     12.4844     98.1735     24.2381
  1413.4000      7.9976      2.4765      0.0633     10.5161     97.3287     24.5381
  1413.5000      7.9849      2.4881      0.1174      9.8148     94.6722     24.2477
  1413.6000      7.9849      2.4794      0.0233     10.3369     92.5666     23.4681
  1413.7000      7.9849      2.4713      0.0322     10.8294     92.3701     23.2927
  1413.8000      7.9921      2.4730      0.0083     10.7248     93.6865     24.2349
  1413.9000      7.9921      2.4719      0.0523     10.7961     92.7797     25.0213
  1414.0000      7.9695      2.4576      0.0367     11.6581     87.2936     24.9275
  1414.1000      7.9695      2.4458      0.0308     12.3757     80.1061     24.8062
  1414.2000      7.9695      2.4560      0.0451     11.7576     76.7096     25.0759
  1414.3000      7.9422      2.4867      0.0245      9.8972     78.9103     24.9242
  1414.4000      7.9422      2.5164      0.0991      8.0996     83.9776     23.9785
  1414.5000      7.9369      2.5209      0.0650      7.8251     87.5882     22.7897
  1414.6000      7.9369      2.5044      0.0068      8.8242     88.3239     21.8876
  1414.7000      7.9369      2.4820      0.0823     10.1848     88.7783     21.7483
  1414.8000      7.9292      2.4588      0.0235     11.5878     90.4983     22.5868
  1414.9000      7.9292      2.4420      0.0469     12.6055     90.4804     23.7059
  1415.0000      7.9552      2.4290      0.0229     13.3918     84.9957     24.0260
  1415.1000      7.9552      2.4143     -0.0017     14.2827     76.5098     23.3855
  1415.2000      7.9552      2.4082     -0.0239     14.6517     72.0336     22.8157
  1415.3000      7.9620      2.4222      0.0132     13.8077     76.2997     22.6955
  1415.4000      7.9620      2.4521      0.0261     11.9962     84.6126     22.5742
  1415.5000      7.9725      2.4865      0.0697      9.9066     87.6704     22.2168
  1415.6000      7.9725      2.5082      0.1303      8.5912     86.4922     21.7139
  1415.7000      7.9725      2.5083      0.0867      8.5868     87.5986     21.3997
  1415.8000      7.9755      2.5041      0.0498      8.8449     89.0367     21.2896
  1415.9000      7.9755      2.5092      0.1085      8.5353     85.8990     21.3490
  1416.0000      7.9657      2.5183      0.0958      7.9821     80.9042     21.8239
  1416.1000      7.9657      2.5281      0.1268      7.3883     80.9557     22.7826
  1416.2000      7.9657      2.5400      0.0735      6.6690     85.3885     23.6942
  1416.3000      7.9515      2.5508      0.0985      6.0101     84.9025     23.5313
  1416.4000      7.9515      2.5539      0.0947      5.8255     76.8032     22.1505
  1416.5000      7.9500      2.5597      0.0201      5.4730     68.6593     20.9496
  1416.6000      7.9500      2.5855      0.0436      3.9073     67.1498     20.7501
  1416.7000      7.9500      2.6184      0.1022      1.9164     70.1131     21.0520
  1416.8000      7.9480      2.6219      0.1242      1.7028     70.6917     21.6050
  1416.9000      7.9480      2.5789      0.0811      4.3072     70.2590     22.2057
  1417.0000      7.9462      2.5169     -0.0106      8.0666     75.4287     22.3335
  1417.1000      7.9462      2.4735      0.0044     10.6978     85.9736     22.2972
  1417.2000      7.9462      2.4552      0.0303     11.8067     93.5819     22.4169
  1417.3000      7.9694      2.4487      0.0189     12.1999     92.0586     22.6115
  1417.4000      7.9694      2.4424      0.0361     12.5811     86.7595     22.7362
  1417.5000      7.9767      2.4343      0.0347     13.0713     84.3538     22.4505
