~Version Information
VERS.                      2.0: CWLS Log ASCII Standard - VERSION 2.0
WRAP.                       NO: One line per depth step
~Well Information Block
STRT.FT                -9.0000: 
STOP.FT              1841.0000: 
STEP.FT                 0.2500: 
NULL.                -999.2500: 
COMP.          Pioneer Natural Resources: COMPANY
WELL.          Cooper 11-13 Tr: WELL
FLD.           Purgatorie River: FIELD
LOC.           476' FNL & 738' FWL: LOCATION
STAT.                       CO: State
CNTY.               Las Animas: COUNTY
CTRY. USA : Country
SECT. 13 : Section
TOWN. 32S : Township
RANG. 67W : Range
SRVC.          Patterson Wireline: SERVICE COMPANY
DATE.          Thu Sep 29 08:59:13 2005: LOG DATE
API.           05 071 08525 00: UNIQUE WELL ID
~Curve Information Block
DEPT.FT            0 000 00 00: Depth
CCL.                          : Casing Collar Locator
TT3.usec                      : CBL 3' Travel Time
AMP3.mV                       : CBL 3' Amplitude
GR.GAPI                       : Gamma Ray
~Parameter Information Block
~A  Depth       CCL         TT3         AMP3         GR     
# ...
   460.0000      0.0000    906.2218     11.1104    116.8677
   460.2500      0.0000    843.8663     11.4943    119.1327
   460.5000      0.0000    775.4984     12.0498    120.5799
   460.7500      0.0000    726.2713     12.6417    120.4195
   461.0000      0.0000    708.3907     13.0580    118.8831
   461.2500      0.0000    714.7302     13.2051    117.5582
   461.5000      0.0000    729.2845     13.1611    118.0755
   461.7500      0.0000    741.1150     13.0572    120.9794
   462.0000      0.0000    747.8922     12.9626    126.1318
   462.2500      0.0000    751.2948     12.8737    133.1100
   462.5000      0.0000    752.9667     12.7636    140.3396
   462.7500      0.0000    753.7195     12.6197    144.6179
   463.0000      0.0000    753.9450     12.4529    142.8015
   463.2500      0.0000    753.8489     12.2869    134.4724
   463.5000      0.0000    753.5822     12.1385    122.7897
   463.7500      0.0000    753.2667     12.0033    112.3753
   464.0000      0.0000    753.0063     11.8605    106.0603
   464.2500      0.0000    752.8576     11.6958    103.6321
   464.5000      0.0000    752.8168     11.5172    103.4712
   464.7500      0.0000    752.8480     11.3486    104.5148
   465.0000      0.0000    752.9125     11.2085    106.1931
   465.2500      0.0000    752.9790     11.0978    107.3949
   465.5000      0.0000    753.0214     11.0037    106.7435
   465.7500      0.0000    753.0156     10.9129    103.9874
   466.0000      0.0000    752.9461     10.8231    100.4336
   466.2500      0.0000    752.8159     10.7446     97.6329
   466.5000      0.0000    752.6472     10.6873     95.9105
   466.7500      0.0000    752.4688     10.6430     94.5189
   467.0000      0.0000    752.2993     10.5833     93.0652
   467.2500      0.0000    752.1440     10.4808     92.2710
   467.5000      0.0000    752.0005     10.3341     93.0176
   467.7500      0.0000    751.8638     10.1685     94.8741
   468.0000      0.0000    751.7253     10.0165     95.9615
   468.2500      0.0000    751.5799      9.8996     94.2359
   468.5000      0.0000    751.4384      9.8262     88.7829
   468.7500      0.0000    751.3269      9.7959     80.2685
   469.0000      0.0000    751.2678      9.7974     70.6076
   469.2500      0.0000    751.2625      9.8050     62.0191
   469.5000      0.0000    751.2919      9.7874     55.8732
   469.7500      0.0000    751.3260      9.7266     52.2136
   470.0000      0.0000    751.3290      9.6282     50.4546
   470.2500      0.0000    751.2327      9.5160     50.3021
   470.5000      0.0000    750.8540      9.4178     51.6785
   470.7500      0.0000    749.7895      9.3544     53.9466
   471.0000      0.0000    747.4656      9.3340     55.7566
   471.2500      0.0000    743.6285      9.3527     55.8515
   471.5000      0.0000    739.1143      9.3966     53.8926
   471.7500      0.0000    735.9225      9.4436     50.6064
   472.0000      0.0000    735.8759      9.4696     47.4306
   472.2500      0.0000    738.9769      9.4619     45.9860
   472.5000      0.0000    743.4073      9.4308     47.4029
   472.7500      0.0000    747.1719      9.4076     51.5533
   473.0000      0.0000    749.4377      9.4277     56.7837
   473.2500      0.0000    750.4587      9.5104     60.8790
   473.5000      0.0000    750.8002      9.6446     62.7517
   473.7500      0.0000    750.8151      9.7927     63.2733
   474.0000      0.0000    750.5042      9.9152     64.5377
   474.2500      0.0000    749.4808      9.9976     68.5140
   474.5000      0.0000    747.0383     10.0533     76.1922
   474.7500      0.0000    742.6198     10.1039     87.1897
   475.0000      0.0000    736.7245     10.1596     99.7428
   475.2500      0.0000    731.4119     10.2162    111.5449
   475.5000      0.0000    729.3422     10.2675    121.1789
   475.7500      0.0000    731.7585     10.3212    128.6955
   476.0000      0.0000    737.3599     10.3989    134.6742
   476.2500      0.0000    743.2563     10.5140    139.0406
   476.5000      0.0000    746.8575     10.6490    141.0776
   476.7500      0.0000    746.8489     10.7581    140.3744
   477.0000      0.0000    743.0938     10.7969    137.4318
   477.2500      0.0000    736.5018     10.7499    133.0478
   477.5000      0.0000    729.0592     10.6352    127.0467
   477.7500      0.0000    723.1616     10.4886    118.2420
   478.0000      0.0000    720.1630     10.3434    106.2329
   478.2500      0.0000    719.4341     10.2218     92.7723
   478.5000      0.0000    719.1116     10.1354     80.6348
   478.7500      0.0000    717.9337     10.0896     71.4129
   479.0000      0.0000    716.2994     10.0826     65.0029
   479.2500      0.0000    715.5288     10.1018     60.8099
   479.5000      0.0000    716.3168     10.1259     58.7466
   479.7500      0.0000    718.0584     10.1325     59.0064
   480.0000      0.0000    719.7052     10.1086     61.2759
   480.2500      0.0000    721.2348     10.0568     64.4518
   480.5000      0.0000    723.9371      9.9937     67.2426
   480.7500      0.0000    728.9311      9.9410     68.9586
   481.0000      0.0000    735.6548      9.9131     69.6437
   481.2500      0.0000    742.1993      9.9115     69.7483
   481.5000      0.0000    746.9497      9.9273     70.0347
   481.7500      0.0000    749.5751      9.9498     71.5036
   482.0000      0.0000    750.6882      9.9734     74.7497
   482.2500      0.0000    751.0438     10.0034     79.1010
   482.5000      0.0000    751.1182     10.0543     82.5089
   482.7500      0.0000    751.1068     10.1371     82.6578
   483.0000      0.0000    751.0619     10.2494     78.6909
   483.2500      0.0000    750.9928     10.3802     72.1704
   483.5000      0.0000    750.9151     10.5204     66.1611
   483.7500      0.0000    750.8586     10.6651     62.9073
   484.0000      0.0000    750.8519     10.8038     62.2746
   484.2500      0.0000    750.8925     10.9108     62.5061
   484.5000      0.0000    750.9017     10.9506     62.3986
   484.7500      0.0000    750.6863     10.8997     62.6652
   485.0000      0.0000    749.9305     10.7700     65.1948
   485.2500      0.0000    748.3309     10.6087     70.9426
   485.5000      0.0000    745.9725     10.4706     78.5274
   485.7500      0.0000    743.6705     10.3846     84.8774
   486.0000      0.0000    742.6343     10.3438     87.2697
   486.2500      0.0000    743.4471     10.3239     85.0600
   486.5000      0.0000    745.4794     10.3069     79.8588
   486.7500      0.0000    747.5194     10.2858     74.1581
   487.0000      0.0000    748.8093     10.2564     69.6868
   487.2500      0.0000    749.3431     10.2127     66.9001
   487.5000      0.0000    749.4595     10.1522     65.5523
   487.7500      0.0000    749.4354     10.0797     65.2540
   488.0000      0.0000    749.3918     10.0062     65.6274
   488.2500      0.0000    749.3654      9.9466     66.4262
   488.5000      0.0000    749.3670      9.9178     67.6144
   488.7500      0.0000    749.3991      9.9352     69.1527
   489.0000      0.0000    749.4567     10.0056     70.7354
   489.2500      0.0000    749.5410     10.1227     71.8343
   489.5000      0.0000    749.6593     10.2670     71.9322
   489.7500      0.0000    749.7687     10.4133     70.8175
   490.0000      0.0000    749.6910     10.5436     68.9819
   490.2500      0.0000    749.0460     10.6579     67.6208
   490.5000      0.0000    747.3455     10.7708     67.7934
   490.7500      0.0000    744.3536     10.8992     69.5150
   491.0000      0.0000    740.5216     11.0529     71.7707
   491.2500      0.0000    736.9445     11.2315     73.2480
   491.5000      0.0000    734.5525     11.4157     73.1100
   491.7500      0.0000    733.1577     11.5602     71.4628
   492.0000      0.0000    731.4047     11.6036     69.2882
   492.2500      0.0000    727.9741     11.4991     67.6977
   492.5000      0.0000    723.0081     11.2433     66.9521
   492.7500      0.0000    718.2549     10.8814     66.2305
   493.0000      0.0000    715.7533     10.4830     64.5804
   493.2500      0.0000    716.4653     10.1024     61.9997
