~Version Information
VERS.                      2.0: CWLS Log ASCII Standard - VERSION 2.0
WRAP.                       NO: One line per depth step
~Well Information Block
STRT.FT                -6.2500: 
STOP.FT              1327.5000: 
STEP.FT                 0.2500: 
NULL.                -999.2500: 
COMP.          Pioneer Natural Resources: COMPANY
WELL.            Avant 14-3 Tr: WELL
FLD.           Purgatorie River: FIELD
LOC.           170' FSL & 1174' FWL--: LOCATION
STAT.                       CO: State
CNTY.               Las Animas: COUNTY
CTRY. USA : Country
SECT. 3 : Section
TOWN. 33S : Township
RANG. 67W : Range
SRVC.          Patterson Wireline: SERVICE COMPANY
DATE.          Tue Aug 23 16:44:25 2005: LOG DATE
API.           05 071 08463 00: UNIQUE WELL ID
~Curve Information Block
DEPT.FT            0 000 00 00: Depth
CCL.                          : Casing Collar Locator
TT3.usec                      : CBL 3' Travel Time
AMP3.mV                       : CBL 3' Amplitude
GR.GAPI                       : Gamma Ray
~Parameter Information Block
~A  Depth       CCL         TT3         AMP3         GR     
# ...
  1132.7500      2.0000    788.4494      7.7458    102.0810
  1133.0000      0.0000    779.1094      7.8036     97.9030
  1133.2500      0.0000    773.6090      7.8526     92.6939
  1133.5000      0.0000    772.9404      7.9552     88.2617
  1133.7500      0.0000    776.7664      8.2130     85.4844
  1134.0000      0.0000    784.7759      8.6600     84.2557
  1134.2500      0.0000    795.0396      9.1881     84.4195
  1134.5000      0.0000    803.4333      9.6328     85.9370
  1134.7500      0.0000    806.8757      9.9164     88.1918
  1135.0000      0.0000    805.8652     10.0661     90.0082
  1135.2500      0.0000    802.8644     10.1258     90.7138
  1135.5000      0.0000    799.3312     10.1075     90.6658
  1135.7500      0.0000    795.0719     10.0139     90.4581
  1136.0000      0.0000    789.8566      9.8700     90.1812
  1136.2500      0.0000    784.9826      9.7237     89.6788
  1136.5000      0.0000    782.8350      9.6236     88.8146
  1136.7500      0.0000    784.6481      9.5950     87.1918
  1137.0000      0.0000    789.1456      9.6295     84.3303
  1137.2500      0.0000    793.7870      9.6964     80.5085
  1137.5000      0.0000    796.8983      9.7615     76.9465
  1137.7500      0.0000    798.3157      9.8002     74.7861
  1138.0000      0.0000    798.6313      9.7990     74.0197
  1138.2500      0.0000    798.4313      9.7555     73.5435
  1138.5000      0.0000    798.0322      9.6810     72.3010
  1138.7500      0.0000    797.4492      9.5990     70.4422
  1139.0000      0.0000    796.4019      9.5349     69.3470
  1139.2500      0.0000    794.5154      9.5022     70.4985
  1139.5000      0.0000    791.8174      9.4951     74.3522
  1139.7500      0.0000    789.1833      9.4955     80.1966
  1140.0000      0.0000    787.8958      9.4927     86.8151
  1140.2500      0.0000    788.2736      9.4932     93.1200
  1140.5000      0.0000    788.7036      9.5056     98.5380
  1140.7500      0.0000    786.3506      9.5224    103.2902
  1141.0000      0.0000    779.2418      9.5274    108.1004
  1141.2500      0.0000    768.3705      9.5229    113.0622
  1141.5000      0.0000    758.1564      9.5369    116.8595
  1141.7500      0.0000    754.0650      9.5959    117.6247
  1142.0000      0.0000    758.6111      9.6931    114.5871
  1142.2500      0.0000    769.3858      9.7924    108.6202
  1142.5000      0.0000    781.1458      9.8615    101.5896
  1142.7500      0.0000    789.5948      9.8951     95.6475
  1143.0000      0.0000    793.0337      9.9015     92.7421
  1143.2500      0.0000    791.2412      9.8723     94.0204
  1143.5000      0.0000    784.0894      9.7824     99.2026
  1143.7500      0.0000    771.8444      9.6260    106.4520
  1144.0000      0.0000    756.3570      9.4446    113.2543
  1144.2500      0.0000    741.0468      9.3081    117.9710
  1144.5000      0.0000    729.1614      9.2650    120.7583
  1144.7500      0.0000    722.0745      9.3083    122.8945
  1145.0000      0.0000    719.2465      9.3803    125.2637
  1145.2500      0.0000    719.4203      9.4099    127.7752
  1145.5000      0.0000    721.6248      9.3559    130.1353
  1145.7500      0.0000    725.5717      9.2216    132.4857
  1146.0000      0.0000    731.9279      9.0398    134.8462
  1146.2500      0.0000    742.1287      8.8527    136.4514
  1146.5000      0.0000    756.7693      8.6989    136.3540
  1146.7500      0.0000    773.6041      8.6072    134.6151
  1147.0000      0.0000    788.0987      8.5903    132.3743
  1147.2500      0.0000    796.8083      8.6404    130.5575
  1147.5000      0.0000    799.7385      8.7265    128.7688
  1147.7500      0.0000    799.0733      8.8049    125.9128
  1148.0000      0.0000    796.3586      8.8435    122.0013
  1148.2500      0.0000    791.5052      8.8428    118.6992
  1148.5000      0.0000    784.3676      8.8318    117.6151
  1148.7500      0.0000    776.9244      8.8434    118.5415
  1149.0000      0.0000    773.0579      8.8933    120.0506
  1149.2500      0.0000    775.1796      8.9754    121.4810
  1149.5000      0.0000    781.6343      9.0673    123.3704
  1149.7500      0.0000    788.9087      9.1435    125.8366
  1150.0000      0.0000    795.6809      9.1906    127.4968
  1150.2500      0.0000    802.7312      9.2119    126.6108
  1150.5000      0.0000    809.8102      9.2203    122.8743
  1150.7500      0.0000    815.2242      9.2324    117.5845
  1151.0000      0.0000    818.2349      9.2629    112.4257
  1151.2500      0.0000    819.6500      9.3161    108.6136
  1151.5000      0.0000    820.0707      9.3807    106.8134
  1151.7500      0.0000    819.2545      9.4383    107.0614
  1152.0000      0.0000    817.2247      9.4776    108.6297
  1152.2500      0.0000    814.5964      9.4990    110.4161
  1152.5000      0.0000    811.6041      9.5062    111.6998
  1152.7500      0.0000    807.6891      9.5016    112.4635
  1153.0000      0.0000    801.7686      9.4911    113.0036
  1153.2500      0.0000    791.8984      9.4886    113.3155
  1153.5000      0.0000    774.7074      9.5108    112.9657
  1153.7500      0.0000    746.3970      9.5666    111.6847
  1154.0000      0.0000    705.6075      9.6527    109.9538
  1154.2500      0.0000    656.1418      9.7591    108.7224
  1154.5000      0.0000    606.9235      9.8776    108.5838
  1154.7500      0.0000    568.4160     10.0059    109.4005
  1155.0000      0.0000    548.3861     10.1473    110.7729
  1155.2500      0.0000    550.3607     10.3063    112.5771
  1155.5000      0.0000    573.7055     10.4776    114.6588
  1155.7500      0.0000    612.5391     10.6351    116.1007
  1156.0000      0.0000    655.6213     10.7321    115.3678
  1156.2500      0.0000    691.0825     10.7244    111.5463
  1156.5000      0.0000    712.9604     10.6062    105.3953
  1156.7500      0.0000    722.8837     10.4260     99.0223
  1157.0000      0.0000    726.4036     10.2569     94.4337
  1157.2500      0.0000    728.8196     10.1444     92.2175
  1157.5000      0.0000    732.9292     10.0827     91.4440
  1157.7500      0.0000    738.4470     10.0412     90.7906
  1158.0000      0.0000    743.0220     10.0020     89.8386
  1158.2500      0.0000    744.4255      9.9650     89.4364
  1158.5000      0.0000    742.0931      9.9235     90.9969
  1158.7500      0.0000    736.8456      9.8530     95.4301
  1159.0000      0.0000    730.0397      9.7307    102.4944
  1159.2500      0.0000    723.2834      9.5615    110.7622
  1159.5000      0.0000    718.2981      9.3831    117.9682
  1159.7500      0.0000    716.4919      9.2417    121.7211
  1160.0000      0.0000    718.4501      9.1611    120.6458
  1160.2500      0.0000    723.3021      9.1301    115.4103
  1160.5000      0.0000    728.5123      9.1231    108.6232
  1160.7500      0.0000    731.1940      9.1257    103.3755
  1161.0000      0.0000    730.1573      9.1359    101.6709
  1161.2500      0.0000    726.4960      9.1491    103.9008
  1161.5000      0.0000    722.2554      9.1555    109.1611
  1161.7500      0.0000    718.9109      9.1474    115.5656
  1162.0000      0.0000    716.9647      9.1235    120.6500
  1162.2500      0.0000    716.4863      9.0902    122.6676
  1162.5000      0.0000    717.7963      9.0624    122.2403
  1162.7500      0.0000    721.5736      9.0577    122.1614
  1163.0000      0.0000    728.2158      9.0865    124.8048
  1163.2500      0.0000    737.0054      9.1474    129.9171
  1163.5000      0.0000    746.2444      9.2282    135.3182
  1163.7500      0.0000    754.5260      9.3116    139.3386
  1164.0000      0.0000    761.4661      9.3859    142.0297
  1164.2500      0.0000    766.5246      9.4522    144.2961
  1164.5000      0.0000    767.5758      9.5208    146.5069
  1164.7500      0.0000    762.1154      9.5980    148.0878
  1165.0000      0.0000    750.3123      9.6786    148.1619
  1165.2500      0.0000    735.4973      9.7495    146.3702
  1165.5000      0.0000    720.7402      9.8015    143.1840
  1165.7500      0.0000    705.9570      9.8410    139.5426
  1166.0000      0.0000    689.8018      9.8880    136.1926
