~Version Information
VERS.                      2.0: CWLS Log ASCII Standard - VERSION 2.0
WRAP.                       NO: One line per depth step
~Well Information Block
STRT.FT               350.0000: 
STOP.FT               906.0000: 
STEP.FT                 0.2500: 
NULL.                -999.2500: 
COMP.          Pioneer Natural Resources: COMPANY
WELL.           Hartford 31-18: WELL
FLD.           Purgatorie River: FIELD
LOC.           375' FNL & 1660' FEL: LOCATION
PROV.                 Colorado: PROVINCE
CNTY.               Las Animas: COUNTRY
SRVC.                Patterson: SERVICE COMPANY
DATE.          Sat Nov 19 19:02:38 2005: LOG DATE
UWI.           05-071-08555               : UNIQUE WELL ID
~Curve Information Block
DEPT.FT            0 000 00 00: Depth
SN.Ohm-m                      : IEL Short Normal
SP.mV                         : IEL Spontaneous Potential
DIR.Ohm-m                     : IEL Induction Resistivity
GR.GAPI                       : Gamma Ray
~Parameter Information Block
~A  Depth        SN          SP         DIR          GR     
# ...
   383.5000   2000.0000   1880.0000     28.1927     85.7555
   383.7500   2000.0000   1880.0000     28.0083     86.6921
   384.0000   2000.0000   1880.0000     27.8300     88.0713
   384.2500   2000.0000   1880.0000     27.6515     88.9965
   384.5000   2000.0000   1880.0000     27.4665     89.8150
   384.7500   2000.0000   1880.0000     27.2714     89.5386
   385.0000   2000.0000   1880.0000     27.0702     87.5313
   385.2500   2000.0000   1880.0000     26.8764     85.3553
   385.5000   2000.0000   1880.0000     26.7125     81.9128
   385.7500   2000.0000   1880.0000     26.6014     80.1643
   386.0000   2000.0000   1880.0000     26.5588     78.6874
   386.2500   2000.0000   1880.0000     26.5903     78.1950
   386.5000   2000.0000   1880.0000     26.6985     77.8605
   386.7500   2000.0000   1880.0000     26.8905     78.0129
   387.0000   2000.0000   1880.0000     27.1750     78.7694
   387.2500   2000.0000   1880.0000     27.5480     79.1632
   387.5000   2000.0000   1880.0000     27.9815     78.6063
   387.7500   2000.0000   1880.0000     28.4302     77.2726
   388.0000   2000.0000   1880.0000     28.8537     74.2523
   388.2500   2000.0000   1880.0000     29.2357     72.0585
   388.5000   2000.0000   1880.0000     29.5834     69.4685
   388.7500   2000.0000   1880.0000     29.9096     68.6405
   389.0000   2000.0000   1880.0000     30.2176     68.8541
   389.2500   2000.0000   1880.0000     30.4998     69.6187
   389.5000   2000.0000   1880.0000     30.7464     70.8730
   389.7500   2000.0000   1880.0000     30.9516     71.5851
   390.0000   2000.0000   1880.0000     31.1129     73.0139
   390.2500   2000.0000   1880.0000     31.2285     74.8013
   390.5000   2000.0000   1880.0000     31.3021     79.3196
   390.7500   2000.0000   1880.0000     31.3521     83.3409
   391.0000   2000.0000   1880.0000     31.4211     89.8125
   391.2500   2000.0000   1880.0000     31.5717     93.7969
   391.5000   2000.0000   1880.0000     31.8685     98.7868
   391.7500   2000.0000   1880.0000     32.3505    101.4440
   392.0000   2000.0000   1880.0000     33.0000    104.3977
   392.2500   2000.0000   1880.0000     33.7219    105.5587
   392.5000   2000.0000   1880.0000     34.3423    105.8858
   392.7500   2000.0000   1880.0000     34.6460    105.0772
   393.0000   2000.0000   1880.0000     34.4508    102.1070
   393.2500   2000.0000   1880.0000     33.6836     98.9002
   393.5000   2000.0000   1880.0000     32.4051     92.8415
   393.7500   2000.0000   1880.0000     30.7716     88.7567
   394.0000   2000.0000   1880.0000     28.9681     83.8929
   394.2500   2000.0000   1880.0000     27.1550     81.7651
   394.5000   2000.0000   1880.0000     25.4426     79.7649
   394.7500   2000.0000   1880.0000     23.8889     78.8691
   395.0000   2000.0000   1880.0000     22.5123     78.3202
   395.2500   2000.0000   1880.0000     21.3082     79.0043
   395.5000   2000.0000   1880.0000     20.2628     82.4279
   395.7500   2000.0000   1880.0000     19.3613     86.4235
   396.0000   2000.0000   1880.0000     18.5904     94.9651
   396.2500   2000.0000   1880.0000     17.9412    102.6112
   396.5000   2000.0000   1880.0000     17.4097    117.6488
   396.7500   2000.0000   1880.0000     16.9953    129.8867
   397.0000   2000.0000   1880.0000     16.6987    149.6087
   397.2500   2000.0000   1880.0000     16.5185    161.7737
   397.5000   2000.0000   1880.0000     16.4501    175.1280
   397.7500   2000.0000   1880.0000     16.4865    179.3890
   398.0000   2000.0000   1880.0000     16.6196    178.5035
   398.2500   2000.0000   1880.0000     16.8409    174.1676
   398.5000   2000.0000   1880.0000     17.1442    165.4890
   398.7500   2000.0000   1880.0000     17.5283    160.3618
   399.0000   2000.0000   1880.0000     18.0004    155.4155
   399.2500   2000.0000   1880.0000     18.5750    153.2738
   399.5000   2000.0000   1880.0000     19.2699    148.8874
   399.7500   2000.0000   1880.0000     20.0970    143.7485
   400.0000   2000.0000   1880.0000     21.0554    132.1907
   400.2500   2000.0000   1880.0000     22.1262    122.7731
   400.5000   2000.0000   1880.0000     23.2700    108.7466
   400.7500   2000.0000   1880.0000     24.4258    101.0046
   401.0000   2000.0000   1880.0000     25.5151     93.0341
   401.2500   2000.0000   1880.0000     26.4545     89.7657
   401.5000   2000.0000   1880.0000     27.1825     86.0910
   401.7500   2000.0000   1880.0000     27.6853     83.4316
   402.0000   2000.0000   1880.0000     28.0037     78.5725
   402.2500   2000.0000   1880.0000     28.2091     75.1960
   402.5000   2000.0000   1880.0000     28.3690     71.0134
   402.7500   2000.0000   1880.0000     28.5243     69.0711
   403.0000   2000.0000   1880.0000     28.6895     67.3371
   403.2500   2000.0000   1880.0000     28.8662     67.0227
   403.5000   2000.0000   1880.0000     29.0541     68.0620
   403.7500   2000.0000   1880.0000     29.2531     69.6000
   404.0000   2000.0000   1880.0000     29.4620     72.3195
   404.2500   2000.0000   1880.0000     29.6814     73.9872
   404.5000   2000.0000   1880.0000     29.9216     76.1194
   404.7500   2000.0000   1880.0000     30.2092     77.3765
   405.0000   2000.0000   1880.0000     30.5817     78.9582
   405.2500   2000.0000   1880.0000     31.0703     79.5551
   405.5000   2000.0000   1880.0000     31.6792     79.2927
   405.7500   2000.0000   1880.0000     32.3718     78.4310
   406.0000   2000.0000   1880.0000     33.0744     77.1496
   406.2500   2000.0000   1880.0000     33.6979     76.9801
   406.5000   2000.0000   1880.0000     34.1695     77.7135
   406.7500   2000.0000   1880.0000     34.4576     77.9781
   407.0000   2000.0000   1880.0000     34.5785     76.4987
   407.2500   2000.0000   1880.0000     34.5864     74.2919
   407.5000   2000.0000   1880.0000     34.5557     70.8896
   407.7500   2000.0000   1880.0000     34.5585     69.7485
   408.0000   2000.0000   1880.0000     34.6423     70.6619
   408.2500   2000.0000   1880.0000     34.8133     72.7689
   408.5000   2000.0000   1880.0000     35.0360     76.9193
   408.7500   2000.0000   1880.0000     35.2538     79.5009
   409.0000   2000.0000   1880.0000     35.4182     81.8814
   409.2500   2000.0000   1880.0000     35.5093     82.0355
   409.5000   2000.0000   1880.0000     35.5323     80.1221
   409.7500   2000.0000   1880.0000     35.5009     77.9303
   410.0000   2000.0000   1880.0000     35.4229     74.5997
   410.2500   2000.0000   1880.0000     35.3036     73.0042
   410.5000   2000.0000   1880.0000     35.1593     72.0529
   410.7500   2000.0000   1880.0000     35.0247     72.3546
   411.0000   2000.0000   1880.0000     34.9443     73.7800
   411.2500   2000.0000   1880.0000     34.9503     74.8870
   411.5000   2000.0000   1880.0000     35.0420     75.4982
   411.7500   2000.0000   1880.0000     35.1799     74.4551
   412.0000   2000.0000   1880.0000     35.3031     70.4744
   412.2500   2000.0000   1880.0000     35.3624     67.0058
   412.5000   2000.0000   1880.0000     35.3475     62.7751
   412.7500   2000.0000   1880.0000     35.2873     61.5392
   413.0000   2000.0000   1880.0000     35.2265     62.1819
   413.2500   2000.0000   1880.0000     35.2032     63.6210
   413.5000   2000.0000   1880.0000     35.2397     65.8771
   413.7500   2000.0000   1880.0000     35.3434     66.9380
   414.0000   2000.0000   1880.0000     35.5077     67.7140
   414.2500   2000.0000   1880.0000     35.7092     67.7123
   414.5000   2000.0000   1880.0000     35.9095     66.7345
   414.7500   2000.0000   1880.0000     36.0671     65.4262
   415.0000   2000.0000   1880.0000     36.1544     63.3914
   415.2500   2000.0000   1880.0000     36.1719     62.8775
   415.5000   2000.0000   1880.0000     36.1435     64.0892
   415.7500   2000.0000   1880.0000     36.0970     65.6789
   416.0000   2000.0000   1880.0000     36.0446     67.4111
   416.2500   2000.0000   1880.0000     35.9764     67.3586
   416.5000   2000.0000   1880.0000     35.8687     65.4936
   416.7500   2000.0000   1880.0000     35.6955     63.7124
