~Version Information
 VERS.                                  2.0 : CWLS LAS VERSION
 WRAP.                                   NO : WRAPING MODE
 SWARE .                 MController 2.5.0N : SOFTWARE VERSION
~Well Information
 WELL.                       ALABASTER 11-8 : WELL
 COMP.    PIONEER NATURAL RESOURCES USA INC : COMPANY
 FLD.                      PURGATOIRE RIVER : FIELD
 LOC.                 NW/NW SEC 8 T33S R66W : LOCATION
 DATE.                             01/18/06 : DATE(S) LOGGED
 SRVC.       BLANCO GEOLOGICAL SERVICES LLC : SERVICE COMPANY
 STAT.                             COLORADO : STATE
 CNTY.                           LAS ANIMAS : COUNTY
 CTRY.                                  USA : COUNTRY
 API.                       05-071-08642-00 : API NUMBER
 STRT.FT                             555.00 : START DEPTH
 STOP.FT                            2045.00 : STOP DEPTH
 STEP.FT                               1.00 : DEPTH INCREMENT
 NULL.                                -9999 : NULL VALUE
~Curve information
 DEPTH.FT                                   :
 ROP.MIN/FT                                 :
 GAS.UNITS                                  :
~ASCII Log data
       555.0     -9999.00          6.2 
       556.0        14.53          7.1 
       557.0         0.07          3.0 
       558.0         0.10          3.6 
       559.0         0.07          3.5 
       560.0         0.07          3.0 
       561.0         0.07          2.9 
       562.0         0.10          3.2 
       563.0         0.07          3.5 
       564.0         0.07          3.3 
       565.0         0.10          3.0 
       566.0         0.07          3.2 
       567.0         0.13          3.2 
       568.0         0.10          3.3 
       569.0         0.07          3.3 
       570.0         0.17          3.1 
       571.0         0.07          3.0 
       572.0         0.10          3.2 
       573.0         0.07          3.0 
       574.0         0.07          3.0 
       575.0         0.07          3.2 
       576.0         0.07          3.1 
       577.0         0.10          3.2 
       578.0         0.33          3.3 
       579.0         0.03          3.1 
       580.0         0.07          3.0 
       581.0         0.07          2.9 
       582.0         0.03          3.2 
       583.0         0.08          2.9 
       584.0         0.07          3.3 
       585.0         0.10          3.5 
       586.0         3.68          3.7 
       587.0         0.17          3.2 
       588.0         0.13          3.3 
       589.0         0.13          3.0 
       590.0         0.07          3.0 
       591.0         0.03          3.0 
       592.0         0.17          3.4 
       593.0         0.23          3.3 
       594.0         0.17          3.3 
       595.0         0.17          3.2 
       596.0         0.13          3.3 
       597.0         0.13          3.2 
       598.0         0.17          3.5 
       599.0         0.13          3.5 
       600.0         0.17          3.2 
       601.0         0.13          3.4 
       602.0         0.27          3.4 
       603.0         0.03          3.0 
       604.0         0.10          3.2 
       605.0         0.07          3.0 
       606.0         0.10          3.4 
       607.0         0.18          3.4 
       608.0         0.13          3.5 
       609.0         0.10          3.1 
       610.0         0.10          3.2 
       611.0         0.13          3.1 
       612.0         0.13          3.3 
       613.0         0.13          3.3 
       614.0         0.13          3.2 
       615.0         0.13          3.1 
       616.0         6.57          3.4 
       617.0         0.07          3.0 
       618.0         0.03          3.1 
       619.0         0.07          2.9 
       620.0         0.03          3.1 
       621.0         0.07          2.9 
       622.0         0.07          2.9 
       623.0         0.03          2.9 
       624.0         0.07          3.4 
       625.0         0.03          3.3 
       626.0         0.07          3.3 
       627.0         0.03          3.5 
       628.0         0.07          3.1 
       629.0         0.03          3.4 
       630.0         0.07          3.3 
       631.0         0.03          3.5 
       632.0         0.07          3.2 
       633.0         0.07          3.1 
       634.0         0.03          3.2 
       635.0         0.10          3.2 
       636.0         0.13          3.7 
       637.0         0.13          3.3 
       638.0         0.13          3.5 
       639.0         0.13          3.4 
       640.0         0.10          3.6 
       641.0         0.13          3.5 
       642.0         0.20          3.2 
       643.0         0.17          3.5 
       644.0         0.17          3.2 
       645.0         0.22          3.3 
       646.0         0.13          3.1 
       647.0         0.10          3.2 
       648.0         0.10          3.1 
       649.0         0.10          3.2 
       650.0         0.13          3.1 
       651.0         0.13          3.2 
       652.0         0.10          3.1 
       653.0         0.13          3.5 
       654.0         0.10          3.3 
       655.0         0.13          2.9 
       656.0         2.65          3.6 
       657.0         0.17          3.2 
       658.0         0.17          3.3 
       659.0         0.17          3.3 
       660.0         0.17          3.2 
       661.0         0.17          3.1 
       662.0         0.17          3.2 
       663.0         0.13          3.2 
       664.0         0.13          3.2 
       665.0         0.13          3.3 
       666.0         0.20          3.2 
       667.0         0.17          3.1 
       668.0         0.20          3.3 
       669.0         0.23          3.0 
       670.0         0.07          3.0 
       671.0         0.10          2.7 
       672.0         0.58          3.1 
       673.0         0.20          3.0 
       674.0         0.37          3.2 
       675.0         0.40          3.1 
       676.0         0.23          3.7 
       677.0         0.27          3.5 
       678.0         0.30          3.4 
       679.0         0.23          3.3 
       680.0         0.27          3.0 
       681.0         0.30          3.2 
       682.0         0.45          3.3 
       683.0         0.27          3.2 
       684.0         0.27          3.2 
       685.0         0.20          3.3 
       686.0         2.98          3.9 
       687.0         0.37          3.9 
       688.0         0.30          3.7 
       689.0         0.30          4.0 
       690.0         0.23          4.0 
       691.0         0.23          4.3 
       692.0         0.23          4.7 
       693.0         0.23          4.3 
       694.0         0.20          4.2 
       695.0         0.17          4.2 
       696.0         0.10          4.3 
       697.0         0.10          4.1 
       698.0         0.10          4.1 
       699.0         0.13          4.5 
       700.0         0.10          4.3 
       701.0         0.22          4.5 
       702.0         0.23          4.1 
       703.0         0.17          4.2 
       704.0         0.23          3.9 
       705.0         0.27          3.9 
       706.0         0.30          4.0 
       707.0         0.23          4.1 
       708.0         0.17          4.3 
       709.0         0.17          5.0 
       710.0         0.30          7.2 
       711.0         0.20          8.9 
       712.0         0.20         11.3 
       713.0         0.37         14.3 
       714.0         0.10         17.2 
       715.0         0.23         16.2 
       716.0         3.08         22.9 
       717.0         0.35          4.6 
       718.0         0.30          4.4 
       719.0         0.30        125.7 
       720.0         0.23        145.5 
       721.0         0.13         62.2 
       722.0         0.23         34.6 
       723.0         0.23         18.3 
       724.0         0.23         16.3 
       725.0         0.27         15.3 
       726.0         0.27         20.5 
       727.0         0.33         19.6 
       728.0         0.33         15.9 
       729.0         0.27         16.0 
       730.0         0.28         15.0 
       731.0         0.33         14.3 
       732.0         0.27         16.3 
       733.0         0.27         15.5 
       734.0         0.27         14.6 
       735.0         0.37         12.8 
       736.0         0.27         12.8 
       737.0         0.27         12.7 
       738.0         0.30         12.6 
       739.0         0.40         11.9 
       740.0         0.50         10.5 
       741.0         0.28          8.2 
       742.0         0.30          7.3 
       743.0         0.27         10.9 
       744.0         0.10         12.4 
       745.0         0.23         14.1 
       746.0         2.10         20.0 
       747.0         0.52          4.3 
       748.0         0.47          4.5 
       749.0         0.33         10.1 
       750.0         0.20         11.3 
       751.0         0.50         11.5 
       752.0         0.63         13.3 
       753.0         0.60         13.2 
       754.0         0.62         12.8 
