~Version Information
VERS.                      2.0: CWLS Log ASCII Standard - VERSION 2.0
WRAP.                       NO: One line per depth step
~Well Information Block
STRT.FT               400.0000: 
STOP.FT              2232.0000: 
STEP.FT                 0.2500: 
NULL.                -999.2500: 
COMP.          Evergreen Operating Corporation: COMPANY
WELL.                Croc 42-9: WELL
FLD.           Purgatorie River: FIELD
LOC.           2262' FNL & 238' FEL: LOCATION
STAT.                 Colorado: State
CNTY.               Las Animas: COUNTY
CTRY. USA : Country
SECT. 9 : Section
TOWN. 32S : Township
RANG. 66W : Range
SRVC.                Patterson: SERVICE COMPANY
DATE.          Wed Jul 21 23:25:54 2004: LOG DATE
API.           05 071 08106 00: UNIQUE WELL ID
~Curve Information Block
DEPT.FT            0 000 00 00: Depth
SN.Ohm-m                      : IEL Short Normal
SP.mV                         : IEL Spontaneous Potential
DIR.Ohm-m                     : IEL Induction Resistivity
GR.GAPI                       : Gamma Ray
~Parameter Information Block
~A  Depth        SN          SP         DIR          GR     
# ...
  1974.5000     41.4756    133.1656     30.4096     98.9683
  1974.7500     40.3516    133.2500     30.0328    100.3830
  1975.0000     38.7884    133.3209     29.3342    104.5298
  1975.2500     36.7290    133.3967     28.2026    107.9090
  1975.5000     34.2116    133.4881     26.6896    112.4913
  1975.7500     31.4939    133.5956     25.0074    114.7148
  1976.0000     29.0159    133.7138     23.3975    116.3838
  1976.2500     27.1906    133.8335     22.0122    116.2880
  1976.5000     26.2076    133.9410     20.8933    114.8846
  1976.7500     25.9907    134.0182     20.0121    113.9827
  1977.0000     26.2586    134.0509     19.3153    114.1153
  1977.2500     26.6518    134.0378     18.7524    115.2469
  1977.5000     26.8908    133.9935     18.2886    117.3512
  1977.7500     26.8629    133.9410     17.9084    118.4516
  1978.0000     26.5853    133.9030     17.6153    119.8879
  1978.2500     26.1269    133.8935     17.4280    121.2848
  1978.5000     25.5865    133.9149     17.3724    124.4328
  1978.7500     25.1036    133.9625     17.4714    126.7015
  1979.0000     24.8382    134.0347     17.7351    128.6979
  1979.2500     24.9122    134.1379     18.1575    128.4256
  1979.5000     25.3546    134.2782     18.7203    125.9707
  1979.7500     26.1197    134.4487     19.4003    123.8223
  1980.0000     27.1809    134.6198     20.1758    120.8740
  1980.2500     28.5957    134.7476     21.0316    118.8687
  1980.5000     30.4620    134.7969     21.9595    114.3888
  1980.7500     32.8206    134.7649     22.9538    109.7747
  1981.0000     35.5769    134.6824     23.9965    100.8977
  1981.2500     38.4540    134.5942     25.0418     95.0565
  1981.5000     41.0597    134.5353     26.0085     89.3616
  1981.7500     43.0655    134.5157     26.7919     88.4123
  1982.0000     44.3120    134.5196     27.2995     89.9048
  1982.2500     44.7842    134.5187     27.4968     91.2213
  1982.5000     44.5633    134.4903     27.4359     91.9814
  1982.7500     43.7818    134.4300     27.2281     91.9034
  1983.0000     42.5754    134.3532     26.9716     92.4580
  1983.2500     41.0525    134.2879     26.6826     94.0776
  1983.5000     39.2454    134.2636     26.2877     98.7487
  1983.7500     37.0659    134.2977     25.6894    102.9268
  1984.0000     34.4335    134.3835     24.8573    109.3326
  1984.2500     31.5213    134.4890     23.8670    112.8577
  1984.5000     28.8135    134.5731     22.8558    116.3689
  1984.7500     26.8775    134.6098     21.9434    117.6375
  1985.0000     26.0948    134.6027     21.1868    118.4982
  1985.2500     26.5481    134.5796     20.5880    118.6576
  1985.5000     27.9870    134.5691     20.1328    118.5290
  1985.7500     29.8548    134.5782     19.8230    118.3464
  1986.0000     31.5252    134.5871     19.6794    118.4999
  1986.2500     32.6338    134.5668     19.7222    119.2691
  1986.5000     33.1890    134.5029     19.9531    121.3422
  1986.7500     33.4163    134.4043     20.3557    122.7387
  1987.0000     33.5745    134.2925     20.9076    123.8307
  1987.2500     33.8566    134.1848     21.5911    123.9065
  1987.5000     34.3237    134.0837     22.3921    124.1292
  1987.7500     34.8957    133.9744     23.2936    124.9273
  1988.0000     35.4403    133.8296     24.2722    126.7124
  1988.2500     35.9004    133.6210     25.2980    127.3081
  1988.5000     36.3513    133.3331     26.3339    125.5019
  1988.7500     36.9527    132.9758     27.3291    121.8772
  1989.0000     37.9213    132.5840     28.2171    112.7953
  1989.2500     39.4919    132.2009     28.9302    105.0558
  1989.5000     41.6470    131.8553     29.4228     93.2481
  1989.7500     43.8604    131.5511     29.6850     86.5467
  1990.0000     45.3923    131.2851     29.7296     79.1220
  1990.2500     45.8747    131.0734     29.5683     75.6549
  1990.5000     45.3918    130.9579     29.2051     72.1341
  1990.7500     44.1014    130.9836     28.6555     71.1642
  1991.0000     42.1136    131.1710     27.9661     73.1717
  1991.2500     39.7157    131.5038     27.2075     77.5595
  1991.5000     37.4039    131.9338     26.4445     88.4226
  1991.7500     35.6005    132.3992     25.7129     97.1904
  1992.0000     34.3881    132.8464     25.0182    109.4825
  1992.2500     33.5108    133.2452     24.3536    115.7800
  1992.5000     32.6772    133.5879     23.7187    122.0347
  1992.7500     31.8294    133.8783     23.1303    124.7297
  1993.0000     31.1081    134.1230     22.6198    127.6856
  1993.2500     30.6865    134.3298     22.2249    128.9678
  1993.5000     30.6783    134.5060     21.9777    129.1388
  1993.7500     31.1020    134.6581     21.8978    127.9466
  1994.0000     31.8817    134.7929     21.9890    125.0800
  1994.2500     32.9082    134.9181     22.2396    123.1077
  1994.5000     34.1137    135.0387     22.6236    120.1631
  1994.7500     35.5020    135.1533     23.1105    117.6213
  1995.0000     37.1186    135.2553     23.6859    111.9837
  1995.2500     38.9977    135.3365     24.3715    107.1088
  1995.5000     41.1310    135.3877     25.2212     99.3120
  1995.7500     43.4644    135.4013     26.2847     94.4077
  1996.0000     45.8827    135.3757     27.5620     87.5347
  1996.2500     48.2240    135.3169     28.9864     82.9458
  1996.5000     50.3734    135.2352     30.4559     76.0458
  1996.7500     52.3101    135.1399     31.8967     72.0354
  1997.0000     54.0309    135.0406     33.3031     68.2535
  1997.2500     55.4898    134.9487     34.7183     67.4935
  1997.5000     56.6157    134.8736     36.1797     68.0299
  1997.7500     57.3606    134.8143     37.6738     68.5023
  1998.0000     57.7394    134.7580     39.1185     68.2773
  1998.2500     57.8287    134.6875     40.3574     67.5847
  1998.5000     57.7270    134.5906     41.1735     66.6505
  1998.7500     57.4957    134.4680     41.3657     66.5855
  1999.0000     57.1196    134.3350     40.8783     67.5680
  1999.2500     56.5401    134.2180     39.8718     68.8331
  1999.5000     55.7256    134.1452     38.6433     71.5256
  1999.7500     54.7021    134.1353     37.4809     73.9086
  2000.0000     53.5222    134.1887     36.5749     78.2709
  2000.2500     52.2243    134.2850     36.0077     81.3503
  2000.5000     50.8425    134.3925     35.7765     85.3404
  2000.7500     49.4436    134.4870     35.8262     87.1970
  2001.0000     48.1421    134.5669     36.0872     88.7849
  2001.2500     47.0744    134.6522     36.5014     89.3957
  2001.5000     46.3306    134.7664     37.0154     90.0824
  2001.7500     45.9318    134.9156     37.5541     90.2353
  2002.0000     45.8749    135.0800     38.0161     89.4805
  2002.2500     46.1499    135.2257     38.3128     88.2463
  2002.5000     46.7056    135.3262     38.4148     85.6013
  2002.7500     47.4287    135.3764     38.3586     83.5814
  2003.0000     48.1625    135.3921     38.2244     80.7712
  2003.2500     48.7408    135.3961     38.1161     79.4203
  2003.5000     49.0528    135.4041     38.1457     78.4188
  2003.7500     49.0944    135.4169     38.3937     78.2391
  2004.0000     48.9295    135.4247     38.8539     78.3483
  2004.2500     48.6217    135.4189     39.4094     78.8209
  2004.5000     48.2723    135.3968     39.8812     80.7902
  2004.7500     48.0749    135.3558     40.1355     83.0294
  2005.0000     48.1795    135.2877     40.1623     86.7930
  2005.2500     48.5541    135.1832     40.0570     88.5789
  2005.5000     49.1062    135.0462     39.9355     88.7586
  2005.7500     49.8233    134.9041     39.8718     86.9388
  2006.0000     50.7684    134.7991     39.8858     81.8695
  2006.2500     52.0258    134.7556     39.9629     77.6987
  2006.5000     53.5494    134.7525     40.0715     71.7524
  2006.7500     55.0723    134.7413     40.1657     68.6287
  2007.0000     56.3433    134.7015     40.1891     65.5925
  2007.2500     57.3247    134.6754     40.0986     64.6317
  2007.5000     58.0293    134.7394     39.9090     64.6709
  2007.7500     58.3985    134.9354     39.7128     65.6394
