~Version Information
VERS.                                  2.0 : CWLS LAS VERSION
WRAP.                                   NO : WRAPING MODE
SWARE .                  MController 2.5.1 : SOFTWARE VERSION
~Well Information
WELL.                  Horesfeathers 24-34 : WELL
COMP.  Pioneer Natural Resources USA, Inc. : COMPANY
FLD.                      Purgatoire River : FIELD
LOC.                      SE/SW 34-32S-67W : LOCATION
DATE.                02/03/2006-02/05/2006 : DATE(S) LOGGED
SRVC.                  Entrada GeoSciences : SERVICE COMPANY
STAT.                             Colorado : STATE
CNTY.                           Las Animas : COUNTY
CTRY.                        United States : COUNTRY
API.                          05-071-xxxxx : API NUMBER
STRT.FT                             514.00 : START DEPTH
STOP.FT                            2575.00 : STOP DEPTH
STEP.FT                               1.00 : DEPTH INCREMENT
NULL.                                -9999 : NULL VALUE
~Curve information
DEPTH.FT                                   :
ROP.MIN/FT                                 :
GAS.UNITS                                  :
~ASCII Log data
# ...
     1132.00         0.30         13.0
     1133.00         0.33         12.7
     1134.00         0.37         13.7
     1135.00         0.30         13.1
     1136.00         0.27         13.3
     1137.00         0.23         13.0
     1138.00         0.27         13.3
     1139.00         0.20         13.3
     1140.00         0.17         12.2
     1141.00         0.23         13.2
     1142.00         0.22         12.8
     1143.00         0.20         12.3
     1144.00         0.27         12.8
     1145.00         0.23         12.8
     1146.00         0.20         13.6
     1147.00         0.30         12.4
     1148.00         0.20         13.6
     1149.00         0.23         13.2
     1150.00         0.23         12.8
     1151.00         0.23         13.5
     1152.00         0.23         13.4
     1153.00         0.27         13.6
     1154.00         0.27         13.5
     1155.00         0.27         13.3
     1156.00         0.32         12.9
     1157.00         0.23         12.7
     1158.00         0.17         12.6
     1159.00         0.20         12.9
     1160.00         0.27         12.7
     1161.00         0.27         13.0
     1162.00         0.27         13.1
     1163.00         0.33         16.4
     1164.00         0.27         28.1
     1165.00         0.23         43.7
     1166.00         0.27         16.2
     1167.00         0.23         15.4
     1168.00         0.40         71.3
     1169.00         0.20         99.3
     1170.00         0.20         99.3
     1171.00         0.25        126.2
     1172.00         0.20        213.6
     1173.00         0.20        218.9
     1174.00         0.13        186.9
     1175.00         0.33        144.6
     1176.00         0.27        113.4
     1177.00         0.50         69.6
     1178.00         0.27         43.8
     1179.00         0.20         34.3
     1180.00         0.10         29.2
     1181.00         0.43         28.4
     1182.00         0.23         21.8
     1183.00         0.20         21.1
     1184.00         0.22         21.1
     1185.00         0.27         21.6
     1186.00         0.23         20.6
     1187.00         0.23         19.5
     1188.00         0.27         19.9
     1189.00         0.23         19.1
     1190.00         0.27         18.7
     1191.00         0.50         20.7
     1192.00         0.40         11.8
     1193.00         0.37         11.9
     1194.00         0.27         18.2
     1195.00         0.25         26.7
     1196.00         0.30         38.9
     1197.00         0.30         45.2
     1198.00         0.27         41.6
     1199.00         0.20         38.9
     1200.00         0.17         26.9
     1201.00         0.13         24.3
     1202.00         0.23         20.6
     1203.00         0.17         14.8
     1204.00         0.27         14.3
     1205.00         0.23         13.1
     1206.00         0.23         13.1
     1207.00         0.23         13.0
     1208.00         0.17         12.8
     1209.00         0.20         12.8
     1210.00         0.20         11.6
     1211.00         0.18         12.5
     1212.00         0.20         13.2
     1213.00         0.13         13.5
     1214.00         0.17         13.5
     1215.00         0.27         18.0
     1216.00         0.20         18.0
     1217.00         0.23         19.6
     1218.00         0.23         20.2
     1219.00         0.17         19.5
     1220.00         0.10         20.9
     1221.00         0.47         33.3
     1222.00         0.27         44.2
     1223.00         0.13         50.2
     1224.00         0.13         12.7
     1225.00         0.13         12.4
     1226.00         0.13         12.4
     1227.00         0.17         15.9
     1228.00         0.20         29.3
     1229.00         0.30        191.6
     1230.00         0.28        242.3
     1231.00         0.20        284.3
     1232.00         0.20        290.7
     1233.00         0.20        281.3
     1234.00         0.20        219.2
     1235.00         0.13        173.6
     1236.00         0.10        119.0
     1237.00         0.37        105.1
     1238.00         0.27         66.6
     1239.00         0.30         43.3
     1240.00         0.27         33.0
     1241.00         0.27         26.5
     1242.00         0.40         25.6
     1243.00         0.20         25.9
     1244.00         0.28         26.6
     1245.00         0.23         33.6
     1246.00         0.33         36.2
     1247.00         0.27         37.8
     1248.00         0.30         37.8
     1249.00         0.33         32.9
     1250.00         0.27         29.0
     1251.00         0.50         25.2
     1252.00         0.33         18.8
     1253.00         0.13         19.0
     1254.00         0.13         19.0
     1255.00         0.27         22.6
     1256.00         0.33         28.8
     1257.00         0.27         35.8
     1258.00         0.30         52.5
     1259.00         0.23         20.8
     1260.00         0.33         49.1
     1261.00         0.30         88.0
     1262.00         0.38        107.3
     1263.00         0.33         90.1
     1264.00         0.40         39.8
     1265.00         0.43         27.8
     1266.00         0.43         15.2
     1267.00         0.43         12.0
     1268.00         0.40         12.9
     1269.00         0.20         13.9
     1270.00         0.20         15.5
     1271.00         0.20         16.5
     1272.00         0.22         18.3
     1273.00         0.20         19.8
     1274.00         0.13         19.8
     1275.00         0.10         20.5
     1276.00         0.13         21.3
     1277.00         0.27         21.4
     1278.00         0.37         21.7
     1279.00         0.37         20.6
     1280.00         0.27         21.1
     1281.00         0.27         20.3
     1282.00         0.33         19.2
     1283.00         0.33         18.9
     1284.00         0.33         19.1
     1285.00         0.30         25.1
     1286.00         0.17          9.9
     1287.00         0.28         45.3
     1288.00         0.20         45.3
     1289.00         0.17         97.9
     1290.00         0.20        125.0
     1291.00         0.23        157.1
     1292.00         0.23        160.6
     1293.00         0.23        129.2
     1294.00         0.20        102.8
     1295.00         0.20         60.7
     1296.00         0.37         48.0
     1297.00         0.20         32.0
     1298.00         0.13         22.5
     1299.00         0.20         17.9
     1300.00         0.23         16.6
     1301.00         0.30         13.0
     1302.00         0.42         13.5
     1303.00         0.37         15.8
     1304.00         0.40         18.2
     1305.00         0.40         18.6
     1306.00         0.27         18.7
     1307.00         0.27         19.3
     1308.00         0.33         19.1
     1309.00         0.20         18.4
     1310.00         0.27         18.2
     1311.00         0.27         16.8
     1312.00         0.37         19.1
     1313.00         0.38          9.8
     1314.00         0.23         16.2
     1315.00         0.13         32.2
     1316.00         0.17         46.1
     1317.00         0.13         82.2
     1318.00         0.13         82.2
     1319.00         0.20        114.7
     1320.00         0.23        121.8
     1321.00         0.27        139.8
     1322.00         0.37        128.5
     1323.00         0.30        106.1
     1324.00         0.20         75.2
     1325.00         0.17         51.0
     1326.00         0.23         34.9
     1327.00         0.27         30.8
     1328.00         0.32         20.4
     1329.00         0.23         16.7
     1330.00         0.23         16.3
     1331.00         0.20         15.5
     1332.00         0.27         16.6
     1333.00         0.23         17.6
     1334.00         0.13         19.1
     1335.00         0.20         19.8
     1336.00         0.23         21.1
     1337.00         0.23         22.0
