~Version Information
VERS.                      2.0: CWLS Log ASCII Standard - VERSION 2.0
WRAP.                       NO: One line per depth step
~Well Information Block
STRT.FT               260.0000: 
STOP.FT              1229.5000: 
STEP.FT                 0.1000: 
NULL.                -999.2500: 
COMP.          Pioneer Natural Resources: COMPANY
WELL.             Mahalo 12-20: WELL
FLD.           Purgatoire River: FIELD
LOC.           1689' FNL & 479' FWL: LOCATION
CNTY.               Las Animas: COUNTY
SRVC.                Patterson: SERVICE COMPANY
DATE.          Mon Feb 27 07:00:19 2006: LOG DATE
UWI.           05 071 08700 00: UNIQUE WELL ID
STAT.                 Colorado: STATE
~Curve Information Block
DEPT.FT            0 000 00 00: Depth
DCAL.in                       : CDL Caliper
RHOB.g/cc                     : CDL Bulk Density
RHOC.g/cc                     : CDL Density Correction
DPOR.pu                       : CDL Density Porosity
GR.GAPI                       : Gamma Ray
NPOR.pu                       : Neutron Porosity
~Parameter Information Block
~A  Depth       DCAL        RHOB        RHOC        DPOR         GR         NPOR    
# ...
   519.2000      7.7983      2.4409     -0.0148     12.6706     67.4141     17.4137
   519.3000      7.8002      2.4477      0.0321     12.2617     72.1720     17.0808
   519.4000      7.8002      2.4415      0.0032     12.6390     73.9033     16.9571
   519.5000      7.7996      2.4402     -0.0306     12.7163     73.7477     16.7349
   519.6000      7.7996      2.4517      0.0334     12.0192     74.6626     16.7320
   519.7000      7.7996      2.4495      0.0637     12.1519     76.0954     17.2498
   519.8000      7.7993      2.4241      0.0232     13.6889     72.6229     17.5235
   519.9000      7.7993      2.4039      0.0084     14.9136     63.3662     17.0890
   520.0000      7.7982      2.4063      0.0129     14.7668     55.6196     16.4942
   520.1000      7.7982      2.4256     -0.0039     13.6003     55.7834     16.2166
   520.2000      7.7982      2.4507      0.0494     12.0765     60.6086     16.5079
   520.3000      7.7989      2.4645      0.0370     11.2435     63.6488     17.2331
   520.4000      7.7989      2.4633      0.0474     11.3163     64.3267     17.6899
   520.5000      7.7960      2.4648      0.0242     11.2257     63.6773     17.4671
   520.6000      7.7960      2.4748      0.0680     10.6152     62.2021     17.0924
   520.7000      7.7960      2.4837      0.0309     10.0811     60.1684     16.9446
   520.8000      7.7950      2.4908      0.0471      9.6488     58.7634     16.9137
   520.9000      7.7950      2.4969      0.0738      9.2812     60.2484     16.9509
   521.0000      7.7971      2.4980      0.0098      9.2095     61.7984     17.1411
   521.1000      7.7971      2.4941      0.0558      9.4484     61.7135     17.3091
   521.2000      7.7971      2.4819      0.0271     10.1885     62.8416     17.1863
   521.3000      7.8111      2.4686      0.0061     10.9920     63.8172     17.1000
   521.4000      7.8111      2.4687      0.0345     10.9909     61.5468     17.5789
   521.5000      7.8136      2.4771     -0.0001     10.4787     59.6192     18.5605
   521.6000      7.8136      2.4869      0.0070      9.8867     60.8177     19.0589
   521.7000      7.8136      2.5027     -0.0002      8.9287     63.9511     18.5932
   521.8000      7.8115      2.5210      0.0130      7.8206     68.0909     18.2877
   521.9000      7.8115      2.5344      0.0182      7.0072     70.7937     18.8604
   522.0000      7.8114      2.5386      0.0383      6.7507     73.3885     19.8964
   522.1000      7.8114      2.5280      0.0259      7.3950     80.3325     20.8120
   522.2000      7.8114      2.5121     -0.0438      8.3564     89.8100     21.2287
   522.3000      7.8127      2.5126      0.0206      8.3294     97.9661     21.3505
   522.4000      7.8127      2.5306      0.0303      7.2353    106.0077     21.7588
   522.5000      7.8105      2.5469      0.0100      6.2504    115.0085     22.5108
   522.6000      7.8105      2.5454     -0.0092      6.3411    120.3616     23.0783
   522.7000      7.8105      2.5307      0.0007      7.2305    118.7808     23.1929
   522.8000      7.8119      2.5220     -0.0207      7.7605    115.7429     23.3652
   522.9000      7.8119      2.5239     -0.0039      7.6447    117.4328     23.8667
   523.0000      7.8131      2.5207      0.0135      7.8359    122.7356     23.9651
   523.1000      7.8131      2.5019     -0.0085      8.9738    127.4868     23.2071
   523.2000      7.8131      2.4706     -0.0146     10.8713    129.9603     22.5815
   523.3000      7.8155      2.4374     -0.0503     12.8826    130.9919     22.7923
   523.4000      7.8155      2.4218     -0.0684     13.8282    131.4397     23.2582
   523.5000      7.8106      2.4355     -0.0510     13.0011    130.2376     23.5514
   523.6000      7.8106      2.4663     -0.0214     11.1322    127.7426     24.0405
   523.7000      7.8106      2.4954     -0.0130      9.3699    131.6341     24.9206
   523.8000      7.8096      2.5108      0.0889      8.4366    143.8497     25.5773
   523.9000      7.8096      2.5064      0.0583      8.7017    155.1031     25.6019
   524.0000      7.8075      2.4881      0.0531      9.8116    160.0610     25.3934
   524.1000      7.8075      2.4661      0.0301     11.1449    161.3656     25.7128
   524.2000      7.8075      2.4460      0.0240     12.3660    158.8775     26.5405
   524.3000      7.8086      2.4377      0.0052     12.8649    153.1035     27.1130
   524.4000      7.8086      2.4522      0.0150     11.9888    148.7801     27.2411
   524.5000      7.8083      2.4869      0.0616      9.8841    147.1224     27.2001
   524.6000      7.8083      2.5328      0.0824      7.1058    141.6079     26.9569
   524.7000      7.8083      2.5754      0.1455      4.5225    131.4082     26.4428
   524.8000      7.8009      2.6013      0.1336      2.9541    126.4507     25.6236
   524.9000      7.8009      2.6108      0.1086      2.3742    127.8149     24.5565
   525.0000      7.8045      2.5978      0.1616      3.1666    125.0557     23.5891
   525.1000      7.8045      2.5509      0.1065      6.0067    116.6808     22.8393
   525.2000      7.8045      2.4920      0.0140      9.5742    112.0129     22.2991
   525.3000      7.8023      2.4513      0.0083     12.0397    116.0371     22.3543
   525.4000      7.8023      2.4254     -0.0196     13.6097    124.4602     22.9073
   525.5000      7.8094      2.4023     -0.0321     15.0151    131.1164     23.1446
   525.6000      7.8094      2.3884     -0.0546     15.8530    135.2531     23.2735
   525.7000      7.8094      2.3918     -0.0157     15.6477    140.5172     24.0939
   525.8000      7.8103      2.4046      0.0257     14.8746    151.0892     25.3673
   525.9000      7.8103      2.4235      0.0401     13.7279    162.6089     26.4490
   526.0000      7.8022      2.4537      0.1239     11.8992    165.7352     27.4784
   526.1000      7.8022      2.4878      0.2073      9.8321    163.2520     28.6594
   526.2000      7.8022      2.5142      0.1938      8.2301    163.2064     30.1363
   526.3000      7.8037      2.5327      0.1962      7.1104    163.0099     32.1017
   526.4000      7.8037      2.5515      0.1844      5.9694    158.6846     33.7579
   526.5000      7.8050      2.5727      0.2076      4.6827    152.8528     34.3680
   526.6000      7.8050      2.5923      0.1694      3.4971    146.1868     34.3385
   526.7000      7.8050      2.6139      0.1506      2.1866    137.5886     34.1522
   526.8000      7.8120      2.6442      0.1045      0.3502    130.2235     33.8955
   526.9000      7.8120      2.6757      0.1400     -1.5548    127.2485     33.4339
   527.0000      7.8156      2.6821      0.1714     -1.9458    125.9004     32.4520
   527.1000      7.8156      2.6607      0.0284     -0.6472    122.3316     30.8807
   527.2000      7.8156      2.6412      0.0439      0.5346    118.3722     29.1091
   527.3000      7.8124      2.6266      0.0567      1.4154    117.7692     28.0563
   527.4000      7.8124      2.5948      0.0092      3.3468    121.2239     27.7494
   527.5000      7.8093      2.5470     -0.0528      6.2434    130.1923     26.7895
   527.6000      7.8093      2.5089     -0.0667      8.5525    143.8168     25.0139
   527.7000      7.8093      2.4976     -0.0236      9.2383    153.1626     23.2857
   527.8000      7.8006      2.5012      0.0522      9.0186    154.0956     21.7162
   527.9000      7.8006      2.4961      0.0423      9.3272    155.9920     20.2582
   528.0000      7.8367      2.4825     -0.0048     10.1544    165.0188     19.2211
   528.1000      7.8367      2.4772      0.0175     10.4727    174.6177     18.7767
   528.2000      7.8367      2.4760      0.0567     10.5426    176.0755     18.4033
   528.3000      7.8222      2.4473      0.0988     12.2850    166.0647     17.3280
   528.4000      7.8222      2.3646      0.0779     17.2965    150.1067     15.7807
   528.5000      7.8199      2.2251      0.0664     25.7535    138.3741     14.7119
   528.6000      7.8199      2.0415     -0.0322     36.8770    136.4593     14.6431
   528.7000      7.8199      1.8410     -0.1379     49.0281    139.0104     15.7534
