~Version Information
VERS.                      2.0: CWLS Log ASCII Standard - VERSION 2.0
WRAP.                       NO: One line per depth step
~Well Information Block
STRT.FT                -6.0000: 
STOP.FT              1295.2500: 
STEP.FT                 0.2500: 
NULL.                -999.2500: 
COMP.          Pioneer Natural Resources: COMPANY
WELL.            Erin 21-15 Tr: WELL
FLD.           Purgatoire River: FIELD
LOC.           1217' FNL & 2284' FWL--: LOCATION
CNTY.               Las Animas: COUNTY
SRVC.                         : SERVICE COMPANY
DATE.          Fri Mar 10 09:14:17 2006: LOG DATE
UWI.           05 071 08712 00: UNIQUE WELL ID
STAT.                       CO: STATE
~Curve Information Block
DEPT.FT            0 000 00 00: Depth
GR.GAPI                       : Gamma Ray
CCL.                          : Casing Collar Locator
TT3.usec                      : CBL 3' Travel Time
AMP3.mV                       : CBL 3' Amplitude
~Parameter Information Block
~A  Depth        GR         CCL         TT3         AMP3    
# ...
   262.0000     58.8797      0.0000    782.7360     14.8131
   262.2500     59.5450      0.0000    783.1931     14.8336
   262.5000     61.0242      0.0000    784.3383     14.7775
   262.7500     62.5112      0.0000    786.6558     14.6644
   263.0000     63.3064      0.0000    790.4232     14.4898
   263.2500     63.2039      0.0000    795.3343     14.2307
   263.5000     62.5900      0.0000    800.3703     13.8813
   263.7500     62.2647      0.0000    804.0755     13.4846
   264.0000     63.0865      0.0000    805.1199     13.1228
   264.2500     65.4801      0.0000    803.1231     12.8668
   264.5000     68.9472      0.0000    799.3806     12.7275
   264.7500     72.1960      0.0000    796.4590     12.6485
   265.0000     74.2632      0.0000    796.3638     12.5452
   265.2500     75.5404      0.0000    798.7566     12.3658
   265.5000     77.2201      0.0000    801.0574     12.1326
   265.7500     79.7489      0.0000    800.5787     11.9273
   266.0000     82.3734      0.0000    796.7471     11.8298
   266.2500     84.3638      0.0000    791.2599     11.8643
   266.5000     86.1883      0.0000    786.3347     11.9905
   266.7500     89.0653      0.0000    783.1298     12.1355
   267.0000     93.6246      0.0000    781.5921     12.2410
   267.2500     99.2929      0.0000    781.1377     12.2901
   267.5000    104.6480      0.0000    781.1957     12.2955
   267.7500    107.9524      0.0000    781.3945     12.2658
   268.0000    107.7179      0.0000    781.6122     12.1918
   268.2500    103.6682      0.0000    782.1063     12.0594
   268.5000     97.3655      0.0000    783.7780     11.8624
   268.7500     91.3760      0.0000    788.3675     11.5942
   269.0000     87.5813      0.0000    797.9086     11.2605
   269.2500     86.2825      0.0000    813.0035     10.9297
   269.5000     86.5650      0.0000    830.9747     10.7308
   269.7500     87.2502      0.0000    846.2697     10.7325
   270.0000     87.6588      0.0000    853.5984     10.8456
   270.2500     87.7875      0.0000    850.8629     10.9200
   270.5000     87.9773      0.0000    839.1624     10.9133
   270.7500     88.4440      0.0000    821.2292     10.8979
   271.0000     89.0526      0.0000    801.0521     10.9411
   271.2500     89.5055      1.8570    784.2294     11.0585
   271.5000     89.7830     -2.0000    776.5207     11.2688
   271.7500     90.2841      0.0000    780.5224     11.6480
   272.0000     91.3316      0.0000    793.4818     12.3081
   272.2500     92.5007      0.0000    808.5235     13.2854
   272.5000     92.5724      0.0000    818.4749     14.4101
   272.7500     90.3305      0.0000    819.6565     15.3357
   273.0000     85.6219      0.0000    813.2576     15.7834
   273.2500     79.7853      0.0000    803.6821     15.7472
   273.5000     74.9624      0.0000    795.4793     15.4405
   273.7500     72.7613      0.0000    791.2150     15.1035
   274.0000     73.4264      0.0000    791.1525     14.8838
   274.2500     76.0513      0.0000    794.0367     14.8114
   274.5000     79.2236      0.0000    797.9725     14.8245
   274.7500     81.4795      0.0000    800.9921     14.8325
   275.0000     81.6310      0.0000    801.3849     14.7834
   275.2500     79.0674      0.0000    798.2070     14.6840
   275.5000     74.0231      0.0000    792.0410     14.5664
   275.7500     67.7285      0.0000    785.2337     14.4497
   276.0000     61.9927      0.0000    780.9859     14.3358
   276.2500     58.0912      0.0000    781.5291     14.2253
   276.5000     56.0443      0.0000    786.3879     14.1215
   276.7500     55.1428      0.0000    792.4074     14.0241
   277.0000     54.8397      0.0000    796.1996     13.9369
   277.2500     54.8772      0.0000    796.6619     13.8856
   277.5000     55.0936      0.0000    794.8076     13.9137
   277.7500     55.6658      0.0000    791.7986     14.0498
   278.0000     57.2143      0.0000    788.0768     14.2770
   278.2500     60.1827      0.0000    783.8936     14.5261
   278.5000     64.3247      0.0000    779.6254     14.7006
   278.7500     69.0288      0.0000    775.6865     14.7258
   279.0000     73.8389      0.0000    772.7257     14.5923
   279.2500     78.4407      0.0000    771.6168     14.3567
   279.5000     82.3813      0.0000    772.6892     14.0979
   279.7500     85.0349      0.0000    775.1483     13.8731
   280.0000     85.9502      0.0000    777.6259     13.7034
   280.2500     85.4329      0.0000    779.0994     13.5874
   280.5000     84.7144      0.0000    779.0078     13.5157
   280.7500     85.0918      0.0000    776.7899     13.4705
   281.0000     86.6896      0.0000    771.8681     13.4177
   281.2500     88.3330      0.0000    764.3698     13.3171
   281.5000     88.7300      0.0000    755.6895     13.1558
   281.7500     87.6503      0.0000    747.9587     12.9691
   282.0000     86.0057      0.0000    742.8336     12.8244
   282.2500     84.9591      0.0000    740.9344     12.7801
   282.5000     84.9745      0.0000    742.3305     12.8567
   282.7500     85.6908      0.0000    747.0187     13.0416
   283.0000     86.5010      0.0000    754.5969     13.3114
   283.2500     86.9876      0.0000    763.8118     13.6444
   283.5000     86.9237      0.0000    772.9726     14.0156
   283.7500     86.2400      0.0000    780.8149     14.3974
   284.0000     85.1021      0.0000    786.7495     14.7742
   284.2500     83.8377      0.0000    790.5987     15.1428
   284.5000     82.6863      0.0000    792.4958     15.4897
   284.7500     81.7052      0.0000    792.7568     15.7817
   285.0000     80.9872      0.0000    791.5744     15.9834
   285.2500     80.8210      0.0000    789.1638     16.0820
   285.5000     81.3585      0.0000    786.2059     16.0952
   285.7500     82.1801      0.0000    783.6223     16.0643
   286.0000     82.5201      0.0000    781.8441     16.0388
   286.2500     82.0472      0.0000    780.6071     16.0582
   286.5000     81.1981      0.0000    779.3362     16.1312
   286.7500     80.5760      0.0000    777.4130     16.2229
   287.0000     80.2498      0.0000    774.2190     16.2727
   287.2500     79.8516      0.0000    769.5500     16.2333
   287.5000     79.2564      0.0000    764.4079     16.0893
   287.7500     79.0347      0.0000    761.0489     15.8441
   288.0000     80.0696      0.0000    761.4633     15.5094
   288.2500     82.5391      0.0000    765.5353     15.1121
   288.5000     85.4837      0.0000    771.0795     14.6966
   288.7500     87.7017      0.0000    775.7100     14.3090
   289.0000     88.9761      0.0000    778.2802     13.9792
   289.2500     90.1261      0.0000    778.6068     13.7147
   289.5000     91.8856      0.0000    776.4954     13.5022
   289.7500     94.0293      0.0000    771.5649     13.3176
   290.0000     95.6756      0.0000    764.0428     13.1475
   290.2500     96.2479      0.0000    755.4308     13.0021
   290.5000     96.0060      0.0000    748.0621     12.9014
   290.7500     95.6245      0.0000    743.9521     12.8472
   291.0000     95.3614      0.0000    744.0994     12.8139
   291.2500     94.7881      0.0000    748.4417     12.7636
   291.5000     93.3141      0.0000    755.8014     12.6716
   291.7500     90.8639      0.0000    763.8647     12.5525
   292.0000     88.2043      0.0000    770.0020     12.4696
   292.2500     86.6682      0.0000    772.8407     12.5085
   292.5000     87.1397      0.0000    773.1780     12.7165
   292.7500     89.0859      0.0000    773.1793     13.0572
   293.0000     91.0538      0.0000    774.6064     13.4271
   293.2500     92.2896      0.0000    777.9320     13.7214
   293.5000     93.2240      0.0000    783.0056     13.8845
   293.7500     94.1872      0.0000    789.8532     13.9133
   294.0000     94.5373      0.0000    798.3057     13.8403
   294.2500     93.6672      0.0000    807.2262     13.7192
   294.5000     92.3389      0.0000    814.7742     13.6040
   294.7500     92.2459      0.0000    819.5049     13.5233
   295.0000     94.2117      0.0000    820.8849     13.4663
   295.2500     97.1937      0.0000    818.8438     13.3944
