~Version Information
VERS.                      2.0: CWLS Log ASCII Standard - VERSION 2.0
WRAP.                       NO: One line per depth step
~Well Information Block
STRT.FT                 0.0000: 
STOP.FT              1426.7500: 
STEP.FT                 0.2500: 
NULL.                -999.2500: 
COMP.          Pioneer Natural Resources: COMPANY
WELL.            Bordeaux 42-2: WELL
FLD.           Purgatorie River: FIELD
LOC.           1963' FNL & 1148' FEL: LOCATION
PROV.                 Colorado: PROVINCE
CNTY.               Las Animas: COUNTRY
SRVC.                Patterson: SERVICE COMPANY
DATE.          Fri Dec 02 09:28:20 2005: LOG DATE
UWI.                          : UNIQUE WELL ID
~Curve Information Block
DEPT.FT            0 000 00 00: Depth
CCL.                          : Casing Collar Locator
TT3.usec                      : CBL 3' Travel Time
AMP3.mV                       : CBL 3' Amplitude
GR.GAPI                       : Gamma Ray
~Parameter Information Block
~A  Depth       CCL         TT3         AMP3         GR     
# ...
   670.0000      0.0000    732.1808     11.2960    115.7676
   670.2500      0.0000    732.3939     11.2890    116.6221
   670.5000      0.0000    737.2147     11.2702    118.1297
   670.7500      0.0000    743.8298     11.2467    120.1580
   671.0000      0.0000    749.5318     11.2300    121.6629
   671.2500      0.0000    752.5290     11.2210    121.0462
   671.5000      0.0000    751.0931     11.1966    117.3899
   671.7500      0.0000    747.7828     11.1116    111.4972
   672.0000      0.0000    748.9861     10.9465    105.4654
   672.2500      0.0000    755.3288     10.7402    101.1878
   672.5000      0.0000    760.0301     10.5127     99.3837
   672.7500      0.0000    758.5167     10.2146     99.9441
   673.0000      0.0000    752.9334      9.8075    102.8176
   673.2500      0.0000    747.2607      9.3046    108.2229
   673.5000      0.0000    744.7206      8.7669    115.8653
   673.7500      0.0000    748.9510      8.3135    124.1258
   674.0000      0.0000    760.3717      8.0401    130.4669
   674.2500      0.0000    773.4219      7.9438    132.8952
   674.5000      0.0000    781.8000      7.9646    130.8627
   674.7500      0.0000    785.2204      8.0397    124.8818
   675.0000      0.0000    788.1437      8.1397    115.9930
   675.2500      0.0000    790.9862      8.2921    105.8164
   675.5000      0.0000    788.9099      8.5499     96.3751
   675.7500      0.0000    780.5163      8.9476     89.2354
   676.0000      0.0000    769.7582      9.4885     84.9308
   676.2500      0.0000    760.6699     10.1500     83.2354
   676.5000      0.0000    755.7288     10.8860     83.6445
   676.7500      0.0000    754.6100     11.6195     85.5666
   677.0000      0.0000    753.7372     12.2505     88.4046
   677.2500      0.0000    751.5980     12.6867     91.6225
   677.5000      0.0000    750.6030     12.8830     94.7887
   677.7500      0.0000    753.1000     12.8645     97.7092
   678.0000      0.0000    758.8277     12.7148    100.5271
   678.2500      0.0000    764.6381     12.5432    103.6553
   678.5000      0.0000    766.9904     12.4366    107.5538
   678.7500      0.0000    764.5340     12.4088    112.5648
   679.0000      0.0000    758.5470     12.4062    118.8706
   679.2500      0.0000    752.5745     12.3888    126.2108
   679.5000      0.0000    749.8288     12.3915    133.1989
   679.7500      0.0000    750.5049     12.4668    137.2252
   680.0000      0.0000    751.4970     12.5839    136.0721
   680.2500      0.0000    748.5211     12.6279    130.1074
   680.5000      0.0000    742.0933     12.5265    122.5604
   680.7500      0.0000    738.9711     12.3611    117.5310
   681.0000      0.0000    744.0400     12.2898    117.6179
   681.2500      0.0000    754.2058     12.3694    122.7108
   681.5000      0.0000    762.0939     12.5104    130.2443
   681.7500      0.0000    763.4815     12.5862    136.6854
   682.0000      0.0000    760.1119     12.5378    139.5924
   682.2500      0.0000    756.8198     12.3902    138.7629
   682.5000      0.0000    755.8480     12.2205    135.4299
   682.7500      0.0000    755.4809     12.0957    130.6942
   683.0000      0.0000    755.1887     12.0080    125.1377
   683.2500      0.0000    756.3314     11.8978    119.4504
   683.5000      0.0000    759.6053     11.7714    114.3232
   683.7500      0.0000    766.8619     11.7302    109.5621
   684.0000      0.0000    778.8783     11.8391    104.2458
   684.2500      0.0000    792.0023     12.0521     98.1946
   684.5000      0.0000    803.6502     12.3120     92.6868
   684.7500      0.0000    814.4719     12.6158     89.3346
   685.0000      0.0000    821.5307     12.9314     88.6629
   685.2500      0.0000    817.2866     13.1376     90.1681
   685.5000      0.0000    796.0494     13.0874     93.3242
   685.7500      0.0000    754.1805     12.7856     97.9679
   686.0000      0.0000    692.8958     12.5277    103.9020
   686.2500      0.0000    640.6055     12.4660    110.4037
   686.5000      0.0000    650.9811     12.1309    115.9459
   686.7500      0.0000    734.5711     11.2136    118.5030
   687.0000      0.0000    823.9377     10.2447    116.8484
   687.2500      0.0000    857.1274      9.7169    111.9046
   687.5000      0.0000    845.9643      9.5065    106.6321
   687.7500      2.0000    828.4956      9.3500    104.4523
   688.0000      0.0000    817.1915      9.1562    107.3499
   688.2500      0.0000    809.4549      8.9713    114.5696
   688.5000      0.0000    793.1727      9.0011    122.7548
   688.7500      0.0000    743.9913      9.6468    127.8963
   689.0000      0.0000    664.5070     11.0927    127.9293
   689.2500      0.0000    607.3130     12.6950    124.0861
   689.5000      0.0000    614.7597     13.5781    120.0879
   689.7500      0.0000    666.2483     13.7222    119.6245
   690.0000      0.0000    716.6319     13.5888    123.6924
   690.2500      0.0000    747.1842     13.4169    129.8962
   690.5000      0.0000    764.1579     13.2853    134.5062
   690.7500      0.0000    776.4695     13.2095    135.3865
   691.0000      0.0000    784.3748     13.1500    133.0181
   691.2500      0.0000    784.8439     13.0902    129.0958
   691.5000      0.0000    779.9286     13.0433    124.7507
   691.7500      0.0000    775.3499     13.0008    120.3297
   692.0000      0.0000    775.0559     12.9314    116.4198
   692.2500      0.0000    779.0770     12.8234    114.2168
   692.5000      0.0000    784.1885     12.6992    114.3326
   692.7500      0.0000    787.2432     12.5928    115.5277
   693.0000      0.0000    788.8463     12.5281    115.3856
   693.2500      0.0000    791.1658     12.5089    112.4328
   693.5000      0.0000    793.5258     12.5234    107.2818
   693.7500      0.0000    793.1564     12.5540    101.8402
   694.0000      0.0000    787.8065     12.5730     97.8923
   694.2500      0.0000    777.5757     12.5583     96.2905
   694.5000      0.0000    765.3744     12.5156     96.8686
   694.7500      0.0000    752.9656     12.4521     98.8009
   695.0000      0.0000    740.0472     12.3650    101.0779
   695.2500      0.0000    728.8708     12.2661    102.7534
   695.5000      0.0000    722.5375     12.1650    103.0523
   695.7500      0.0000    720.9199     12.0600    101.7595
   696.0000      0.0000    723.0673     11.9635     99.5815
   696.2500      0.0000    730.1254     11.8933     97.6496
   696.5000      0.0000    742.5958     11.8503     96.6216
   696.7500      0.0000    755.8956     11.8270     96.6076
   697.0000      0.0000    763.1107     11.8197     97.6046
   697.2500      0.0000    762.8677     11.8169     99.1832
   697.5000      0.0000    761.7319     11.7907     99.9087
   697.7500      0.0000    767.2860     11.7255     98.0622
   698.0000      0.0000    778.8065     11.6381     93.3551
   698.2500      0.0000    789.1935     11.5420     87.5660
   698.5000      0.0000    794.5561     11.4326     83.2436
   698.7500      0.0000    796.2157     11.3326     81.9210
   699.0000      0.0000    796.4218     11.2991     83.4831
   699.2500      0.0000    796.1813     11.3521     86.7671
   699.5000      0.0000    795.5386     11.4349     90.4574
   699.7500      0.0000    793.7200     11.4549     93.4623
   700.0000      0.0000    789.0997     11.3485     94.8137
   700.2500      0.0000    781.1910     11.1275     93.8384
   700.5000      0.0000    773.7648     10.8775     90.8350
   700.7500      0.0000    772.0435     10.6874     87.1473
   701.0000      0.0000    775.1393     10.5670     84.0494
   701.2500      0.0000    777.6633     10.4540     81.8056
   701.5000      0.0000    778.5004     10.3130     80.1788
   701.7500      0.0000    780.0151     10.1875     79.3699
   702.0000      0.0000    783.5602     10.1302     79.9365
   702.2500      0.0000    791.9997     10.1306     82.0733
   702.5000      0.0000    805.7209     10.1381     85.3698
   702.7500      0.0000    815.5034     10.1257     89.0987
   703.0000      0.0000    813.4299     10.1179     92.4936
   703.2500      0.0000    804.7396     10.1542     94.8841
