~Version Information
VERS.                      2.0: CWLS Log ASCII Standard - VERSION 2.0
WRAP.                       NO: One line per depth step
~Well Information Block
STRT.FT                -6.5000: 
STOP.FT              1773.5000: 
STEP.FT                 0.2500: 
NULL.                -999.2500: 
COMP.          Pioneer Natural Resources: COMPANY
WELL.           Lynch 43-30 Tr: WELL
FLD.           Purgatorie River: FIELD
LOC.           1431' FSL & 296' FEL--: LOCATION
PROV.                       CO: PROVINCE
CNTY.               Las Animas: COUNTRY
SRVC.          Patterson Wireline: SERVICE COMPANY
DATE.          Tue Aug 02 09:28:21 2005: LOG DATE
UWI.           05 071 08447 00: UNIQUE WELL ID
~Curve Information Block
DEPT.FT            0 000 00 00: Depth
CCL.                          : Casing Collar Locator
TT3.usec                      : CBL 3' Travel Time
AMP3.mV                       : CBL 3' Amplitude
GR.GAPI                       : Gamma Ray
~Parameter Information Block
MINAMPL.mV              1.0000: Minimum Amplitude
~A  Depth       CCL         TT3         AMP3         GR     
# ...
  1635.0000      0.0000    653.8621      8.4938    110.1016
  1635.2500      0.0000    662.4073      8.5122    102.8053
  1635.5000      0.0000    664.3718      8.5716     98.3978
  1635.7500      0.0000    657.1243      8.6620     96.4741
  1636.0000      0.0000    644.3444      8.7641     95.9853
  1636.2500      0.0000    627.4782      8.8555     96.4215
  1636.5000      0.0000    600.9803      8.9148     97.9321
  1636.7500      0.0000    559.0279      8.9258    100.3455
  1637.0000      0.0000    505.5844      8.8852    102.6343
  1637.2500      0.0000    454.4146      8.8102    103.6635
  1637.5000      0.0000    418.8826      8.7335    103.3039
  1637.7500      0.0000    403.6335      8.6852    102.6878
  1638.0000      0.0000    405.2549      8.6751    103.3930
  1638.2500      0.0000    417.5450      8.6895    106.1015
  1638.5000      0.0000    435.4086      8.7026    109.9060
  1638.7500      0.0000    456.4734      8.6946    113.1348
  1639.0000      0.0000    481.4281      8.6598    114.9914
  1639.2500      0.0000    512.4164      8.6019    116.2004
  1639.5000      0.0000    549.0226      8.5238    117.9017
  1639.7500      0.0000    585.0864      8.4271    120.0546
  1640.0000      0.0000    610.5542      8.3202    121.2251
  1640.2500      0.0000    617.5984      8.2204    120.0609
  1640.5000      0.0000    605.9842      8.1423    116.9158
  1640.7500      0.0000    584.4016      8.0868    113.9851
  1641.0000      0.0000    566.3760      8.0443    113.8350
  1641.2500      0.0000    561.3654      8.0080    117.4463
  1641.5000      0.0000    568.2346      7.9823    123.2249
  1641.7500      0.0000    579.5728      7.9754    127.9291
  1642.0000      0.0000    591.8499      7.9876    128.9460
  1642.2500      0.0000    607.7003      8.0092    126.0307
  1642.5000      0.0000    628.9806      8.0287    121.2582
  1642.7500      0.0000    652.0842      8.0418    117.4819
  1643.0000      0.0000    670.8738      8.0541    116.5189
  1643.2500      0.0000    681.7772      8.0752    118.3456
  1643.5000      0.0000    685.0554      8.1077    121.6881
  1643.7500      0.0000    682.1234      8.1403    125.1563
  1644.0000      0.0000    673.1153      8.1521    127.8912
  1644.2500      0.0000    658.1989      8.1274    129.6170
  1644.5000      0.0000    640.7475      8.0672    130.5292
  1644.7500      0.0000    627.4794      7.9872    131.2735
  1645.0000      0.0000    624.6017      7.9044    132.8398
  1645.2500      0.0000    633.9140      7.8287    136.0603
  1645.5000      0.0000    651.9963      7.7658    140.9283
  1645.7500      0.0000    672.4606      7.7225    146.4433
  1646.0000      0.0000    689.5998      7.7041    151.0583
  1646.2500      0.0000    701.1199      7.7038    153.2137
  1646.5000      0.0000    708.2472      7.6984    151.9262
  1646.7500      0.0000    713.6142      7.6591    147.4305
  1647.0000      0.0000    718.7971      7.5744    141.1794
  1647.2500      0.0000    723.3141      7.4648    134.9395
  1647.5000      0.0000    726.0260      7.3710    129.6254
  1647.7500      0.0000    727.5916      7.3254    124.5982
  1648.0000      0.0000    730.5464      7.3322    118.0416
  1648.2500      0.0000    736.3198      7.3724    108.5261
  1648.5000      0.0000    743.4627      7.4222     96.4444
  1648.7500      0.0000    749.7863      7.4647     83.8914
  1649.0000      0.0000    754.8945      7.4922     73.3508
  1649.2500      0.0000    759.4670      7.5056     66.4491
  1649.5000      0.0000    763.3539      7.5124     63.3095
  1649.7500      0.0000    765.9783      7.5237     62.7315
  1650.0000      0.0000    768.0420      7.5498     63.2202
  1650.2500      0.0000    771.2546      7.5936     64.1117
  1650.5000      0.0000    776.2581      7.6452     65.8463
  1650.7500      0.0000    781.8158      7.6851     69.2468
  1651.0000      0.0000    786.2166      7.6941     74.4863
  1651.2500      0.0000    788.7798      7.6634     80.6774
  1651.5000      0.0000    789.8997      7.5961     86.4699
  1651.7500      0.0000    790.2502      7.5039     90.9263
  1652.0000      0.0000    790.2257      7.4020     93.6795
  1652.2500      0.0000    789.7957      7.3032     94.4207
  1652.5000      0.0000    788.4793      7.2134     92.6920
  1652.7500      0.0000    785.4004      7.1351     88.5423
  1653.0000      0.0000    779.7260      7.0726     83.2307
  1653.2500      0.0000    771.5254      7.0350     78.6385
  1653.5000      0.0000    762.3117      7.0340     75.5351
  1653.7500      0.0000    754.4564      7.0787     72.7228
  1654.0000      0.0000    749.9528      7.1654     68.4432
  1654.2500      0.0000    749.7543      7.2736     62.6557
  1654.5000      0.0000    753.8549      7.3783     57.6259
  1654.7500      0.0000    761.2159      7.4727     56.2350
  1655.0000      0.0000    769.5083      7.5779     59.8618
  1655.2500      0.0000    775.5642      7.7305     67.7871
  1655.5000      0.0000    776.8450      7.9452     78.1612
  1655.7500      0.0000    773.1656      8.1708     89.1827
  1656.0000      0.0000    767.3495      8.2885     99.6251
  1656.2500      0.0000    763.5491      8.1967    108.7957
  1656.5000      0.0000    763.9686      7.9229    116.1579
  1656.7500      0.0000    767.2706      7.6219    120.9561
  1657.0000      0.0000    770.4137      7.4393    122.4914
  1657.2500      0.0000    771.5594      7.3983    120.9644
  1657.5000      0.0000    771.2193      7.4246    117.6314
  1657.7500      2.0000    771.2690      7.4441    113.9062
  1658.0000      0.0000    773.0240      7.4436    110.7331
  1658.2500      0.0000    776.2245      7.4630    108.9563
  1658.5000      0.0000    779.6947      7.5345    109.7888
  1658.7500      0.0000    782.3173      7.6211    114.4375
  1659.0000      0.0000    783.4485      7.6403    123.2237
  1659.2500      0.0000    783.3303      7.5759    135.0309
  1659.5000      0.0000    783.1970      7.5268    147.3339
  1659.7500      0.0000    784.2195      7.6039    156.8727
  1660.0000      0.0000    786.3484      7.8147    161.1363
  1660.2500      0.0000    788.5956      8.0779    159.8682
  1660.5000      0.0000    790.1779      8.3108    154.9990
  1660.7500      0.0000    791.0169      8.4796    148.9293
  1661.0000      0.0000    791.4158      8.5965    143.0133
  1661.2500      0.0000    791.6438      8.6937    137.4954
  1661.5000      0.0000    791.8107      8.7939    132.2673
  1661.7500      0.0000    791.9304      8.8940    127.5197
  1662.0000      0.0000    791.9863      8.9736    124.0063
  1662.2500      0.0000    791.9620      9.0126    122.6460
  1662.5000      0.0000    791.8581      8.9967    123.4682
  1662.7500      0.0000    791.7073      8.9152    124.9508
  1663.0000      0.0000    791.5529      8.7670    124.8854
  1663.2500      0.0000    791.4078      8.5722    122.1484
  1663.5000      0.0000    791.2057      8.3700    117.5490
  1663.7500      0.0000    790.7549      8.1990    112.9310
  1664.0000      0.0000    789.6477      8.0797    109.5279
  1664.2500      0.0000    787.2343      8.0155    107.2249
  1664.5000      0.0000    782.8448      8.0028    105.4121
  1664.7500      0.0000    776.2646      8.0336    104.2774
  1665.0000      0.0000    768.1417      8.0885    104.7752
  1665.2500      0.0000    760.0381      8.1340    107.2507
  1665.5000      0.0000    754.0605      8.1355    110.6715
  1665.7500      0.0000    752.0346      8.0830    113.5985
  1666.0000      0.0000    754.4031      8.0036    115.5928
  1666.2500      0.0000    759.5809      7.9446    117.4610
  1666.5000      0.0000    764.3547      7.9386    120.3492
  1666.7500      0.0000    765.0535      7.9845    124.7219
  1667.0000      0.0000    758.4229      8.0599    129.9255
  1667.2500      0.0000    741.8757      8.1438    134.4788
  1667.5000      0.0000    714.3295      8.2227    137.0712
  1667.7500      0.0000    678.1511      8.2834    137.8244
  1668.0000      0.0000    640.0666      8.3123    138.4134
  1668.2500      0.0000    608.9132      8.3060    140.3033
