~Version Information
 VERS.                                  2.0 : CWLS LAS VERSION
 WRAP.                                   NO : WRAPING MODE
 SWARE .                 MController 2.5.0N : SOFTWARE VERSION
~Well Information
 WELL.                          Julie 11-30 : WELL
 COMP.       Pioneer Natural Resources, USA : COMPANY
 FLD.                       Purgatory River : FIELD
 LOC.                 NW/NW Sec30 T33S R65W : LOCATION
 DATE.                              4/13/06 : DATE(S) LOGGED
 SRVC.      Blanco Geological Services, LLC : SERVICE COMPANY
 STAT.                             Colorado : STATE
 CNTY.                           Las Animas : COUNTY
 CTRY.                                  USA : COUNTRY
 API.                       05-071-08724-00 : API NUMBER
 STRT.FT                             178.00 : START DEPTH
 STOP.FT                            1270.00 : STOP DEPTH
 STEP.FT                               1.00 : DEPTH INCREMENT
 NULL.                                -9999 : NULL VALUE
~Curve information
 DEPTH.FT                                   :
 ROP.MIN/FT                                 :
 GAS.UNITS                                  :
~ASCII Log data
       178.0     -9999.00          1.8 
       179.0         1.25          1.9 
       180.0         0.13          1.5 
       181.0         0.07          1.4 
       182.0         0.17          1.7 
       183.0         0.10          1.4 
       184.0         0.10          1.7 
       185.0         0.13          1.7 
       186.0         0.10          1.6 
       187.0         0.10          1.4 
       188.0         0.13          1.5 
       189.0         0.10          1.6 
       190.0         0.13          1.4 
       191.0         0.10          1.3 
       192.0         0.13          1.6 
       193.0         0.10          1.3 
       194.0         0.10          1.3 
       195.0         0.13          1.3 
       196.0         0.10          1.2 
       197.0         0.10          1.3 
       198.0         0.13          1.5 
       199.0         0.12          1.2 
       200.0         0.13          1.3 
       201.0         0.13          1.1 
       202.0         2.37          3.4 
       203.0         0.17          3.2 
       204.0         0.17          2.9 
       205.0         0.10          3.0 
       206.0         0.10          3.2 
       207.0         0.10          3.1 
       208.0         0.15          3.0 
       209.0         0.10          2.9 
       210.0         0.10          3.0 
       211.0         0.10          3.0 
       212.0         0.10          3.1 
       213.0         0.10          2.9 
       214.0         0.13          3.1 
       215.0         0.10          2.9 
       216.0         0.10          3.0 
       217.0         0.10          2.8 
       218.0         0.10          3.1 
       219.0         0.10          2.8 
       220.0         0.13          2.7 
       221.0         0.10          2.6 
       222.0         0.10          2.8 
       223.0         0.13          3.0 
       224.0         0.10          2.9 
       225.0         0.10          2.9 
       226.0         0.10          2.8 
       227.0         0.13          2.8 
       228.0         0.10          2.8 
       229.0         0.10          3.0 
       230.0         0.13          3.0 
       231.0         0.10          3.1 
       232.0         2.72          3.2 
       233.0         0.17          2.5 
       234.0         0.20          2.8 
       235.0         0.17          2.8 
       236.0         0.13          2.5 
       237.0         0.10          2.6 
       238.0         0.10          2.8 
       239.0         0.13          2.6 
       240.0         0.10          2.7 
       241.0         0.10          2.4 
       242.0         0.10          2.8 
       243.0         0.15          2.6 
       244.0         0.10          2.9 
       245.0         0.10          2.6 
       246.0         0.10          2.8 
       247.0         0.10          2.6 
       248.0         0.13          2.5 
       249.0         0.10          2.5 
       250.0         0.10          2.7 
       251.0         0.13          2.6 
       252.0         0.10          2.4 
       253.0         0.10          2.8 
       254.0         0.10          2.5 
       255.0         0.13          2.6 
       256.0         0.10          2.6 
       257.0         0.10          2.6 
       258.0         0.10          2.4 
       259.0         0.13          2.6 
       260.0         0.10          2.5 
       261.0         0.17          2.8 
       262.0         2.58          3.1 
       263.0         0.27          2.5 
       264.0         0.20          2.4 
       265.0         0.20          2.4 
       266.0         0.20          2.6 
       267.0         0.20          2.5 
       268.0         0.20          2.6 
       269.0         0.17          2.7 
       270.0         0.17          2.4 
       271.0         0.13          2.6 
       272.0         0.17          2.7 
       273.0         0.35          2.8 
       274.0         0.20          4.2 
       275.0         0.20          4.3 
       276.0         0.17          4.6 
       277.0         0.23          4.2 
       278.0         0.20          3.9 
       279.0         0.20          3.5 
       280.0         0.17          3.3 
       281.0         0.17          3.1 
       282.0         0.20          3.2 
       283.0         0.23          3.1 
       284.0         0.27          2.9 
       285.0         0.27          3.2 
       286.0         0.30          2.8 
       287.0         0.27          2.9 
       288.0         0.18          2.6 
       289.0         0.20          2.5 
       290.0         0.17          2.3 
       291.0         0.23          2.7 
       292.0         2.85          2.9 
       293.0         0.33          2.4 
       294.0         0.43          2.1 
       295.0         0.30          2.0 
       296.0         0.17          2.1 
       297.0         0.17          2.3 
       298.0         0.20          2.5 
       299.0         0.17          2.0 
       300.0         0.17          2.0 
       301.0         0.17          2.1 
       302.0         0.23          1.8 
       303.0         0.37          1.9 
       304.0         0.27          2.3 
       305.0         0.22          1.7 
       306.0         0.20          1.6 
       307.0         0.20          1.6 
       308.0         0.20          2.1 
       309.0         0.23          1.8 
       310.0         0.23          1.8 
       311.0         0.23          1.8 
       312.0         0.23          1.8 
       313.0         0.23          1.8 
       314.0         0.23          1.7 
       315.0         0.27          1.8 
       316.0         0.23          1.8 
       317.0         0.23          1.8 
       318.0         0.30          1.7 
       319.0         0.28          1.8 
       320.0         0.30          2.5 
       321.0         0.30          2.7 
       322.0         2.95          4.5 
       323.0         0.23          3.7 
       324.0         0.27          3.1 
       325.0         0.23          3.0 
       326.0         0.23          3.2 
       327.0         0.20          3.0 
       328.0         0.20          3.0 
       329.0         0.17          2.8 
       330.0         0.13          2.6 
       331.0         0.17          2.6 
       332.0         0.13          2.6 
       333.0         0.17          2.8 
       334.0         0.17          3.8 
       335.0         0.13          4.7 
       336.0         0.17          6.3 
       337.0         0.17          6.2 
       338.0         0.28          6.0 
       339.0         0.23          6.2 
       340.0         0.23          6.5 
       341.0         0.23          6.0 
       342.0         0.27          5.2 
       343.0         0.23          3.9 
       344.0         0.23          3.3 
       345.0         0.23          3.1 
       346.0         0.27          3.0 
       347.0         0.23          3.3 
       348.0         0.27          3.1 
       349.0         0.27          3.1 
       350.0         0.23          3.3 
       351.0         0.23          3.1 
       352.0         2.45          2.8 
       353.0         0.23          2.8 
       354.0         0.43          3.8 
       355.0         0.35          3.2 
       356.0         0.20          3.1 
       357.0         0.27          3.3 
       358.0         0.23          3.6 
       359.0         0.23          4.2 
       360.0         0.23          5.1 
       361.0         0.23          5.8 
       362.0         0.23          5.9 
       363.0         0.23          6.0 
       364.0         0.27          6.1 
       365.0         0.30          5.8 
       366.0         0.30          5.3 
       367.0         0.23          4.8 
       368.0         0.23          4.4 
       369.0         0.25          4.1 
       370.0         0.27          3.2 
       371.0         0.23          2.9 
       372.0         0.33          2.7 
       373.0         0.27          2.4 
       374.0         0.23          2.5 
       375.0         0.23          2.3 
       376.0         0.20          2.3 
       377.0         0.23          2.4 
