~Version Information
VERS.                      2.0: CWLS Log ASCII Standard - VERSION 2.0
WRAP.                       NO: One line per depth step
~Well Information Block
STRT.FT                 7.7500: 
STOP.FT              2101.0000: 
STEP.FT                 0.2500: 
NULL.                -999.2500: 
COMP.          Pioneer Natural Resources: COMPANY
WELL.          Gunslinger 13-24: WELL
FLD.           Purgatoire River: FIELD
LOC.           1968' FSL & 633' FWL: LOCATION
PROV.                 Colorado: PROVINCE
CNTY.               Las Animas: COUNTRY
SRVC.                Patterson: SERVICE COMPANY
DATE.          Mon Aug 15 11:00:02 2005: LOG DATE
UWI.           05 071 08442 00: UNIQUE WELL ID
~Curve Information Block
DEPT.FT            0 000 00 00: Depth
GR.GAPI                       : Gamma Ray
CCL.                          : Casing Collar Locator
TT3.usec                      : CBL 3' Travel Time
AMP3.mV                       : CBL 3' Amplitude
~Parameter Information Block
~A  Depth        GR         CCL         TT3         AMP3    
# ...
   275.7500     74.9829      0.0000    292.1643     38.2543
   276.0000     75.4155      0.0000    294.2184     36.8480
   276.2500     74.3490      0.0000    295.6862     35.8573
   276.5000     71.3498      0.0000    297.0207     35.1635
   276.7500     67.3149      0.0000    298.1044     34.6827
   277.0000     64.2573     -2.8903    298.9081     34.2980
   277.2500     63.5195     -1.8613    299.6139     33.9438
   277.5000     64.5609      0.0000    300.2673     33.7367
   277.7500     65.7061      0.0000    300.3333     34.0638
   278.0000     65.7731      0.0000    298.6133     35.4720
   278.2500     64.7271      0.0000    293.9547     38.2337
   278.5000     63.0496      0.0000    286.3493     41.9210
   278.7500     61.0953      0.0000    277.2224     45.5796
   279.0000     59.2741      0.0000    268.5779     48.3985
   279.2500     58.3347      0.0000    261.9060     50.1517
   279.5000     58.8458      0.0000    257.6754     51.0833
   279.7500     60.4445      0.0000    255.4799     51.5731
   280.0000     62.0636      0.0000    254.5408     51.9153
   280.2500     63.0214      0.0000    254.1848     52.2535
   280.5000     63.5940      0.0000    254.0322     52.6056
   280.7500     64.4716      0.0000    253.9386     52.9305
   281.0000     66.0091      0.0000    253.8675     53.1933
   281.2500     68.1445      0.0000    253.8180     53.3884
   281.5000     70.7599      0.0000    253.7895     53.5305
   281.7500     73.8787      0.0000    253.7772     53.6418
   282.0000     77.5866      0.0000    253.7712     53.7554
   282.2500     81.9242      0.0000    253.7604     53.9143
   282.5000     86.9019      0.0000    253.7370     54.1525
   282.7500     92.3839      0.0000    253.7003     54.4681
   283.0000     97.6737      0.0000    253.6580     54.8097
   283.2500    101.3430      0.0000    253.6224     55.0903
   283.5000    101.9170      0.0000    253.6047     55.2277
   283.7500     99.0422      0.0000    253.6083     55.1896
   284.0000     93.9812      0.0000    253.6283     55.0081
   284.2500     88.8253      0.0000    253.6569     54.7496
   284.5000     85.1239      0.0000    253.6901     54.4707
   284.7500     83.1120      0.0000    253.7284     54.1971
   285.0000     81.9832      0.0000    253.7723     53.9326
   285.2500     80.7575      0.0000    253.8206     53.6771
   285.5000     79.0816      0.0000    253.8725     53.4287
   285.7500     77.3655      0.0000    253.9297     53.1745
   286.0000     76.0882      0.0000    253.9945     52.8900
   286.2500     75.0264      0.0000    254.0636     52.5629
   286.5000     73.4212      0.0000    254.1261     52.2165
   286.7500     70.8641      0.0000    254.1702     51.8999
   287.0000     67.7693      0.0000    254.1921     51.6567
   287.2500     65.0203      0.0000    254.1976     51.5071
   287.5000     63.3210      0.0000    254.1948     51.4545
   287.7500     62.8074      0.0000    254.1868     51.4949
   288.0000     63.1699      0.0000    254.1725     51.6205
   288.2500     64.0734      0.0000    254.1510     51.8161
   288.5000     65.3256      0.0000    254.1254     52.0510
   288.7500     66.7423      0.0000    254.1018     52.2779
   289.0000     68.2323      0.0000    254.0838     52.4514
   289.2500     69.9609      0.0000    254.0689     52.5535
   289.5000     72.0275      0.0000    254.0522     52.5979
   289.7500     74.0390      0.0000    254.0327     52.6129
   290.0000     75.3719      0.0000    254.0149     52.6283
   290.2500     75.8458      0.0000    254.0038     52.6745
   290.5000     75.8940      0.0000    253.9989     52.7799
   290.7500     76.0996      0.0000    253.9946     52.9551
   291.0000     76.7214      0.0000    253.9852     53.1780
   291.2500     77.5923      0.0000    253.9705     53.3980
   291.5000     78.2797      0.0000    253.9552     53.5650
   291.7500     78.2974      0.0000    253.9445     53.6600
   292.0000     77.3836      0.0000    253.9416     53.6963
   292.2500     75.8928      0.0000    253.9481     53.6885
   292.5000     74.9306      0.0000    253.9669     53.6180
   292.7500     75.8421      0.0000    254.0029     53.4341
   293.0000     79.3989      0.0000    254.0614     53.0947
   293.2500     85.2843      0.0000    254.1433     52.6102
   293.5000     92.0268      0.0000    254.2428     52.0390
   293.7500     97.4353      0.0000    254.3503     51.4354
   294.0000     99.6435      0.0000    254.4566     50.8108
   294.2500     98.3933      0.0000    254.5545     50.1600
   294.5000     95.5615      0.0000    254.6389     49.5127
   294.7500     94.1079      0.0000    254.7072     48.9404
   295.0000     95.7497      0.0000    254.7591     48.5092
   295.2500     99.2475      0.0000    254.7944     48.2401
   295.5000    101.2277      0.0000    254.8102     48.1097
   295.7500     99.0405      0.0000    254.8046     48.0713
   296.0000     92.8339      0.0000    254.7819     48.0728
   296.2500     84.9544      0.0000    254.7510     48.0798
   296.5000     77.7903      0.0000    254.7176     48.0965
   296.7500     72.4718      0.0000    254.6791     48.1577
   297.0000     69.1220      0.0000    254.6277     48.2985
   297.2500     67.4915      0.0000    254.5576     48.5358
   297.5000     67.0889      0.0000    254.4706     48.8741
   297.7500     67.2131      0.0000    254.3762     49.3097
   298.0000     67.3975      0.0000    254.2856     49.8235
   298.2500     67.9357      0.0000    254.2045     50.3762
   298.5000     69.8452      0.0000    254.1319     50.9139
   298.7500     74.1107      0.0000    254.0654     51.3877
   299.0000     80.6339      0.0000    254.0043     51.7824
   299.2500     87.7436      0.0000    253.9469     52.1285
   299.5000     92.9507      0.0000    253.8888     52.4688
   299.7500     94.6451      0.0000    253.8272     52.8080
   300.0000     93.3116      0.0000    253.7645     53.1072
   300.2500     91.1060      0.0000    253.7068     53.3286
   300.5000     90.1856      0.0000    253.6586     53.4720
   300.7500     91.2691      0.0000    253.6220     53.5643
   301.0000     93.5121      0.0000    253.5979     53.6231
   301.2500     95.6678      0.0000    253.5886     53.6309
   301.5000     97.4705      0.0000    253.5988     53.5352
   301.7500     99.7923      0.0000    253.6328     53.2825
   302.0000    103.2420      0.0000    253.6887     52.8673
   302.2500    106.8755      0.0000    253.7558     52.3535
   302.5000    108.8660      0.0000    253.8216     51.8408
   302.7500    108.4960      0.0000    253.8789     51.4198
   303.0000    107.0384      0.0000    253.9249     51.1559
   303.2500    106.5607      0.0000    253.9556     51.0876
   303.5000    108.0886      0.0000    253.9658     51.2134
   303.7500    110.8963      0.0000    253.9541     51.4828
   304.0000    113.3096      0.0000    253.9267     51.8131
   304.2500    114.0938      0.0000    253.8955     52.1216
   304.5000    113.1135      0.0000    253.8749     52.3500
   304.7500    110.8307      0.0000    253.8734     52.4776
   305.0000    107.6114      0.0000    253.8871     52.5250
   305.2500    103.7862      0.0000    253.9011     52.5430
   305.5000    100.0271      0.0000    253.9009     52.5878
   305.7500     97.1357      0.0000    253.8812     52.6902
   306.0000     95.4738      0.0000    253.8473     52.8441
   306.2500     94.8572      0.0000    253.8084     53.0237
   306.5000     95.0074      0.0000    253.7710     53.2102
   306.7500     95.9889      0.0000    253.7381     53.3924
   307.0000     98.1566      0.0000    253.7118     53.5459
   307.2500    101.6363      0.0000    253.6967     53.6298
   307.5000    105.8522      0.0000    253.6958     53.6190
   307.7500    109.6222      0.0000    253.7068     53.5342
   308.0000    111.8298      0.0000    253.7225     53.4309
   308.2500    112.1790      0.0000    253.7384     53.3585
   308.5000    111.4011      0.0000    253.7561     53.3257
   308.7500    110.6865      0.0000    253.7802     53.3055
   309.0000    110.7870      0.0000    253.8115     53.2786
