~Version Information
VERS.                      2.0: CWLS Log ASCII Standard - VERSION 2.0
WRAP.                       NO: One line per depth step
~Well Information Block
STRT.FT               230.0000: 
STOP.FT              1028.0000: 
STEP.FT                 0.2500: 
NULL.                -999.2500: 
COMP.          Pioneer Natural Resources: COMPANY
WELL.              Gough 14-29: WELL
FLD.           Purgatoire River: FIELD
LOC.           1199' FSL & 676' FWL: LOCATION
PROV.                 Colorado: PROVINCE
CNTY.               Las Animas: COUNTRY
SRVC.                Patterson: SERVICE COMPANY
DATE.          Thu Dec 22 16:27:18 2005: LOG DATE
UWI.           05 071 08612 00: UNIQUE WELL ID
~Curve Information Block
DEPT.FT            0 000 00 00: Depth
SN.Ohm-m                      : IEL Short Normal
SP.mV                         : IEL Spontaneous Potential
DIR.Ohm-m                     : IEL Induction Resistivity
GR.GAPI                       : Gamma Ray
~Parameter Information Block
SNDERRM.mmho-m         10.0000: Medium Sonde Error Correction
~A  Depth        SN          SP         DIR          GR     
# ...
   732.5000     16.3888     28.5434     13.6520    103.0437
   732.7500     16.6877     28.1933     13.9440    103.5512
   733.0000     16.9549     27.7434     14.2600    103.4748
   733.2500     17.2280     27.2063     14.6038    103.1827
   733.5000     17.5694     26.6265     14.9670    102.2757
   733.7500     17.9813     26.0691     15.3381    100.9567
   734.0000     18.4025     25.5889     15.7130     97.3544
   734.2500     18.7665     25.2044     16.0985     93.9573
   734.5000     19.0408     24.8953     16.5062     88.2913
   734.7500     19.2643     24.6178     16.9393     84.8662
   735.0000     19.5038     24.3199     17.3852     81.2600
   735.2500     19.7578     23.9531     17.8204     80.1826
   735.5000     20.0263     23.4834     18.2235     80.6241
   735.7500     20.4139     22.9027     18.5848     82.0361
   736.0000     20.9671     22.2331     18.9055     84.8621
   736.2500     21.5459     21.5213     19.1901     86.5092
   736.5000     22.0224     20.8252     19.4408     87.7697
   736.7500     22.4146     20.1970     19.6601     87.7500
   737.0000     22.7490     19.6692     19.8576     86.8999
   737.2500     23.0111     19.2446     20.0541     86.0379
   737.5000     23.2587     18.8951     20.2807     84.3273
   737.7500     23.5844     18.5721     20.5707     82.8778
   738.0000     23.9887     18.2260     20.9499     80.6043
   738.2500     24.4426     17.8258     21.4229     79.3247
   738.5000     24.9609     17.3671     21.9657     77.5927
   738.7500     25.5007     16.8653     22.5310     75.9732
   739.0000     25.9777     16.3412     23.0721     71.9047
   739.2500     26.4305     15.8076     23.5729     68.0804
   739.5000     27.0298     15.2630     24.0574     61.4873
   739.7500     27.9516     14.6920     24.5694     57.1069
   740.0000     29.2463     14.0729     25.1380     51.2936
   740.2500     30.8190     13.3914     25.7615     48.2207
   740.5000     32.5050     12.6537     26.4171     45.2296
   740.7500     34.0473     11.8900     27.0919     44.3719
   741.0000     35.1542     11.1432     27.8070     44.2981
   741.2500     35.7631     10.4496     28.6160     44.6420
   741.5000     36.0947      9.8247     29.5686     45.7035
   741.7500     36.3556      9.2628     30.6559     47.3048
   742.0000     36.4896      8.7493     31.7771     52.0709
   742.2500     36.3246      8.2770     32.7661     56.7910
   742.5000     35.8446      7.8553     33.4791     64.4942
   742.7500     35.1827      7.5075     33.8689     68.5512
   743.0000     34.5126      7.2586     33.9735     71.2877
   743.2500     33.9791      7.1204     33.8462     70.9211
   743.5000     33.5981      7.0821     33.5170     68.4026
   743.7500     33.3209      7.1091     33.0124     66.1613
   744.0000     33.2267      7.1554     32.3915     62.4682
   744.2500     33.4335      7.1836     31.7470     59.8171
   744.5000     33.8470      7.1833     31.1736     55.8785
   744.7500     34.1592      7.1760     30.7347     53.7600
   745.0000     34.0988      7.2051     30.4505     52.3258
   745.2500     33.6737      7.3152     30.3050     52.9139
   745.5000     33.0810      7.5335     30.2507     56.0768
   745.7500     32.4290      7.8627     30.2012     59.2884
   746.0000     31.7224      8.2877     30.0163     64.5910
   746.2500     30.9665      8.7865     29.5202     67.6388
   746.5000     30.1089      9.3391     28.5821     70.3388
   746.7500     29.0661      9.9314     27.2165     70.8093
   747.0000     27.8380     10.5567     25.5995     70.5589
   747.2500     26.4450     11.2171     23.9667     70.4765
   747.5000     24.8566     11.9206     22.4954     70.8952
   747.7500     23.1431     12.6717     21.2571     71.4563
   748.0000     21.6064     13.4583     20.2358     72.9433
   748.2500     20.5821     14.2441     19.3704     74.8350
   748.5000     20.1563     14.9768     18.5967     79.8264
   748.7500     20.1596     15.6058     17.8779     84.5926
   749.0000     20.3373     16.1009     17.2132     92.6681
   749.2500     20.4901     16.4603     16.6227     97.4889
   749.5000     20.5268     16.7075     16.1243    102.2301
   749.7500     20.4456     16.8780     15.7190    103.5066
   750.0000     20.2751     17.0045     15.3966    103.5260
   750.2500     20.0266     17.1062     15.1488    103.1162
   750.5000     19.7435     17.1881     14.9774    102.7994
   750.7500     19.5714     17.2490     14.8919    102.9188
   751.0000     19.6580     17.2911     14.8983    103.7288
   751.2500     19.9769     17.3254     14.9913    104.8373
   751.5000     20.3173     17.3730     15.1509    107.0433
   751.7500     20.4981     17.4649     15.3495    108.1298
   752.0000     20.5866     17.6371     15.5630    107.7298
   752.2500     20.8064     17.9210     15.7827    105.7843
   752.5000     21.2061     18.3360     16.0190    100.9180
   752.7500     21.5875     18.8896     16.2906     97.0936
   753.0000     21.7913     19.5803     16.6063     91.9200
   753.2500     21.8530     20.3972     16.9494     89.6319
   753.5000     21.9205     21.3199     17.2781     88.8674
   753.7500     22.1795     22.3216     17.5434     90.3327
   754.0000     22.7492     23.3746     17.7145     95.2939
   754.2500     23.4798     24.4547     17.7924    100.0109
   754.5000     23.9310     25.5440     17.8028    107.7372
   754.7500     23.7428     26.6302     17.7764    112.1100
   755.0000     22.9679     27.7003     17.7341    115.7821
   755.2500     21.9830     28.7316     17.6846    116.2514
   755.5000     21.2028     29.6867     17.6318    115.6590
   755.7500     20.8610     30.5187     17.5815    115.4443
   756.0000     20.9438     31.1864     17.5423    115.4280
   756.2500     21.2699     31.6727     17.5186    114.8128
   756.5000     21.6155     31.9959     17.5062    112.3202
   756.7500     21.8408     32.2026     17.4961    110.1901
   757.0000     21.9590     32.3477     17.4891    107.4908
   757.2500     22.0668     32.4746     17.5077    105.8655
   757.5000     22.2213     32.6070     17.5912    102.2467
   757.7500     22.4315     32.7492     17.7753     98.4979
   758.0000     22.7369     32.8921     18.0712     91.5001
   758.2500     23.1978     33.0201     18.4604     86.9306
   758.5000     23.7796     33.1190     18.9104     81.8684
   758.7500     24.3428     33.1814     19.3982     80.1158
   759.0000     24.8047     33.2063     19.9230     79.5162
   759.2500     25.2229     33.1928     20.4999     79.7823
   759.5000     25.6473     33.1344     21.1435     79.9868
   759.7500     25.9955     33.0191     21.8539     79.7173
   760.0000     26.2105     32.8385     22.6111     79.1450
   760.2500     26.3949     32.5981     23.3804     79.0649
   760.5000     26.6366     32.3191     24.1251     79.5104
   760.7500     26.9117     32.0296     24.8206     79.8529
   761.0000     27.2154     31.7531     25.4560     79.7678
   761.2500     27.5639     31.5006     26.0214     79.0952
   761.5000     27.9203     31.2677     26.4937     77.0988
   761.7500     28.2822     31.0362     26.8398     75.2269
   762.0000     28.7002     30.7811     27.0389     72.1488
   762.2500     29.1029     30.4819     27.1075     70.3654
   762.5000     29.3203     30.1364     27.1028     68.6211
   762.7500     29.3255     29.7658     27.0998     68.0484
   763.0000     29.2376     29.4081     27.1550     67.7140
   763.2500     29.1363     29.1041     27.2794     67.7943
   763.5000     29.0195     28.8832     27.4338     68.7509
   763.7500     28.8478     28.7546     27.5466     70.1445
   764.0000     28.5619     28.7064     27.5488     72.9871
   764.2500     28.1351     28.7104     27.4046     74.6942
   764.5000     27.6451     28.7280     27.1179     75.6677
   764.7500     27.2586     28.7186     26.7161     74.9082
   765.0000     27.0674     28.6500     26.2320     72.1996
   765.2500     26.9763     28.5080     25.6979     70.1482
   765.5000     26.8776     28.3003     25.1452     68.0416
   765.7500     26.8114     28.0480     24.6001     67.6023
