~Version Information
VERS.                      2.0: CWLS Log ASCII Standard - VERSION 2.0
WRAP.                       NO: One line per depth step
~Well Information Block
STRT.FT                -7.7500: 
STOP.FT              1485.2500: 
STEP.FT                 0.2500: 
NULL.                -999.2500: 
COMP.          Pioneer Natural Resources: COMPANY
WELL.          Hammerhead 24-24 Tr: WELL
FLD.           Purgatorie River: FIELD
LOC.           953' FSL & 1922' FWL--: LOCATION
CNTY.               Las Animas: COUNTY
SRVC.          Patterson Wireline: SERVICE COMPANY
DATE.          Thu Feb 02 15:03:23 2006: LOG DATE
UWI.           05 071 08669 00: UNIQUE WELL ID
STAT.                       CO: STATE
~Curve Information Block
DEPT.FT            0 000 00 00: Depth
CCL.                          : Casing Collar Locator
TT3.usec                      : CBL 3' Travel Time
AMP3.mV                       : CBL 3' Amplitude
GR.GAPI                       : Gamma Ray
~Parameter Information Block
~A  Depth       CCL         TT3         AMP3         GR     
# ...
   394.2500      0.0000    739.5018      7.0347     54.9512
   394.5000      0.0000    739.5709      7.0670     52.7064
   394.7500      0.0000    739.5569      7.1078     51.3438
   395.0000      0.0000    739.4317      7.1554     51.5387
   395.2500      0.0000    739.2201      7.2178     53.0042
   395.5000      0.0000    738.9844      7.3005     54.2576
   395.7500      0.0000    738.7950      7.3962     53.9122
   396.0000      0.0000    738.7095      7.4874     52.0935
   396.2500      0.0000    738.7568      7.5560     50.2666
   396.5000      0.0000    738.9149      7.5932     49.7685
   396.7500      0.0000    739.1027      7.6023     50.8053
   397.0000      0.0000    739.2159      7.5954     52.6085
   397.2500      0.0000    739.2057      7.5839     54.0612
   397.5000      0.0000    739.1435      7.5727     54.2957
   397.7500      0.0000    739.2969      7.5625     53.2280
   398.0000      0.0000    740.3011      7.5554     51.7056
   398.2500      0.0000    743.4677      7.5512     50.8866
   398.5000      0.0000    750.7083      7.5412     51.3543
   398.7500      0.0000    763.1735      7.5150     52.8611
   399.0000      0.0000    778.8939      7.4737     54.8194
   399.2500      0.0000    792.0609      7.4325     56.8507
   399.5000      0.0000    796.2621      7.4093     58.8037
   399.7500      0.0000    789.4912      7.4139     60.3971
   400.0000      0.0000    775.8738      7.4441     61.0866
   400.2500      0.0000    762.5503      7.4872     60.5598
   400.5000      0.0000    755.3986      7.5256     59.4934
   400.7500      0.0000    757.1791      7.5473     59.4965
   401.0000      0.0000    767.3441      7.5526     61.9074
   401.2500      0.0000    781.5045      7.5508     66.5389
   401.5000      0.0000    792.1436      7.5500     71.6400
   401.7500      0.0000    793.1887      7.5488     75.1584
   402.0000      0.0000    785.4249      7.5380     76.3117
   402.2500      0.0000    776.2126      7.5070     76.0939
   402.5000      0.0000    772.7660      7.4521     76.2103
   402.7500      0.0000    775.8013      7.3823     77.5184
   403.0000      0.0000    779.5618      7.3197     79.4520
   403.2500      0.0000    777.5846      7.2883     80.7030
   403.5000      0.0000    768.2921      7.2944     80.3751
   403.7500      0.0000    755.3160      7.3168     78.6502
   404.0000      0.0000    743.5826      7.3235     76.4106
   404.2500      0.0000    736.1726      7.3000     74.2624
   404.5000      0.0000    733.9659      7.2571     72.0883
   404.7500      0.0000    736.1052      7.2160     69.5319
   405.0000      0.0000    740.2118      7.1930     66.6863
   405.2500      0.0000    743.4470      7.1991     64.0504
   405.5000      0.0000    744.3904      7.2420     61.9326
   405.7500      0.0000    743.9208      7.3245     60.1906
   406.0000      0.0000    744.2014      7.4387     58.5334
   406.2500      0.0000    746.8590      7.5641     56.8232
   406.5000      0.0000    751.7002      7.6708     55.2383
   406.7500      0.0000    756.6059      7.7273     54.4401
   407.0000      0.0000    758.8064      7.7131     55.2576
   407.2500      0.0000    756.9061      7.6339     57.8011
   407.5000      0.0000    751.9391      7.5239     61.2078
   407.7500      0.0000    746.4156      7.4266     64.6160
   408.0000      0.0000    742.3964      7.3678     68.0167
   408.2500      0.0000    740.4518      7.3477     71.7488
   408.5000      0.0000    740.0018      7.3528     75.5027
   408.7500      0.0000    740.1807      7.3684     78.3983
   409.0000      0.0000    740.3955      7.3822     80.1464
   409.2500      0.0000    740.4303      7.3856     81.6336
   409.5000      0.0000    740.3121      7.3758     83.8123
   409.7500      0.0000    740.1596      7.3555     86.0912
   410.0000      0.0000    740.0830      7.3305     86.3775
   410.2500      0.0000    740.1233      7.3093     82.9674
   410.5000      0.0000    740.2311      7.3022     76.2927
   410.7500      0.0000    740.2993      7.3152     68.8931
   411.0000      0.0000    740.2231      7.3431     63.8513
   411.2500      0.0000    739.9629      7.3695     63.0162
   411.5000      0.0000    739.5806      7.3767     66.1420
   411.7500      0.0000    739.2207      7.3547     71.3934
   412.0000      0.0000    739.0262      7.3043     76.6259
   412.2500      0.0000    739.0536      7.2345     80.3876
   412.5000      0.0000    739.2502      7.1604     82.2781
   412.7500      0.0000    739.5023      7.0975     82.8191
   413.0000      0.0000    739.7122      7.0544     82.9549
   413.2500      0.0000    739.8441      7.0276     83.4992
   413.5000      0.0000    739.9032      7.0060     84.8047
   413.7500      0.0000    739.8770      6.9804     86.6707
   414.0000      0.0000    739.7246      6.9521     88.5359
   414.2500      0.0000    739.4374      6.9331     89.8473
   414.5000      0.0000    739.0921      6.9359     90.2874
   414.7500      0.0000    738.8201      6.9616     89.8885
   415.0000      0.0000    738.7070      6.9982     89.1600
   415.2500      0.0000    738.7150      7.0298     88.9307
   415.5000      0.0000    738.7169      7.0486     89.7970
   415.7500      0.0000    738.6284      7.0567     91.7922
   416.0000      0.0000    738.4957      7.0608     94.4393
   416.2500      0.0000    738.4255      7.0656     96.7374
   416.5000      0.0000    738.4538      7.0722     97.2650
   416.7500      0.0000    738.5346      7.0793     95.0184
   417.0000      0.0000    738.6304      7.0853     90.3903
   417.2500      0.0000    738.7509      7.0891     85.0982
   417.5000      0.0000    738.9045      7.0925     81.2061
   417.7500      0.0000    739.0344      7.0979     80.2690
   418.0000      0.0000    738.9750      7.1037     82.7178
   418.2500      0.0000    738.4158      7.1007     87.4023
   418.5000      0.0000    736.9709      7.0771     92.0781
   418.7500      0.0000    734.4823      7.0305     94.8165
   419.0000      0.0000    731.2617      6.9721     94.8755
   419.2500      0.0000    727.7209      6.9158     92.3703
   419.5000      0.0000    723.6368      6.8625     87.8496
   419.7500      0.0000    718.2650      6.7951     82.4299
   420.0000      0.0000    711.4654      6.6871     77.6684
   420.2500      0.0000    704.4894      6.5188     74.7564
   420.5000      0.0000    699.8063      6.2900     74.0019
   420.7500      0.0000    700.4010      6.0217     75.1048
   421.0000      0.0000    708.1553      5.7472     77.4717
   421.2500      0.0000    721.5442      5.5029     80.4035
   421.5000      0.0000    735.5994      5.3168     83.6090
   421.7500      0.0000    745.7935      5.1949     87.4226
   422.0000      0.0000    752.1164      5.1223     91.9261
   422.2500      2.0000    758.4240      5.0839     96.0985
   422.5000      0.0000    767.6129      5.0791     98.5327
   422.7500      0.0000    777.8594      5.1224     98.9251
   423.0000      0.0000    783.8878      5.2366     98.2650
   423.2500      0.0000    781.8359      5.4364     97.3877
   423.5000      0.0000    772.5015      5.7012     95.8812
   423.7500      0.0000    759.9455      5.9758     92.9732
   424.0000      0.0000    747.8069      6.2188     89.3893
   424.2500      0.0000    737.5433      6.4318     87.5835
   424.5000      0.0000    729.5716      6.6252     89.6101
   424.7500      0.0000    724.7867      6.7835     94.8355
   425.0000      0.0000    724.1434      6.8839     99.9648
   425.2500      0.0000    727.1442      6.9268    101.4455
   425.5000      0.0000    731.6857      6.9317     98.0915
   425.7500      0.0000    735.6105      6.9196     91.6879
   426.0000      0.0000    738.0331      6.9054     85.3815
   426.2500      0.0000    739.2188      6.8965     81.6462
   426.5000      0.0000    739.7553      6.8921     81.3840
   426.7500      0.0000    740.0291      6.8888     84.0256
   427.0000      0.0000    740.1909      6.8879     87.9306
   427.2500      0.0000    740.2911      6.8959     91.0683
   427.5000      0.0000    740.3630      6.9169     92.0052
