~Version Information
VERS.                      2.0: CWLS Log ASCII Standard - VERSION 2.0
WRAP.                       NO: One line per depth step
~Well Information Block
STRT.FT                10.0000: 
STOP.FT              1485.0000: 
STEP.FT                 0.1000: 
NULL.                -999.2500: 
COMP.          Pioneer Natural Resources: COMPANY
WELL.          Old Faithful 21-2: WELL
FLD.           Purgatorie River: FIELD
LOC.           806' FNL & 2509' FWL: LOCATION
PROV.                 Colorado: PROVINCE
CNTY.               Las Animas: COUNTRY
SRVC.                Patterson: SERVICE COMPANY
DATE.          Wed Dec 07 13:17:12 2005: LOG DATE
UWI.                          : UNIQUE WELL ID
~Curve Information Block
DEPT.FT            0 000 00 00: Depth
DCAL.in                       : CDL Caliper
RHOB.g/cc                     : CDL Bulk Density
RHOC.g/cc                     : CDL Density Correction
DPOR.pu                       : CDL Density Porosity
GR.GAPI                       : Gamma Ray
NPOR.pu                       : Neutron Porosity
~Parameter Information Block
~A  Depth       DCAL        RHOB        RHOC        DPOR         GR         NPOR    
# ...
  1277.2000      8.0468      2.5420      0.0384      6.5431     84.7541     23.9434
  1277.3000      8.0456      2.5488      0.0438      6.1347     80.4452     23.7796
  1277.4000      8.0456      2.5593      0.0159      5.4974     73.9814     23.3767
  1277.5000      8.0306      2.5780      0.0254      4.3656     69.7649     22.9031
  1277.6000      8.0306      2.5987      0.0919      3.1073     69.1257     22.3682
  1277.7000      8.0306      2.6054      0.1005      2.7018     70.6452     21.7378
  1277.8000      8.0310      2.5996      0.0873      3.0516     72.4575     21.0516
  1277.9000      8.0310      2.5935      0.0969      3.4243     72.3627     20.5429
  1278.0000      8.0095      2.5882      0.0760      3.7446     70.5865     20.3298
  1278.1000      8.0095      2.5833      0.0243      4.0406     69.4449     20.3082
  1278.2000      8.0095      2.5795      0.0470      4.2726     69.4744     20.4118
  1278.3000      7.9912      2.5698      0.0413      4.8633     72.8554     20.6495
  1278.4000      7.9912      2.5508      0.0407      6.0113     79.9199     20.8743
  1278.5000      8.0063      2.5362      0.0015      6.8971     84.2299     20.8933
  1278.6000      8.0063      2.5374      0.0714      6.8212     82.3376     20.9226
  1278.7000      8.0063      2.5517      0.0480      5.9568     78.0927     21.2087
  1278.8000      8.0424      2.5732      0.0140      4.6553     75.0465     21.5509
  1278.9000      8.0424      2.5855      0.0660      3.9112     73.6287     21.4288
  1279.0000      8.0043      2.5734      0.0390      4.6448     73.1471     20.6923
  1279.1000      8.0043      2.5531     -0.0093      5.8756     72.2334     19.9654
  1279.2000      8.0043      2.5472      0.0291      6.2328     70.8349     20.0079
  1279.3000      8.0414      2.5557     -0.0011      5.7168     70.7863     20.8663
  1279.4000      8.0414      2.5718      0.0423      4.7420     71.7734     21.8944
  1279.5000      8.0777      2.5803      0.0283      4.2223     71.2270     22.4273
  1279.6000      8.0777      2.5644      0.0463      5.1859     69.7351     22.4781
  1279.7000      8.0777      2.5334     -0.0054      7.0663     71.0116     22.4696
  1279.8000      8.0955      2.5197      0.0077      7.8946     73.4356     22.4757
  1279.9000      8.0955      2.5401      0.0151      6.6587     73.1280     22.4866
  1280.0000      8.1071      2.5727      0.0579      4.6850     72.9292     22.6558
  1280.1000      8.1071      2.5833      0.0566      4.0413     75.7688     22.8043
  1280.2000      8.1071      2.5631      0.0576      5.2691     77.5695     22.6987
  1280.3000      8.0751      2.5294      0.0049      7.3077     75.3680     22.3414
  1280.4000      8.0751      2.5038     -0.0126      8.8615     72.4987     21.7947
  1280.5000      8.0762      2.4945     -0.0415      9.4224     72.7677     21.4038
  1280.6000      8.0762      2.4931      0.0249      9.5068     75.9342     21.6541
  1280.7000      8.0762      2.4886     -0.0039      9.7802     78.2672     22.3872
  1280.8000      8.0877      2.4851      0.0052      9.9952     77.5613     23.0125
  1280.9000      8.0877      2.4912      0.0225      9.6254     76.0974     23.2783
  1281.0000      8.0683      2.5036      0.0372      8.8750     77.0776     23.3898
  1281.1000      8.0683      2.5128      0.0295      8.3167     79.3912     23.7429
  1281.2000      8.0683      2.5163      0.0159      8.1023     79.4502     24.3247
  1281.3000      8.0365      2.5198      0.0549      7.8929     77.1292     24.5660
  1281.4000      8.0365      2.5309      0.0314      7.2199     75.3811     24.1880
  1281.5000      8.0309      2.5468      0.0561      6.2531     76.2203     23.6199
  1281.6000      8.0309      2.5619      0.0280      5.3424     77.4332     23.3695
  1281.7000      8.0309      2.5841     -0.0090      3.9947     75.6611     23.3096
  1281.8000      8.0277      2.6122      0.0537      2.2886     72.5472     23.1501
  1281.9000      8.0277      2.6228      0.0866      1.6499     71.0134     22.9577
  1282.0000      8.0275      2.6063      0.0498      2.6487     69.7076     22.8152
  1282.1000      8.0275      2.5797      0.0455      4.2578     67.9975     22.5477
  1282.2000      8.0275      2.5599      0.0418      5.4611     68.3574     21.7939
  1282.3000      8.0472      2.5544      0.0141      5.7933     70.9721     20.7146
  1282.4000      8.0472      2.5609      0.0444      5.3978     73.1466     19.9159
  1282.5000      8.0420      2.5693      0.0160      4.8881     73.0290     19.4007
  1282.6000      8.0420      2.5725      0.0619      4.6941     70.6326     18.9822
  1282.7000      8.0420      2.5682      0.0044      4.9548     67.6976     18.8398
  1282.8000      8.0508      2.5661      0.0102      5.0827     67.4913     19.1053
  1282.9000      8.0508      2.5747      0.0438      4.5630     70.6830     19.6534
  1283.0000      8.0597      2.5831      0.0498      4.0569     73.7504     20.2835
  1283.1000      8.0597      2.5782      0.0812      4.3495     75.4485     20.7467
  1283.2000      8.0597      2.5663      0.0425      5.0754     77.6032     20.9919
  1283.3000      8.0715      2.5639      0.0204      5.2183     78.7114     21.2580
  1283.4000      8.0715      2.5675      0.0625      4.9990     76.3813     21.4539
  1283.5000      8.0264      2.5589      0.0321      5.5183     73.1644     21.2393
  1283.6000      8.0264      2.5405      0.0258      6.6383     74.2538     20.7075
  1283.7000      8.0264      2.5281     -0.0041      7.3862     80.1849     20.2376
  1283.8000      8.0032      2.5242      0.0481      7.6249     86.1047     20.1797
  1283.9000      8.0032      2.5193      0.0490      7.9212     88.5910     20.8115
  1284.0000      8.0016      2.5107      0.0497      8.4398     89.6224     22.0180
  1284.1000      8.0016      2.5029      0.0735      8.9164     92.0043     23.2183
  1284.2000      8.0016      2.5019      0.0652      8.9758     94.4543     23.8870
  1284.3000      7.9975      2.5077      0.1111      8.6251     94.3117     24.0437
  1284.4000      7.9975      2.5166      0.0570      8.0832     91.1907     24.1988
  1284.5000      7.9957      2.5355      0.0591      6.9397     87.4886     24.7032
  1284.6000      7.9957      2.5697      0.0811      4.8654     85.4106     25.3356
  1284.7000      7.9957      2.6040      0.1252      2.7893     83.7463     25.5729
  1284.8000      8.0038      2.6152      0.0740      2.1104     80.3287     25.1547
  1284.9000      8.0038      2.6043      0.1009      2.7708     75.5303     24.5609
  1285.0000      7.9866      2.5911      0.0644      3.5724     71.8207     24.4459
  1285.1000      7.9866      2.5886      0.0460      3.7195     71.0214     24.6704
  1285.2000      7.9866      2.5932      0.0558      3.4436     70.7109     24.5879
  1285.3000      7.9646      2.5940      0.0669      3.3922     68.0855     23.9617
  1285.4000      7.9646      2.5857      0.0687      3.8996     65.7019     23.1565
  1285.5000      7.9656      2.5705      0.0430      4.8158     66.3397     22.7603
  1285.6000      7.9656      2.5559      0.0315      5.7033     70.7554     22.8012
  1285.7000      7.9656      2.5443      0.0416      6.4048     79.5194     22.7279
  1285.8000      7.9903      2.5306      0.0342      7.2357     87.4569     22.4579
  1285.9000      7.9903      2.5168      0.0138      8.0721     88.2070     22.2411
  1286.0000      7.9689      2.5186      0.0038      7.9635     84.9033     22.1010
  1286.1000      7.9689      2.5386      0.0559      6.7493     84.2191     22.0903
  1286.2000      7.9689      2.5514      0.1000      5.9785     86.8639     22.4480
  1286.3000      7.9627      2.5420      0.0520      6.5481     88.8369     23.0114
  1286.4000      7.9627      2.5273      0.0360      7.4387     87.2906     23.3532
  1286.5000      8.0077      2.5221      0.0242      7.7515     83.6809     23.6872
  1286.6000      8.0077      2.5303      0.0144      7.2556     81.2902     24.2463
  1286.7000      8.0077      2.5510      0.0629      6.0024     82.1161     24.6949
