~Version Information
VERS.                      2.0: CWLS Log ASCII Standard - VERSION 2.0
WRAP.                       NO: One line per depth step
~Well Information Block
STRT.FT               555.0000: 
STOP.FT              2286.5000: 
STEP.FT                 0.1000: 
NULL.                -999.2500: 
COMP.          Pioneer Natural Resources: COMPANY
WELL.          Roadster 41-33 Kv: WELL
FLD.           Purgatoire River: FIELD
LOC.           903' FNL & 248' FEL: LOCATION
PROV.                 Colorado: PROVINCE
CNTY.               Las Animas: COUNTRY
SRVC.                Patterson: SERVICE COMPANY
DATE.          Thu Dec 15 10:28:25 2005: LOG DATE
UWI.           05 071 08615 00: UNIQUE WELL ID
~Curve Information Block
DEPT.FT            0 000 00 00: Depth
DCAL.in                       : CDL Caliper
RHOB.g/cc                     : CDL Bulk Density
RHOC.g/cc                     : CDL Density Correction
DPOR.pu                       : CDL Density Porosity
GR.GAPI                       : Gamma Ray
NPOR.pu                       : Neutron Porosity
~Parameter Information Block
~A  Depth       DCAL        RHOB        RHOC        DPOR         GR         NPOR    
# ...
  1015.8000      8.0175      2.4271      0.1442     13.5118    147.0130     29.3428
  1015.9000      8.0175      2.4384      0.1009     12.8268    154.4267     28.4342
  1016.0000      8.0182      2.4476      0.0570     12.2670    151.9451     28.0418
  1016.1000      8.0182      2.4582      0.0589     11.6237    140.5377     28.0042
  1016.2000      8.0182      2.4625      0.0654     11.3654    133.7412     27.7852
  1016.3000      8.0160      2.4690      0.0095     10.9683    136.4903     27.4235
  1016.4000      8.0160      2.4949      0.0577      9.4029    137.4001     27.0591
  1016.5000      8.0009      2.5333      0.0797      7.0730    131.1122     26.9229
  1016.6000      8.0009      2.5656      0.1044      5.1176    123.1016     27.1872
  1016.7000      8.0009      2.5839      0.1237      4.0064    116.5239     27.1631
  1016.8000      8.0145      2.5947      0.1134      3.3530    112.1596     26.3275
  1016.9000      8.0145      2.6009      0.1097      2.9736    112.1992     25.6151
  1017.0000      8.0155      2.5958      0.1065      3.2839    118.1025     25.7675
  1017.1000      8.0155      2.5904      0.0496      3.6111    124.9608     26.1173
  1017.2000      8.0155      2.6190      0.0344      1.8776    124.3722     26.3119
  1017.3000      8.0155      2.6868      0.0934     -2.2285    116.3460     26.6372
  1017.4000      8.0155      2.7531      0.1094     -6.2471    108.1128     27.1609
  1017.5000      8.0150      2.7904      0.0802     -8.5073    102.2570     27.5352
  1017.6000      8.0150      2.8051      0.1000     -9.4023     96.8322     27.1603
  1017.7000      8.0150      2.8003      0.1085     -9.1106     93.2113     25.9213
  1017.8000      8.0150      2.7741      0.0710     -7.5233     94.0382     24.7471
  1017.9000      8.0150      2.7345      0.0406     -5.1219     96.6841     24.5729
  1018.0000      8.0158      2.6901     -0.0452     -2.4307     97.3636     25.3990
  1018.1000      8.0158      2.6404     -0.0628      0.5839     99.2163     26.5736
  1018.2000      8.0158      2.5809     -0.0995      4.1870    107.5312     27.3117
  1018.3000      8.0141      2.5228     -0.0778      7.7087    120.5602     27.3971
  1018.4000      8.0141      2.4855     -0.0950      9.9684    131.9958     27.1523
  1018.5000      8.0079      2.4750     -0.0628     10.6089    138.6824     27.1406
  1018.6000      8.0079      2.4758      0.0376     10.5582    141.0650     27.8433
  1018.7000      8.0079      2.4660      0.0832     11.1510    139.5749     28.9293
  1018.8000      8.0112      2.4438      0.0696     12.4955    135.3837     29.8139
  1018.9000      8.0112      2.4199      0.0727     13.9482    132.9881     30.3136
  1019.0000      8.0142      2.3980      0.0560     15.2711    134.8660     30.3450
  1019.1000      8.0142      2.3852      0.0295     16.0493    139.9722     29.8992
  1019.2000      8.0142      2.3963      0.0165     15.3756    144.5592     29.5187
  1019.3000      8.0429      2.4343      0.0850     13.0706    144.4190     29.6489
  1019.4000      8.0429      2.4723      0.1432     10.7675    143.2031     30.1527
  1019.5000      8.1111      2.4830      0.1184     10.1219    145.6157     30.9121
  1019.6000      8.1111      2.4710      0.0892     10.8470    147.0684     31.6167
  1019.7000      8.1111      2.4516      0.1048     12.0217    141.7999     31.7949
  1019.8000      8.1106      2.4282      0.0906     13.4442    132.3003     31.3967
  1019.9000      8.1106      2.4016      0.0447     15.0554    126.0089     30.9070
  1020.0000      8.1218      2.3797      0.0157     16.3826    124.8499     30.8551
  1020.1000      8.1218      2.3689      0.0173     17.0363    127.0158     31.1457
  1020.2000      8.1218      2.3702      0.0156     16.9576    131.0816     31.5938
  1020.3000      8.1250      2.3820     -0.0027     16.2405    134.5674     32.2419
  1020.4000      8.1250      2.4011      0.0078     15.0849    137.5418     32.7760
  1020.5000      8.1233      2.4212      0.0558     13.8649    143.0114     32.7970
  1020.6000      8.1233      2.4291      0.0991     13.3888    147.9654     32.0298
  1020.7000      8.1233      2.4146      0.0769     14.2647    147.0273     30.2488
  1020.8000      8.1242      2.3837      0.0490     16.1373    143.4931     28.7286
  1020.9000      8.1242      2.3487      0.0283     18.2588    142.0663     28.7278
  1021.0000      8.1268      2.3128      0.0342     20.4361    140.4576     29.8059
  1021.1000      8.1268      2.2722      0.0147     22.8975    134.9861     31.2729
  1021.2000      8.1268      2.2334     -0.0211     25.2473    128.0139     32.3758
  1021.3000      8.1252      2.2104      0.0070     26.6446    126.0535     32.9424
  1021.4000      8.1252      2.2060     -0.0048     26.9114    128.9423     33.4131
  1021.5000      8.1258      2.2167      0.0232     26.2581    131.3811     33.5869
  1021.6000      8.1258      2.2404      0.0502     24.8241    131.7862     33.2343
  1021.7000      8.1258      2.2656      0.1239     23.2981    130.4526     32.6876
  1021.8000      8.1258      2.2793      0.1095     22.4670    128.2341     32.6084
  1021.9000      8.1258      2.2923      0.1393     21.6759    128.6199     33.1744
  1022.0000      8.1366      2.3246      0.1407     19.7241    136.4644     33.6537
  1022.1000      8.1366      2.3744      0.2293     16.7013    148.0726     33.8430
  1022.2000      8.1366      2.4238      0.2395     13.7109    152.8994     34.1511
  1022.3000      8.2151      2.4617      0.2527     11.4104    149.8783     34.0691
  1022.4000      8.2151      2.4867      0.2829      9.8989    144.3540     32.9886
  1022.5000      8.2562      2.4946      0.3070      9.4186    138.7580     31.7965
  1022.6000      8.2562      2.4805      0.2735     10.2732    136.7462     31.3841
  1022.7000      8.2562      2.4475      0.2236     12.2716    138.0553     31.4528
  1022.8000      8.0884      2.4083      0.1832     14.6481    136.6163     31.5204
  1022.9000      8.0884      2.3755      0.0919     16.6362    131.3493     31.5873
  1023.0000      8.0620      2.3599      0.0497     17.5809    126.6602     31.7126
  1023.1000      8.0620      2.3683      0.0999     17.0704    123.2766     31.5650
  1023.2000      8.0620      2.4006      0.0963     15.1155    121.2725     30.7857
  1023.3000      8.0579      2.4474      0.1506     12.2772    122.7150     30.1122
  1023.4000      8.0579      2.4909      0.1752      9.6398    125.7359     30.3110
  1023.5000      8.0263      2.5160      0.2218      8.1203    128.7123     30.5277
  1023.6000      8.0263      2.5139      0.2150      8.2458    133.9308     30.2903
  1023.7000      8.0263      2.4887      0.2078      9.7786    141.1086     30.3891
  1023.8000      8.0232      2.4603      0.1075     11.4958    146.1386     30.9157
  1023.9000      8.0232      2.4451      0.1370     12.4197    147.3727     31.5867
  1024.0000      8.0228      2.4400      0.0967     12.7277    146.0204     32.1378
  1024.1000      8.0228      2.4401      0.0727     12.7225    143.6124     31.8590
  1024.2000      8.0228      2.4499      0.0312     12.1298    139.3793     30.6508
  1024.3000      8.0206      2.4696      0.0945     10.9332    131.3804     29.6516
  1024.4000      8.0206      2.4876      0.0869      9.8418    123.5775     29.6102
  1024.5000      8.0140      2.5053      0.0743      8.7669    118.4714     29.9611
  1024.6000      8.0140      2.5407      0.0872      6.6239    114.0057     30.0427
  1024.7000      8.0140      2.5923      0.1255      3.4948    108.7920     29.5071
  1024.8000      7.9996      2.6345      0.1860      0.9373    103.6306     28.5346
  1024.9000      7.9996      2.6553      0.1302     -0.3207    102.1051     28.0473
  1025.0000      7.9987      2.6673      0.1417     -1.0502    107.8992     28.4139
  1025.1000      7.9987      2.6743      0.1373     -1.4720    118.9082     28.9121
  1025.2000      7.9987      2.6671      0.1190     -1.0393    127.3938     28.7161
  1025.3000      7.9965      2.6417      0.1005      0.5018    131.5660     27.7260
