~Version Information
VERS.                      2.0: CWLS Log ASCII Standard - VERSION 2.0
WRAP.                       NO: One line per depth step
~Well Information Block
STRT.FT                -6.2500: 
STOP.FT              1327.5000: 
STEP.FT                 0.2500: 
NULL.                -999.2500: 
COMP.          Pioneer Natural Resources: COMPANY
WELL.            Avant 14-3 Tr: WELL
FLD.           Purgatorie River: FIELD
LOC.           170' FSL & 1174' FWL--: LOCATION
STAT.                       CO: State
CNTY.               Las Animas: COUNTY
CTRY. USA : Country
SECT. 3 : Section
TOWN. 33S : Township
RANG. 67W : Range
SRVC.          Patterson Wireline: SERVICE COMPANY
DATE.          Tue Aug 23 16:44:25 2005: LOG DATE
API.           05 071 08463 00: UNIQUE WELL ID
~Curve Information Block
DEPT.FT            0 000 00 00: Depth
CCL.                          : Casing Collar Locator
TT3.usec                      : CBL 3' Travel Time
AMP3.mV                       : CBL 3' Amplitude
GR.GAPI                       : Gamma Ray
~Parameter Information Block
~A  Depth       CCL         TT3         AMP3         GR     
# ...
  1300.2500      0.0000    792.6006      7.6386     60.5871
  1300.5000      0.0000    785.0217      7.4711     57.7251
  1300.7500      0.0000    773.7313      7.3135     57.1826
  1301.0000      0.0000    758.3123      7.1588     58.3678
  1301.2500      0.0000    739.9471      6.9944     60.2704
  1301.5000      0.0000    720.5420      6.8049     62.0649
  1301.7500      0.0000    702.0649      6.5795     63.4884
  1302.0000      0.0000    686.5447      6.3184     64.8280
  1302.2500      0.0000    675.5290      6.0330     66.5452
  1302.5000      0.0000    669.0336      5.7394     68.8678
  1302.7500      0.0000    665.3083      5.4517     71.5257
  1303.0000      0.0000    661.7752      5.1776     73.6590
  1303.2500      0.0000    656.4843      4.9184     74.1470
  1303.5000      0.0000    649.2524      4.6706     72.4140
  1303.7500      0.0000    641.5560      4.4293     68.9161
  1304.0000      0.0000    635.1613      4.1933     64.7705
  1304.2500      0.0000    630.8281      3.9695     61.1150
  1304.5000      0.0000    628.2398      3.7706     58.6911
  1304.7500      0.0000    626.7014      3.6055     57.4708
  1305.0000      0.0000    625.6898      3.4738     56.5509
  1305.2500      0.0000    624.9644      3.3719     54.8515
  1305.5000      0.0000    624.4636      3.2987     52.1042
  1305.7500      0.0000    624.2100      3.2522     49.0245
  1306.0000      0.0000    624.3054      3.2254     46.7136
  1306.2500      0.0000    625.0714      3.2115     46.1840
  1306.5000      0.0000    627.3165      3.2073     48.1668
  1306.7500      0.0000    632.5165      3.2107     52.6209
  1307.0000      0.0000    642.3903      3.2190     58.1382
  1307.2500      0.0000    657.5953      3.2312     62.3021
  1307.5000      0.0000    676.4216      3.2490     63.2303
  1307.7500      0.0000    695.1085      3.2751     60.9499
  1308.0000      0.0000    710.0146      3.3121     57.2216
  1308.2500      0.0000    719.6713      3.3621     54.0411
  1308.5000      0.0000    724.9060      3.4274     52.2792
  1308.7500      0.0000    727.4823      3.5080     51.5257
  1309.0000      0.0000    728.8701      3.6016     50.9468
  1309.2500      0.0000    729.8894      3.7053     50.2112
  1309.5000      0.0000    730.9331      3.8198     49.6982
  1309.7500      0.0000    732.3243      3.9505     49.9744
  1310.0000      0.0000    734.6346      4.1034     51.1284
  1310.2500      0.0000    738.7893      4.2823     52.6089
  1310.5000      0.0000    745.6641      4.4874     53.7837
  1310.7500      0.0000    755.2016      4.7123     54.6119
  1311.0000      0.0000    765.8752      4.9405     55.5000
  1311.2500      0.0000    775.3885      5.1512     56.4702
  1311.5000      0.0000    782.1461      5.3304     56.8823
  1311.7500      0.0000    786.0651      5.4737     56.1547
  1312.0000      0.0000    788.2049      5.5810     54.4491
  1312.2500      0.0000    790.0464      5.6545     52.5736
  1312.5000      0.0000    793.1355      5.7046     51.5254
  1312.7500      0.0000    798.7415      5.7554     52.0733
  1313.0000      0.0000    807.2863      5.8383     54.0986
  1313.2500      0.0000    818.1950      5.9809     55.8561
  1313.5000      0.0000    831.0793      6.1981     54.2186
  1313.7500      0.0000    846.8011      6.4916     46.7543
  1314.0000      0.0000    865.5360      6.8570     34.2556
  1314.2500      0.0000    882.8364      7.2909     20.6843
  1314.5000      0.0000    890.0772      7.7914     10.0944
  1314.7500      0.0000    881.8696      8.3484      3.9335
  1315.0000      0.0000    862.2236      8.9312      1.2144
  1315.2500      0.0000    841.1021      9.4884      0.2951
  1315.5000      0.0000    825.7634      9.9705      0.0562
  1315.7500      0.0000    817.0581     10.3577      0.0079
  1316.0000      0.0000    812.7303     10.6590      0.0000
  1316.2500      0.0000    811.8801     10.8844   -999.2500
  1316.5000      0.0000    816.0967     11.0259   -999.2500
  1316.7500      0.0000    827.6808     11.0722   -999.2500
  1317.0000      0.0000    846.8394     11.0275   -999.2500
  1317.2500      0.0000    869.0271     10.9092   -999.2500
  1317.5000      0.0000    884.9369     10.7318   -999.2500
  1317.7500      0.0000    884.8553     10.4954   -999.2500
  1318.0000      0.0000    863.5682     10.1758   -999.2500
  1318.2500      0.0000    818.6681      9.7017   -999.2500
  1318.5000      0.0000    744.1219      8.9403   -999.2500
  1318.7500      0.0000    631.2478      7.7586   -999.2500
  1319.0000      0.0000    481.9528      6.1705   -999.2500
  1319.2500      0.0000    319.3589      4.4305   -999.2500
  1319.5000      0.0000    178.2121      2.9164   -999.2500
  1319.7500      0.0000     81.8834      1.8815   -999.2500
  1320.0000      0.0000     30.4856      1.3286   -999.2500
  1320.2500      0.0000      9.0927      1.0981   -999.2500
  1320.5000      0.0000      2.1521      1.0233   -999.2500
  1320.7500      0.0000      0.3983      1.0043   -999.2500
  1321.0000      0.0000      0.0529      1.0006   -999.2500
  1321.2500      0.0000   -999.2500   -999.2500   -999.2500
  1321.5000      0.0000   -999.2500   -999.2500   -999.2500
  1321.7500      0.0000   -999.2500   -999.2500   -999.2500
  1322.0000      0.0000   -999.2500   -999.2500   -999.2500
  1322.2500      0.0000   -999.2500   -999.2500   -999.2500
  1322.5000      0.0000   -999.2500   -999.2500   -999.2500
  1322.7500      0.0000   -999.2500   -999.2500   -999.2500
  1323.0000      0.0000   -999.2500   -999.2500   -999.2500
  1323.2500      0.0000   -999.2500   -999.2500   -999.2500
  1323.5000      0.0000   -999.2500   -999.2500   -999.2500
  1323.7500      0.0000   -999.2500   -999.2500   -999.2500
  1324.0000      0.0000   -999.2500   -999.2500   -999.2500
  1324.2500      0.0000   -999.2500   -999.2500   -999.2500
  1324.5000      0.0000   -999.2500   -999.2500   -999.2500
  1324.7500      0.0000   -999.2500   -999.2500   -999.2500
  1325.0000      0.0000   -999.2500   -999.2500   -999.2500
  1325.2500      0.0000   -999.2500   -999.2500   -999.2500
  1325.5000      0.0000   -999.2500   -999.2500   -999.2500
  1325.7500      0.0000   -999.2500   -999.2500   -999.2500
  1326.0000      0.0000   -999.2500   -999.2500   -999.2500
  1326.2500      0.0000   -999.2500   -999.2500   -999.2500
  1326.5000      0.0000   -999.2500   -999.2500   -999.2500
  1326.7500      0.0000   -999.2500   -999.2500   -999.2500
  1327.0000   -999.2500   -999.2500   -999.2500   -999.2500
  1327.2500   -999.2500   -999.2500   -999.2500   -999.2500
  1327.5000   -999.2500   -999.2500   -999.2500   -999.2500
