~Version Information
VERS.                      2.0: CWLS Log ASCII Standard - VERSION 2.0
WRAP.                       NO: One line per depth step
~Well Information Block
STRT.FT               -11.5000: 
STOP.FT              1961.7500: 
STEP.FT                 0.2500: 
NULL.                -999.2500: 
COMP.          Petrogulf Corporation: COMPANY
WELL.           State 16-23R-X: WELL
FLD.           Purgatorie River: FIELD
LOC.           2381' FSL & 2072' FWL--: LOCATION
PROV.                       CO: PROVINCE
CNTY.               Las Animas: COUNTRY
SRVC.          Patterson Wireline: SERVICE COMPANY
DATE.          Fri Sep 09 14:32:42 2005: LOG DATE
UWI.           05 071 08324 00: UNIQUE WELL ID
~Curve Information Block
DEPT.FT            0 000 00 00: Depth
CCL.                          : Casing Collar Locator
TT3.usec                      : CBL 3' Travel Time
AMP3.mV                       : CBL 3' Amplitude
GR.GAPI                       : Gamma Ray
~Parameter Information Block
~A  Depth       CCL         TT3         AMP3         GR     
# ...
  1931.5000      0.0000    678.0816      3.0606     39.0179
  1931.7500      0.0000    676.7072      3.0718     40.8315
  1932.0000      0.0000    677.3335      3.0732     45.0691
  1932.2500      0.0000    678.1042      3.0653     51.9571
  1932.5000      0.0000    678.6993      3.0552     60.8928
  1932.7500      0.0000    679.0609      3.0484     70.7116
  1933.0000      0.0000    677.6517      3.0381     79.8931
  1933.2500      0.0000    672.7793      3.0067     86.8893
  1933.5000      0.0000    664.9851      2.9402     90.7590
  1933.7500      0.0000    656.7961      2.8430     91.9356
  1934.0000      0.0000    650.2484      2.7348     92.5126
  1934.2500      0.0000    645.3053      2.6343     95.4660
  1934.5000      0.0000    640.5684      2.5467    102.8558
  1934.7500      0.0000    635.0173      2.4678    114.0860
  1935.0000      0.0000    628.9511      2.3951    125.8489
  1935.2500      0.0000    623.5222      2.3317    134.2815
  1935.5000      0.0000    619.6377      2.2826    137.5927
  1935.7500      0.0000    617.4382      2.2517    136.8227
  1936.0000      0.0000    616.6233      2.2427    134.4783
  1936.2500      0.0000    617.0198      2.2585    132.6627
  1936.5000      0.0000    618.7757      2.2981    132.0646
  1936.7500      0.0000    622.0500      2.3534    132.0491
  1937.0000      0.0000    626.4479      2.4106    131.4035
  1937.2500      0.0000    630.8387      2.4573    129.1693
  1937.5000      0.0000    634.0373      2.4890    125.1948
  1937.7500      0.0000    635.7742      2.5090    120.1177
  1938.0000      0.0000    636.7140      2.5227    114.9078
  1938.2500      0.0000    637.3820      2.5318    110.7409
  1938.5000      0.0000    637.3520      2.5363    109.2237
  1938.7500      0.0000    635.7410      2.5408    111.9067
  1939.0000      0.0000    632.4094      2.5564    118.8393
  1939.2500      0.0000    628.5877      2.5955    127.6372
  1939.5000      0.0000    626.4341      2.6644    134.5454
  1939.7500      0.0000    628.0313      2.7646    136.9016
  1940.0000      0.0000    634.5834      2.8989    134.5923
  1940.2500      0.0000    646.0297      3.0735    129.1708
  1940.5000      0.0000    660.9481      3.2951    122.2294
  1940.7500      0.0000    676.8814      3.5702    114.9577
  1941.0000      0.0000    691.2493      3.9091    108.3514
  1941.2500      0.0000    702.2756      4.3267    102.8566
  1941.5000      0.0000    709.3717      4.8311     98.0241
  1941.7500      0.0000    713.3387      5.4076     92.9373
  1942.0000      0.0000    716.0310      6.0095     86.9043
  1942.2500      0.0000    718.2635      6.5675     79.8306
  1942.5000      0.0000    717.7065      7.0106     72.1900
  1942.7500      0.0000    710.7021      7.2913     64.6070
  1943.0000      0.0000    696.8996      7.4034     57.6115
  1943.2500      0.0000    680.7259      7.3821     51.9887
  1943.5000      0.0000    667.9216      7.2857     48.9216
  1943.7500      0.0000    661.9102      7.1748     49.3326
  1944.0000      0.0000    663.3329      7.1043     53.4820
  1944.2500      0.0000    671.1170      7.1220     61.2450
  1944.5000      0.0000    682.8271      7.2611     71.9484
  1944.7500      0.0000    694.7068      7.5260     83.6508
  1945.0000      0.0000    702.4219      7.8892     93.4430
  1945.2500      0.0000    702.0255      8.3061     99.1484
  1945.5000      0.0000    691.0848      8.7316    100.7284
  1945.7500      0.0000    670.9258      9.1223     99.9581
  1946.0000      0.0000    648.2698      9.4235     98.8895
  1946.2500      0.0000    632.5342      9.5656     98.6457
  1946.5000      0.0000    629.7053      9.4869     99.3477
  1946.7500      0.0000    638.7847      9.1704    100.5343
  1947.0000      0.0000    654.0626      8.6577    101.2297
  1947.2500      0.0000    669.9023      8.0228     99.7352
  1947.5000      0.0000    683.2736      7.3339     93.8154
  1947.7500      0.0000    693.3757      6.6359     81.6901
  1948.0000      0.0000    700.9299      5.9589     63.6427
  1948.2500      0.0000    708.2547      5.3294     42.9184
  1948.5000      0.0000    718.0689      4.7748     24.3498
  1948.7500      0.0000    730.5060      4.3257     11.3661
  1949.0000      0.0000    742.2928      4.0113      4.2944
  1949.2500      0.0000    750.3541      3.8409      1.2977
  1949.5000      0.0000    754.8113      3.7917      0.3108
  1949.7500      0.0000    756.6323      3.8231      0.0580
  1950.0000      0.0000    754.0547      3.8981      0.0080
  1950.2500      0.0000    744.3250      3.9824      0.0000
  1950.5000      0.0000    728.7617      4.0353   -999.2500
  1950.7500      0.0000    713.6912      4.0226   -999.2500
  1951.0000     -2.0000    705.6595      3.9377   -999.2500
  1951.2500      0.0000    706.8080      3.8063   -999.2500
  1951.5000      0.0000    714.9000      3.6673   -999.2500
  1951.7500      0.0000    726.1408      3.5424   -999.2500
  1952.0000      0.0000    736.1909      3.4170   -999.2500
  1952.2500      0.0000    738.1468      3.2533   -999.2500
  1952.5000      0.0000    720.2961      3.0259   -999.2500
  1952.7500      0.0000    667.6526      2.7353   -999.2500
  1953.0000      0.0000    569.9819      2.3932   -999.2500
  1953.2500      0.0000    433.4834      2.0192   -999.2500
  1953.5000      0.0000    284.6530      1.6552   -999.2500
  1953.7500      0.0000    157.2151      1.3578   -999.2500
  1954.0000      0.0000     71.5538      1.1617   -999.2500
  1954.2500      0.0000     26.4299      1.0594   -999.2500
  1954.5000      0.0000      7.8326      1.0175   -999.2500
  1954.7500      0.0000      1.8448      1.0041   -999.2500
  1955.0000      0.0000      0.3392      1.0008   -999.2500
  1955.2500      0.0000      0.0447      1.0001   -999.2500
  1955.5000      0.0000   -999.2500   -999.2500   -999.2500
  1955.7500      0.0000   -999.2500   -999.2500   -999.2500
  1956.0000      0.0000   -999.2500   -999.2500   -999.2500
  1956.2500      0.0000   -999.2500   -999.2500   -999.2500
  1956.5000      0.0000   -999.2500   -999.2500   -999.2500
  1956.7500      0.0000   -999.2500   -999.2500   -999.2500
  1957.0000      0.0000   -999.2500   -999.2500   -999.2500
  1957.2500      0.0000   -999.2500   -999.2500   -999.2500
  1957.5000      0.0000   -999.2500   -999.2500   -999.2500
  1957.7500      0.0000   -999.2500   -999.2500   -999.2500
  1958.0000      0.0000   -999.2500   -999.2500   -999.2500
  1958.2500      0.0000   -999.2500   -999.2500   -999.2500
  1958.5000      0.0000   -999.2500   -999.2500   -999.2500
  1958.7500      0.0000   -999.2500   -999.2500   -999.2500
  1959.0000      0.0000   -999.2500   -999.2500   -999.2500
  1959.2500      0.0000   -999.2500   -999.2500   -999.2500
  1959.5000      0.0000   -999.2500   -999.2500   -999.2500
  1959.7500      0.0000   -999.2500   -999.2500   -999.2500
  1960.0000      0.0000   -999.2500   -999.2500   -999.2500
  1960.2500      0.0000   -999.2500   -999.2500   -999.2500
  1960.5000      0.0000   -999.2500   -999.2500   -999.2500
  1960.7500      0.0000   -999.2500   -999.2500   -999.2500
  1961.0000      0.0000   -999.2500   -999.2500   -999.2500
  1961.2500   -999.2500   -999.2500   -999.2500   -999.2500
  1961.5000   -999.2500   -999.2500   -999.2500   -999.2500
  1961.7500   -999.2500   -999.2500   -999.2500   -999.2500
