~Version Information
VERS.                      2.0: CWLS Log ASCII Standard - VERSION 2.0
WRAP.                       NO: One line per depth step
~Well Information Block
STRT.FT                -8.5000: 
STOP.FT              1945.2500: 
STEP.FT                 0.2500: 
NULL.                -999.2500: 
COMP.          Pioneer Natural Resources: COMPANY
WELL.          Flying Horse 12-11 Tr: WELL
FLD.           Purgatorie River: FIELD
LOC.           2459' FNL & 410' FWL: LOCATION
STAT.                       CO: PROVINCE
CNTY.               Las Animas: COUNTY
CTRY.        USA : Country
SECT. 11 : Section
TOWN. 32S : Township
RANG. 66W : Range
SRVC.          Patterson Wireline: SERVICE COMPANY
DATE.          Thu Sep 08 15:44:22 2005: LOG DATE
API.           05 071 08485 00: UNIQUE WELL ID
~Curve Information Block
DEPT.FT            0 000 00 00: Depth
CCL.                          : Casing Collar Locator
TT3.usec                      : CBL 3' Travel Time
AMP3.mV                       : CBL 3' Amplitude
GR.GAPI                       : Gamma Ray
~Parameter Information Block
~A  Depth       CCL         TT3         AMP3         GR     
# ...
  1398.5000      0.0000    752.1733     11.9244    103.5621
  1398.7500      0.0000    751.8351     12.0535    104.2622
  1399.0000      0.0000    751.4786     12.1950    105.6027
  1399.2500      0.0000    751.0104     12.3410    107.2643
  1399.5000      0.0000    750.2075     12.4603    109.6160
  1399.7500      0.0000    748.8012     12.5243    112.3384
  1400.0000      0.0000    746.8233     12.5400    113.7723
  1400.2500      0.0000    744.9285     12.5453    111.8868
  1400.5000      0.0000    744.1179     12.5774    105.7880
  1400.7500      0.0000    744.9210     12.6557     96.4517
  1401.0000      0.0000    747.0261     12.7928     86.1784
  1401.2500      0.0000    749.9673     13.0022     77.2268
  1401.5000      0.0000    753.9066     13.2869     70.7560
  1401.7500      0.0000    759.3027     13.6304     66.7888
  1402.0000      0.0000    765.6485     14.0085     64.7899
  1402.2500      0.0000    771.0472     14.4060     64.0887
  1402.5000      0.0000    773.9008     14.8190     63.9613
  1402.7500      0.0000    775.0800     15.2490     63.7145
  1403.0000      0.0000    777.2715     15.7059     63.0442
  1403.2500      0.0000    781.3696     16.2107     62.3237
  1403.5000      0.0000    783.9628     16.7821     62.3576
  1403.7500      0.0000    778.3029     17.4131     63.7564
  1404.0000      0.0000    757.3134     18.0653     66.4607
  1404.2500      0.0000    718.5331     18.6859     69.6649
  1404.5000      0.0000    670.0906     19.2252     72.3040
  1404.7500      0.0000    629.8972     19.6429     73.9881
  1405.0000      0.0000    612.1950     19.9122     75.3571
  1405.2500      0.0000    614.1329     20.0241     77.0369
  1405.5000      0.0000    620.9911     19.9848     78.4099
  1405.7500      0.0000    624.3860     19.8077     78.0451
  1406.0000      0.0000    629.1509     19.5103     75.3439
  1406.2500      0.0000    642.6815     19.1202     71.3031
  1406.5000      0.0000    664.6051     18.6785     67.7089
  1406.7500      0.0000    688.6082     18.2363     65.9299
  1407.0000      0.0000    709.1417     17.8469     66.4114
  1407.2500      0.0000    723.9807     17.5537     68.8788
  1407.5000      0.0000    733.2759     17.3732     72.7666
  1407.7500      0.0000    738.3676     17.2874     77.5885
  1408.0000      0.0000    740.9115     17.2593     83.1414
  1408.2500      0.0000    742.1940     17.2606     89.3386
  1408.5000      0.0000    742.5729     17.2875     95.8188
  1408.7500      0.0000    740.8115     17.3524    101.8219
  1409.0000      0.0000    733.1467     17.4635    106.4570
  1409.2500      0.0000    713.8666     17.6100    109.1220
  1409.5000      0.0000    680.0658     17.7438    109.8943
  1409.7500      0.0000    639.0530     17.7476    109.6426
  1410.0000      0.0000    609.1870     17.4198    109.5766
  1410.2500      0.0000    607.7794     16.5627    110.4176
  1410.5000      0.0000    636.5906     15.1746    111.9314
  1410.7500      0.0000    681.7989     13.5626    113.2743
  1411.0000      0.0000    726.7756     12.1868    113.5487
  1411.2500      0.0000    761.3522     11.3376    111.9828
  1411.5000     -2.0000    781.9936     10.9773    108.1955
  1411.7500      2.0000    789.8814     10.8779    102.8168
  1412.0000      0.0000    789.7983     10.8552     97.5490
  1412.2500      0.0000    787.4438     10.8729     94.0740
  1412.5000      0.0000    786.0062     11.0124     92.7862
  1412.7500      0.0000    785.0519     11.3952     92.6978
  1413.0000      0.0000    782.1640     12.0876     92.7884
  1413.2500      0.0000    775.6415     13.0163     93.5140
  1413.5000      0.0000    766.2793     13.9840     96.5905
  1413.7500      0.0000    756.9175     14.7986    103.0073
  1414.0000      0.0000    750.1862     15.3690    111.5253
  1414.2500      0.0000    746.6002     15.6851    119.3874
  1414.5000      0.0000    744.7327     15.7728    124.4020
  1414.7500      0.0000    743.0657     15.6869    126.3672
  1415.0000      0.0000    741.4476     15.5022    126.7334
  1415.2500      0.0000    740.8589     15.2786    126.9874
  1415.5000      0.0000    742.1721     15.0324    127.1199
  1415.7500      0.0000    745.3285     14.7455    125.5872
  1416.0000      0.0000    749.5256     14.4030    120.9535
  1416.2500      0.0000    753.9114     14.0168    113.6900
  1416.5000      0.0000    757.8351     13.6089    106.2281
  1416.7500      0.0000    760.4901     13.1730    101.3940
  1417.0000      0.0000    760.9365     12.6638    100.9209
  1417.2500      0.0000    759.0621     12.0278    104.7263
  1417.5000      0.0000    756.3679     11.2471    110.7522
  1417.7500      0.0000    755.3835     10.3565    115.7869
  1418.0000      0.0000    758.1265      9.4252    117.2977
  1418.2500      0.0000    765.1375      8.5197    114.8569
  1418.5000      0.0000    776.1299      7.6749    110.0167
  1418.7500      0.0000    792.2798      6.8910    105.0132
  1419.0000      0.0000    817.8293      6.1607    101.1994
  1419.2500      0.0000    857.3372      5.5028     98.2696
  1419.5000      0.0000    909.0193      4.9705     95.1084
  1419.7500      0.0000    961.5402      4.6253     91.4657
  1420.0000      0.0000   1000.3853      4.5013     88.4461
  1420.2500      0.0000   1017.7862      4.5877     87.3733
  1420.5000      0.0000   1014.5767      4.8359     88.5262
  1420.7500      0.0000    993.8267      5.1840     91.0477
  1421.0000      0.0000    957.4387      5.5892     93.7647
  1421.2500      0.0000    909.9772      6.0582     96.0824
  1421.5000      0.0000    861.0640      6.6536     98.3797
  1421.7500      0.0000    820.3991      7.4584    101.5326
  1422.0000      0.0000    791.8530      8.5141    105.9681
  1422.2500      0.0000    773.7623      9.7736    111.3500
  1422.5000      0.0000    762.9407     11.1019    117.0934
  1422.7500      0.0000    757.0021     12.3228    122.5073
  1423.0000      0.0000    754.2570     13.2850    126.4593
  1423.2500      0.0000    753.2961     13.9140    127.8519
  1423.5000      0.0000    753.0717     14.2242    126.8005
  1423.7500      0.0000    753.0300     14.2933    124.6938
  1424.0000      0.0000    753.0771     14.2237    122.7982
  1424.2500      0.0000    753.4059     14.1128    121.1251
  1424.5000      0.0000    754.4008     14.0297    118.7595
  1424.7500      0.0000    756.5739     13.9984    115.0155
  1425.0000      0.0000    760.3055     14.0011    109.9562
  1425.2500      0.0000    765.4213     14.0009    103.9186
  1425.5000      0.0000    771.0280     13.9644     97.2227
  1425.7500      0.0000    775.8329     13.8715     90.8461
  1426.0000      0.0000    778.6197     13.7233     86.8984
  1426.2500      0.0000    778.6201     13.5467     87.3723
  1426.5000      0.0000    775.7820     13.3806     92.0591
  1426.7500      0.0000    770.8224     13.2536     98.2546
  1427.0000      0.0000    765.0193     13.1753    102.8373
  1427.2500      0.0000    759.8323     13.1468    104.2921
  1427.5000      0.0000    756.3969     13.1727    102.9985
  1427.7500      0.0000    755.2291     13.2594    100.5096
  1428.0000      0.0000    756.3646     13.4035     98.7565
  1428.2500      0.0000    759.5023     13.5819     99.2310
  1428.5000      0.0000    763.8186     13.7596    102.3633
  1428.7500      0.0000    767.9707     13.9082    107.3088
  1429.0000      0.0000    770.8646     14.0156    112.1751
  1429.2500      0.0000    772.6484     14.0814    114.9132
  1429.5000      0.0000    774.7220     14.1102    114.7220
  1429.7500      0.0000    778.3882     14.1121    112.8012
  1430.0000      0.0000    783.3039     14.1015    111.5078
  1430.2500      0.0000    787.5620     14.0841    112.7497
  1430.5000      0.0000    789.5776     14.0406    117.1373
  1430.7500      0.0000    789.7258     13.9287    124.1702
  1431.0000      0.0000    789.8640     13.7112    132.6175
  1431.2500      0.0000    791.3652     13.3866    140.7111
  1431.5000      0.0000    793.9426     12.9883    146.4803
  1431.7500      0.0000    796.3722     12.5563    148.5183
