~Version Information
 VERS.                                  2.0 : CWLS LAS VERSION
 WRAP.                                   NO : WRAPING MODE
 SWARE .                 MController 2.5.0J : SOFTWARE VERSION
~Well Information
 WELL.                        Montoya 7-14R : WELL
 COMP.                Petrogulf Corporation : COMPANY
 FLD.                      Purgatoire River : FIELD
 LOC.                 SW/SW Sec 7 T33S R67W : LOCATION
 DATE.                            10/7-8/05 : DATE(S) LOGGED
 SRVC.       BLANCO Geological Services LLC : SERVICE COMPANY
 STAT.                                   CO : STATE
 CNTY.                           Las Animas : COUNTY
 CTRY.                                  USA : COUNTRY
 API.                       05-071-08554-00 : API NUMBER
 STRT.FT                             769.00 : START DEPTH
 STOP.FT                            1960.00 : STOP DEPTH
 STEP.FT                               1.00 : DEPTH INCREMENT
 NULL.                                -9999 : NULL VALUE
~Curve information
 DEPTH.FT                                   :
 ROP.MIN/FT                                 :
 GAS.UNITS                                  :
~ASCII Log data
# ...
      1169.0         0.27          3.6 
      1170.0         2.12         19.6 
      1171.0         0.40          8.3 
      1172.0         0.47          6.0 
      1173.0         0.43          4.5 
      1174.0         0.33          3.8 
      1175.0         0.35          3.6 
      1176.0         0.37          3.5 
      1177.0         0.43          3.4 
      1178.0         0.27          3.4 
      1179.0         0.33          3.2 
      1180.0         0.40          3.4 
      1181.0         0.37          3.6 
      1182.0         0.30          3.5 
      1183.0         0.32          3.7 
      1184.0         0.30          3.5 
      1185.0         0.30          3.5 
      1186.0         0.20          3.7 
      1187.0         0.23          3.2 
      1188.0         0.23          3.4 
      1189.0         0.23          3.6 
      1190.0         0.20          3.9 
      1191.0         0.23          4.4 
      1192.0         0.13          4.7 
      1193.0         0.10          4.7 
      1194.0         0.10          4.9 
      1195.0         0.17          5.3 
      1196.0         0.17          5.4 
      1197.0         0.28          5.2 
      1198.0         0.30          4.6 
      1199.0         0.33          4.5 
      1200.0         1.53         25.1 
      1201.0         0.23         12.5 
      1202.0         0.33         11.0 
      1203.0         0.32          7.7 
      1204.0         0.23          6.4 
      1205.0         0.30          5.8 
      1206.0         0.33          4.7 
      1207.0         0.27          4.8 
      1208.0         0.27          4.7 
      1209.0         0.13          4.8 
      1210.0         0.27          4.8 
      1211.0         0.20          5.0 
      1212.0         0.17          4.3 
      1213.0         0.23          4.1 
      1214.0         0.27          4.0 
      1215.0         0.28          4.1 
      1216.0         0.23          5.2 
      1217.0         0.17          6.0 
      1218.0         0.13          6.8 
      1219.0         0.10          6.7 
      1220.0         0.10          6.8 
      1221.0         0.13          7.1 
      1222.0         0.17          6.5 
      1223.0         0.20          6.6 
      1224.0         0.23          7.0 
      1225.0         0.23          8.7 
      1226.0         0.30          8.8 
      1227.0         0.27          7.0 
      1228.0         0.23          5.5 
      1229.0         0.27          5.2 
      1230.0         1.48         89.1 
      1231.0         0.30         88.3 
      1232.0         0.33         67.1 
      1233.0         0.30         42.6 
      1234.0         0.30         27.2 
      1235.0         0.33         19.1 
      1236.0         0.35         14.5 
      1237.0         0.40         11.1 
      1238.0         0.43          9.6 
      1239.0         0.40          8.7 
      1240.0         0.37          8.1 
      1241.0         0.30          8.1 
      1242.0         0.20          7.8 
      1243.0         0.30          7.7 
      1244.0         0.27          7.5 
      1245.0         0.32          7.3 
      1246.0         0.30          7.1 
      1247.0         0.30          7.5 
      1248.0         0.30          7.5 
      1249.0         0.37          7.7 
      1250.0         0.37          7.7 
      1251.0         0.37          7.4 
      1252.0         0.27          7.3 
      1253.0         0.27          7.2 
      1254.0         0.28          7.6 
      1255.0         0.20          7.9 
      1256.0         0.23          8.2 
      1257.0         0.13          8.5 
      1258.0         0.17          7.9 
      1259.0         0.13          7.5 
      1260.0         3.52        445.0 
      1261.0         0.47         83.9 
      1262.0         0.40         29.6 
      1263.0         0.28         13.5 
      1264.0         0.23          7.9 
      1265.0         0.20          6.2 
      1266.0         0.17          5.5 
      1267.0         0.27          5.5 
      1268.0         0.23          5.4 
      1269.0         0.23          5.2 
      1270.0         0.33          5.3 
      1271.0         0.27          5.2 
      1272.0         0.23          5.6 
      1273.0         0.23          4.9 
      1274.0         0.30          4.9 
      1275.0         0.32          5.3 
      1276.0         0.20          6.0 
      1277.0         0.17          6.2 
      1278.0         0.13          6.5 
      1279.0         0.30          6.7 
      1280.0         0.27          6.8 
      1281.0         0.23          7.2 
      1282.0         0.17          6.8 
      1283.0         0.20          6.2 
      1284.0         0.23          6.3 
      1285.0         0.23          6.7 
      1286.0         0.23          6.5 
      1287.0         0.27          6.0 
      1288.0         0.35          6.3 
      1289.0         0.27          5.2 
      1290.0         2.48        242.0 
      1291.0         0.50         35.8 
      1292.0         0.47         16.5 
      1293.0         0.50          9.2 
      1294.0         0.40          6.4 
      1295.0         0.40          5.3 
      1296.0         0.40          5.0 
      1297.0         0.40          4.9 
      1298.0         0.28          5.1 
      1299.0         0.37          5.1 
      1300.0         0.23          5.5 
      1301.0         0.27          5.8 
      1302.0         0.10          5.5 
      1303.0         0.13          5.7 
      1304.0         0.13          6.1 
      1305.0         0.23          6.6 
      1306.0         0.17          6.1 
      1307.0         0.13          6.7 
      1308.0         0.27          6.4 
      1309.0         0.27          6.2 
      1310.0         0.23          5.8 
      1311.0         0.35          5.8 
      1312.0         0.30          5.8 
      1313.0         0.30          6.1 
      1314.0         0.33          5.7 
      1315.0         0.27          5.8 
      1316.0         0.20          5.5 
      1317.0         0.20          5.5 
      1318.0         0.23          5.4 
      1319.0         0.20          5.0 
      1320.0         2.28        262.8 
      1321.0         0.33         59.3 
      1322.0         0.50         33.8 
      1323.0         0.37         15.0 
      1324.0         0.38          9.0 
      1325.0         0.37          6.4 
      1326.0         0.30          5.5 
      1327.0         0.30          5.1 
      1328.0         0.33          5.1 
      1329.0         0.27          4.6 
      1330.0         0.27          4.7 
      1331.0         0.30          4.9 
      1332.0         0.23          4.8 
      1333.0         0.27          5.3 
      1334.0         0.23          4.8 
      1335.0         0.25          5.1 
      1336.0         0.23          5.2 
      1337.0         0.20          5.6 
      1338.0         0.23          5.4 
      1339.0         0.17          5.9 
      1340.0         0.17          5.3 
      1341.0         0.23          5.8 
      1342.0         0.27          5.9 
      1343.0         0.33          6.2 
      1344.0         0.37          6.6 
      1345.0         0.42          7.2 
      1346.0         0.27          7.1 
      1347.0         0.33          7.6 
      1348.0         0.23          6.9 
      1349.0         0.27          7.1 
      1350.0         1.85        282.0 
      1351.0         0.27        276.3 
      1352.0         0.40        213.1 
      1353.0         0.33         97.6 
      1354.0         0.23         47.6 
      1355.0         0.30         29.6 
      1356.0         0.33         15.8 
      1357.0         0.33         11.3 
      1358.0         0.43          8.4 
      1359.0         0.33          7.2 
      1360.0         0.30          6.9 
      1361.0         0.28          7.1 
      1362.0         0.30          7.0 
      1363.0         0.27          6.9 
      1364.0         0.27          7.2 
      1365.0         0.27          6.9 
      1366.0         0.37          7.0 
      1367.0         0.50          6.6 
      1368.0         0.47          6.7 
