~Version Information
VERS.                      2.0: CWLS Log ASCII Standard - VERSION 2.0
WRAP.                       NO: One line per depth step
~Well Information Block
STRT.FT               -15.7500: 
STOP.FT              1862.5000: 
STEP.FT                 0.2500: 
NULL.                -999.2500: 
COMP.          XTO Energy Inc.: COMPANY
WELL.          Golden Eagle 19-11: WELL
FLD.           Purgatorie River: FIELD
LOC.           2351' FSL &1926' WL--: LOCATION
CNTY.               Las Animas: COUNTY
SRVC.          Patterson Wireline: SERVICE COMPANY
DATE.          Fri Mar 24 16:29:29 2006: LOG DATE
UWI.           05 071 08696 00: UNIQUE WELL ID
STAT.                       CO: STATE
~Curve Information Block
DEPT.FT            0 000 00 00: Depth
CCL.                          : Casing Collar Locator
TT3.usec                      : CBL 3' Travel Time
AMP3.mV                       : CBL 3' Amplitude
GR.GAPI                       : Gamma Ray
~Parameter Information Block
~A  Depth       CCL         TT3         AMP3         GR     
# ...
   721.2500      0.0000    788.2369      5.8857    160.3610
   721.5000      0.0000    799.4600      5.8884    154.6698
   721.7500      2.0000    809.5056      5.9061    148.5951
   722.0000      0.0000    824.7986      5.9112    143.2566
   722.2500      0.0000    843.9889      5.9020    140.2945
   722.5000      0.0000    856.5307      5.9140    141.0812
   722.7500      0.0000    852.0720      5.9993    145.6727
   723.0000      0.0000    830.0504      6.1884    152.4554
   723.2500      0.0000    799.1500      6.4643    158.6998
   723.5000      0.0000    769.4471      6.7730    161.8826
   723.7500      0.0000    746.7200      7.0548    160.8810
   724.0000      0.0000    732.0900      7.2695    155.9970
   724.2500      0.0000    724.0781      7.4068    148.2289
   724.5000      0.0000    720.3625      7.4821    139.0008
   724.7500      0.0000    718.8602      7.5194    130.3589
   725.0000      0.0000    718.2313      7.5378    124.7303
   725.2500      0.0000    717.8393      7.5503    123.6997
   725.5000      0.0000    717.4955      7.5627    126.4431
   725.7500      0.0000    717.1932      7.5646    129.7669
   726.0000      0.0000    716.9737      7.5197    130.5511
   726.2500      0.0000    716.8586      7.3775    128.3228
   726.5000      0.0000    716.8267      7.1097    125.1156
   726.7500      0.0000    716.8277      6.7450    123.0259
   727.0000      0.0000    716.8304      6.3645    122.4083
   727.2500      0.0000    716.8549      6.0546    122.3818
   727.5000      0.0000    716.9456      5.8619    122.4257
   727.7500      0.0000    717.1101      5.7888    122.9866
   728.0000      0.0000    717.2922      5.8285    124.7795
   728.2500      0.0000    717.4153      5.9963    127.9597
   728.5000      0.0000    717.4865      6.3191    131.7807
   728.7500      0.0000    717.7025      6.7813    134.7168
   729.0000      0.0000    718.5094      7.2882    135.3489
   729.2500      0.0000    720.4720      7.7015    133.7178
   729.5000      0.0000    723.8475      7.9277    131.6085
   729.7500      0.0000    728.0714      7.9748    130.8803
   730.0000      0.0000    731.7298      7.9267    131.5544
   730.2500      0.0000    733.2960      7.8690    132.0643
   730.5000      0.0000    732.1115      7.8389    131.2776
   730.7500      0.0000    728.8132      7.8311    129.6130
   731.0000      0.0000    724.8350      7.8327    128.1463
   731.2500      0.0000    721.3490      7.8368    127.4862
   731.5000      0.0000    718.4763      7.8219    128.0490
   731.7500      0.0000    715.4274      7.7341    130.7505
   732.0000      0.0000    711.4785      7.5189    136.3470
   732.2500      0.0000    707.0540      7.1804    143.7965
   732.5000      0.0000    703.9797      6.7973    149.9277
   732.7500      0.0000    704.3379      6.4710    151.5525
   733.0000      0.0000    708.3723      6.2597    147.9275
   733.2500      0.0000    713.2536      6.1604    140.8024
   733.5000      0.0000    714.8384      6.1335    132.3773
   733.7500      0.0000    711.9482      6.1331    123.8768
   734.0000      0.0000    708.4639      6.1272    115.8901
   734.2500      0.0000    709.3887      6.1060    109.0207
   734.5000      0.0000    714.4797      6.0774    103.5221
   734.7500      0.0000    717.6672      6.0520     98.7888
   735.0000      0.0000    714.0494      6.0318     94.0254
   735.2500      0.0000    706.3870      6.0121     89.5616
   735.5000      0.0000    703.1152      5.9886     87.0347
   735.7500      0.0000    710.0001      5.9572     88.0309
   736.0000      0.0000    724.2196      5.9131     92.7987
   736.2500      0.0000    736.6606      5.8574    100.3305
   736.5000      0.0000    739.9488      5.8002    109.4314
   736.7500      0.0000    733.8007      5.7550    119.6591
   737.0000      0.0000    722.8786      5.7264    131.1350
   737.2500      0.0000    711.9448      5.7081    143.1472
   737.5000      0.0000    704.3910      5.6890    153.4165
   737.7500      0.0000    702.6583      5.6599    159.5366
   738.0000      0.0000    706.7016      5.6143    160.9692
   738.2500      0.0000    712.8379      5.5466    159.1818
   738.5000      0.0000    716.7462      5.4556    156.1354
   738.7500      0.0000    717.4510      5.3506    153.0915
   739.0000      0.0000    716.9166      5.2489    150.6465
   739.2500      0.0000    716.7827      5.1607    149.0376
   739.5000      0.0000    717.0707      5.0756    147.7198
   739.7500      0.0000    717.4121      4.9677    145.0502
   740.0000      0.0000    718.1708      4.8177    139.3883
   740.2500      0.0000    720.1697      4.6292    130.7310
   740.5000      0.0000    723.5518      4.4240    120.7944
   740.7500      0.0000    726.9361      4.2269    111.5106
   741.0000      0.0000    728.0619      4.0542    103.8204
   741.2500      0.0000    725.7879      3.9155     97.8026
   741.5000      0.0000    721.1830      3.8195     93.5425
   741.7500      0.0000    716.2975      3.7760     91.5092
   742.0000      0.0000    712.0562      3.7925     91.7854
   742.2500      0.0000    707.5030      3.8712     92.9725
   742.5000      0.0000    700.5852      4.0087     92.6342
   742.7500      0.0000    689.5146      4.1935     89.4650
   743.0000      0.0000    674.0889      4.4038     84.7346
   743.2500      0.0000    656.2836      4.6117     81.0809
   743.5000      0.0000    639.1434      4.7948     79.9640
   743.7500      0.0000    624.9492      4.9469     80.6648
   744.0000      0.0000    615.4849      5.0763     81.6563
   744.2500      0.0000    613.7112      5.1907     82.4356
   744.5000      0.0000    622.4032      5.2854     83.9015
   744.7500      0.0000    640.2576      5.3443     87.3860
   745.0000      0.0000    661.7386      5.3522     93.5313
   745.2500      0.0000    681.6425      5.3065    101.7607
   745.5000      0.0000    698.5176      5.2193    110.6078
   745.7500      0.0000    714.0361      5.1095    118.9743
   746.0000      0.0000    730.4905      4.9894    127.0865
   746.2500      0.0000    748.4128      4.8600    135.4094
   746.5000      0.0000    765.2749      4.7198    142.7002
   746.7500      0.0000    776.5938      4.5756    146.6255
   747.0000      0.0000    779.0663      4.4402    146.7434
   747.2500      0.0000    772.9902      4.3173    145.4039
   747.5000      0.0000    761.6447      4.1982    145.0986
   747.7500      0.0000    748.1650      4.0756    146.2358
   748.0000      0.0000    733.1567      3.9578    147.9574
   748.2500      0.0000    715.9561      3.8644    149.5735
   748.5000      0.0000    697.7841      3.8129    150.3705
   748.7500      0.0000    682.1920      3.8083    149.3168
   749.0000      0.0000    672.2407      3.8449    146.1515
   749.2500      0.0000    668.3834      3.9125    142.1831
   749.5000      0.0000    669.0930      4.0026    139.1993
   749.7500      0.0000    672.2995      4.1120    137.8344
   750.0000      0.0000    675.9323      4.2397    137.3711
   750.2500      0.0000    678.2891      4.3832    136.9146
   750.5000      0.0000    679.0107      4.5400    136.4363
   750.7500      0.0000    679.5404      4.7118    136.7686
   751.0000      0.0000    681.8587      4.9030    138.7559
   751.2500      0.0000    686.4797      5.1130    142.1525
   751.5000      0.0000    691.8972      5.3294    145.0286
   751.7500      0.0000    695.9630      5.5299    144.6323
   752.0000      0.0000    697.1871      5.6937    139.3596
   752.2500      0.0000    694.3848      5.8133    129.9100
   752.5000      0.0000    685.5621      5.8965    118.5826
   752.7500      0.0000    667.7617      5.9568    107.6543
   753.0000      0.0000    638.4131      6.0039     98.1154
   753.2500      0.0000    598.1456      6.0408     89.5051
   753.5000      0.0000    553.4875      6.0656     81.1737
   753.7500      0.0000    516.3488      6.0765     73.7928
   754.0000      0.0000    499.3863      6.0758     69.0794
   754.2500      0.0000    510.0117      6.0701     68.0203
   754.5000      0.0000    546.1407      6.0652     70.0256
