~Version Information
VERS.                      2.0: CWLS Log ASCII Standard - VERSION 2.0
WRAP.                       NO: One line per depth step
~Well Information Block
STRT.FT                -6.5000: 
STOP.FT              1564.2500: 
STEP.FT                 0.2500: 
NULL.                -999.2500: 
COMP.          Pioneer Natural Resources: COMPANY
WELL.            Bluesky 44-17: WELL
FLD.           Purgatorie River: FIELD
LOC.           --39' FSL & 288' FEL------: LOCATION
STAT.                       CO: State
CNTY.               Las Animas: COUNTY
CTRY. USA : Country
SECT. 17 : Section
TOWN. 33S : Township
RANG. 66W : Range
SRVC.          Patterson Wireline: SERVICE COMPANY
DATE.          Tue Sep 13 13:24:14 2005: LOG DATE
API.           05 071 08511 00: UNIQUE WELL ID
~Curve Information Block
DEPT.FT            0 000 00 00: Depth
CCL.                          : Casing Collar Locator
TT3.usec                      : CBL 3' Travel Time
AMP3.mV                       : CBL 3' Amplitude
GR.GAPI                       : Gamma Ray
~Parameter Information Block
~A  Depth       CCL         TT3         AMP3         GR     
# ...
   596.5000      0.0000    757.3423     11.0013     80.4037
   596.7500      0.0000    753.8422     11.0586     74.9958
   597.0000      0.0000    750.5156     11.0896     69.7453
   597.2500      0.0000    749.4004     11.0785     65.5233
   597.5000      0.0000    752.4104     11.0273     63.0175
   597.7500      0.0000    759.4803     10.9458     62.0640
   598.0000      0.0000    768.4421     10.8448     61.9992
   598.2500      0.0000    776.1378     10.7408     62.8346
   598.5000      0.0000    780.1415     10.6592     65.4202
   598.7500      0.0000    780.2944     10.6279     70.0351
   599.0000      0.0000    778.5218     10.6615     75.2905
   599.2500      0.0000    776.9333     10.7509     78.8225
   599.5000      0.0000    776.4679     10.8679     78.9991
   599.7500      0.0000    777.1136     10.9806     75.9625
   600.0000      0.0000    778.2704     11.0649     71.4162
   600.2500      0.0000    778.7916     11.1043     67.7289
   600.5000      0.0000    777.6121     11.0882     66.9385
   600.7500      0.0000    774.5009     11.0181     69.8542
   601.0000      0.0000    769.8223     10.9160     75.7313
   601.2500      0.0000    763.8029     10.8220     82.9517
   601.5000      0.0000    756.5711     10.7756     90.0936
   601.7500      0.0000    748.9359     10.7924     96.3340
   602.0000      0.0000    742.5497     10.8601    101.1186
   602.2500      0.0000    739.0815     10.9561    103.8312
   602.5000      0.0000    739.5647     11.0630    104.0676
   602.7500      0.0000    744.2124     11.1677    102.4873
   603.0000      0.0000    752.0114     11.2562    101.0688
   603.2500      0.0000    760.4514     11.3171    101.6405
   603.5000      0.0000    766.4266     11.3479    104.0904
   603.7500      0.0000    768.0184     11.3559    106.7372
   604.0000      0.0000    765.6763     11.3571    108.2421
   604.2500      0.0000    761.7558     11.3729    108.1884
   604.5000      0.0000    758.7133     11.4195    106.0880
   604.7500      0.0000    757.4628     11.4976    101.0169
   605.0000      0.0000    757.2786     11.5938     92.5456
   605.2500      0.0000    756.9914     11.6902     81.5035
   605.5000      0.0000    756.1895     11.7672     69.6220
   605.7500      0.0000    755.4808     11.8024     58.6678
   606.0000      0.0000    755.6443     11.7801     49.9168
   606.2500      0.0000    756.4872     11.7054     44.1052
   606.5000      0.0000    756.9198     11.6043     41.4635
   606.7500      0.0000    756.2689     11.5071     41.5815
   607.0000      0.0000    754.8913     11.4293     43.4142
   607.2500      0.0000    753.2994     11.3678     45.6788
   607.5000      0.0000    751.5028     11.3123     47.2036
   607.7500      0.0000    749.4786     11.2583     47.0813
   608.0000      0.0000    747.5789     11.2126     45.1059
   608.2500      0.0000    745.9695     11.1881     42.2690
   608.5000      0.0000    743.6289     11.1961     40.3999
   608.7500      0.0000    737.2689     11.2410     40.9509
   609.0000      0.0000    720.5330     11.3217     44.0481
   609.2500      0.0000    685.7256     11.4375     48.4657
   609.5000      0.0000    629.6653     11.5902     52.3337
   609.7500      0.0000    559.3129     11.7770     54.1349
   610.0000      0.0000    489.7551     11.9809     53.4382
   610.2500      0.0000    434.5856     12.1741     51.0099
   610.5000      0.0000    398.1702     12.3341     48.3040
   610.7500      0.0000    376.9284     12.4547     46.5909
   611.0000      0.0000    366.3379     12.5412     46.2098
   611.2500      0.0000    366.0385     12.5985     46.4672
   611.5000      0.0000    379.6181     12.6256     46.1727
   611.7500      0.0000    409.7516     12.6195     44.4040
   612.0000      0.0000    451.5752     12.5785     41.0985
   612.2500      0.0000    490.6401     12.5004     37.1418
   612.5000      0.0000    511.6292     12.3783     33.8113
   612.7500      0.0000    512.5574     12.2043     31.9507
   613.0000      0.0000    508.3914     11.9809     31.6119
   613.2500      0.0000    517.9460     11.7345     32.3699
   613.5000      0.0000    548.5331     11.5120     33.7364
   613.7500      0.0000    593.9840     11.3581     35.2600
   614.0000      0.0000    643.1769     11.2898     36.6407
   614.2500      0.0000    686.9454     11.2920     38.0865
   614.5000      0.0000    719.7747     11.3321     40.5006
   614.7500      0.0000    739.7116     11.3781     45.1206
   615.0000      0.0000    747.8418     11.4088     52.7937
   615.2500      0.0000    747.1794     11.4143     63.4670
   615.5000      0.0000    741.9832     11.3902     76.3479
   615.7500      0.0000    737.1135     11.3358     90.5033
   616.0000      0.0000    736.1316     11.2566    105.1644
   616.2500      0.0000    739.6246     11.1645    119.3587
   616.5000      0.0000    746.0534     11.0711    131.4086
   616.7500      0.0000    753.6782     10.9788    139.1936
   617.0000      0.0000    761.2122     10.8722    141.2680
   617.2500      0.0000    767.8856     10.7203    137.7439
   617.5000      0.0000    773.9007     10.5015    130.1543
   617.7500      0.0000    780.1613     10.2369    120.6846
   618.0000      0.0000    786.9100      9.9969    111.3648
   618.2500      0.0000    793.1362      9.8622    103.4531
   618.5000      0.0000    797.6652      9.8747     97.3187
   618.7500      0.0000    800.2701     10.0228     92.8750
   619.0000      0.0000    801.5299     10.2627     90.0641
   619.2500      0.0000    802.0806     10.5463     89.0988
   619.5000      0.0000    802.2723     10.8373     90.4742
   619.7500      0.0000    802.2761     11.1128     94.4360
   620.0000      0.0000    802.1348     11.3622    100.2440
   620.2500      0.0000    801.6193     11.5890    106.5104
   620.5000      0.0000    800.0027     11.8125    112.5617
   620.7500      0.0000    796.0609     12.0616    118.7944
   621.0000      0.0000    788.5887     12.3524    125.1539
   621.2500      0.0000    777.3336     12.6643    129.8669
   621.5000      0.0000    763.6186     12.9251    130.6013
   621.7500      0.0000    750.1080     13.0101    126.8905
   622.0000      0.0000    739.2453     12.7804    120.8125
   622.2500      0.0000    730.9787     12.1938    115.2326
   622.5000      0.0000    722.6514     11.4033    111.8358
   622.7500      0.0000    712.9510     10.6841    110.5503
   623.0000      0.0000    705.4059     10.2245    110.0546
   623.2500      0.0000    705.8922     10.0134    108.8466
   623.5000      2.0000    717.1077      9.9204    106.2606
   623.7500      0.0000    736.4586      9.8252    102.4528
   624.0000      0.0000    757.9489      9.6743     97.7320
   624.2500      0.0000    775.2726      9.4834     92.5912
   624.5000      0.0000    784.3854      9.3228     88.1846
   624.7500      0.0000    784.4569      9.2786     85.8133
   625.0000      0.0000    777.1668      9.4111     85.6988
   625.2500      0.0000    765.7023      9.7473     86.8256
   625.5000      0.0000    753.9711     10.2746     88.1575
   625.7500      0.0000    745.4230     10.9064     89.5790
   626.0000      0.0000    741.5651     11.4934     91.4742
   626.2500      0.0000    741.6174     11.9162     93.8588
   626.5000      0.0000    743.8220     12.1581     96.3152
   626.7500      0.0000    746.9716     12.2773     98.5676
   627.0000      0.0000    750.4435     12.3340    100.7500
   627.2500      0.0000    753.2514     12.3568    103.0772
   627.5000      0.0000    753.8693     12.3552    105.4803
   627.7500      0.0000    751.1733     12.3382    107.6316
   628.0000      0.0000    745.4107     12.3197    109.2411
   628.2500      0.0000    738.2373     12.3123    110.3344
   628.5000      0.0000    731.7362     12.3212    111.2533
   628.7500      0.0000    727.1819     12.3432    112.3712
   629.0000      0.0000    724.5854     12.3675    113.8169
   629.2500      0.0000    723.2313     12.3805    115.2944
   629.5000      0.0000    722.4603     12.3715    116.0315
   629.7500      0.0000    722.0221     12.3356    115.0810
