~Version Information
VERS.                      2.0: CWLS Log ASCII Standard - VERSION 2.0
WRAP.                       NO: One line per depth step
~Well Information Block
STRT.FT                 0.0000: 
STOP.FT              1147.5000: 
STEP.FT                 0.2500: 
NULL.                -999.2500: 
COMP.          Pioneer Natural Resources: COMPANY
WELL.          Tin Barn 14-20 TR: WELL
FLD.           Purgatorie River: FIELD
LOC.           925 FSL & 1151 FWL: LOCATION
PROV.                 Colorado: PROVINCE
CNTY.               Las Animas: COUNTRY
SRVC.                Patterson: SERVICE COMPANY
DATE.          Wed Jan 18 12:02:25 2006: LOG DATE
UWI.                          : UNIQUE WELL ID
~Curve Information Block
DEPT.FT            0 000 00 00: Depth
CCL.                          : Casing Collar Locator
TT3.usec                      : CBL 3' Travel Time
AMP3.mV                       : CBL 3' Amplitude
GR.GAPI                       : Gamma Ray
~Parameter Information Block
~A  Depth       CCL         TT3         AMP3         GR     
# ...
   737.0000      0.0000    301.0103     35.7377    110.6572
   737.2500      0.0000    301.0630     35.3623    104.1949
   737.5000      0.0000    301.1020     34.9609     99.5938
   737.7500      0.0000    301.1395     34.5689     98.5060
   738.0000      0.0000    301.1778     34.2268    101.2300
   738.2500      0.0000    301.2011     33.9680    106.4369
   738.5000      0.0000    301.1995     33.8014    112.2260
   738.7500      0.0000    301.1854     33.6849    117.4935
   739.0000      0.0000    301.1807     33.5401    122.1184
   739.2500      0.0000    301.2005     33.3315    125.9342
   739.5000      0.0000    301.2482     33.0999    128.1373
   739.7500      0.0000    301.3108     32.8956    128.0675
   740.0000      0.0000    301.3664     32.7298    126.2403
   740.2500      0.0000    301.3983     32.5859    124.2609
   740.5000      0.0000    301.4022     32.4545    123.6809
   740.7500      0.0000    301.3870     32.3655    124.8400
   741.0000      0.0000    301.3673     32.3425    126.6404
   741.2500      0.0000    301.3499     32.3434    127.4163
   741.5000      0.0000    301.3400     32.2945    126.1955
   741.7500      0.0000    301.3549     32.1479    123.3184
   742.0000      0.0000    301.4007     31.9078    119.9291
   742.2500      0.0000    301.4550     31.6117    117.1065
   742.5000      0.0000    301.5019     31.2833    115.8068
   742.7500      0.0000    301.5462     30.9300    117.3595
   743.0000      0.0000    301.5899     30.5616    122.9856
   743.2500      0.0000    301.6189     30.2057    132.2649
   743.5000      0.0000    301.6170     29.9215    142.4176
   743.7500      0.0000    301.5952     29.7321    149.5719
   744.0000      0.0000    301.5803     29.5706    150.8850
   744.2500      0.0000    301.5804     29.3642    145.9574
   744.5000      0.0000    301.5899     29.0963    136.8961
   744.7500      0.0000    301.6075     28.7771    126.8929
   745.0000      0.0000    301.6301     28.4385    117.9132
   745.2500      0.0000    301.6498     28.1271    109.4111
   745.5000      0.0000    301.6571     27.8895     99.6754
   745.7500      0.0000    301.6390     27.7930     88.3811
   746.0000      0.0000    301.5736     27.9085     77.1831
   746.2500      0.0000    301.4326     28.2527     67.9564
   746.5000      0.0000    301.2201     28.8028     61.3166
   746.7500      0.0000    300.9953     29.5689     56.7844
   747.0000      0.0000    300.8124     30.5728     53.4883
   747.2500      0.0000    300.6654     31.7494     50.6070
   747.5000      0.0000    300.5330     32.9566     47.7265
   747.7500      0.0000    300.3984     34.1118     45.1100
   748.0000      0.0000    300.0644     35.2689     43.6387
   748.2500      0.0000    298.7004     36.5242     44.5445
   748.5000      0.0000    294.6006     37.9078     48.8571
   748.7500      0.0000    286.5726     39.4037     56.5824
   749.0000      0.0000    276.3887     40.9317     66.3074
   749.2500      0.0000    267.9697     42.2986     75.8789
   749.5000      0.0000    263.3687     43.3442     83.6264
   749.7500      0.0000    261.6402     44.1057     89.0170
   750.0000      0.0000    261.1407     44.6939     92.4092
   750.2500      0.0000    261.0307     45.0780     94.6010
   750.5000      0.0000    261.1057     45.1354     96.6870
   750.7500      0.0000    261.3190     44.8791     99.8347
   751.0000      0.0000    261.5796     44.5101    104.5235
   751.2500      0.0000    261.7940     44.1977    109.9373
   751.5000      0.0000    261.9667     43.9063    114.5253
   751.7500      0.0000    262.1721     43.5204    117.3418
   752.0000      0.0000    262.4418     43.0405    118.6304
   752.2500      0.0000    262.7194     42.5968    119.2455
   752.5000      0.0000    262.9501     42.3236    119.9497
   752.7500      0.0000    263.3370     42.2065    121.2087
   753.0000      0.0000    264.7583     42.0724    123.0056
   753.2500      0.0000    268.9131     41.7402    124.5872
   753.5000      0.0000    276.8930     41.1356    124.8365
   753.7500      0.0000    286.8000     40.3160    123.2972
   754.0000      0.0000    294.7293     39.4152    120.7101
   754.2500      0.0000    298.8340     38.5522    118.4601
   754.5000      0.0000    300.2383     37.8051    117.5762
   754.7500      0.0000    300.5899     37.2120    118.1953
   755.0000      0.0000    300.6728     36.7716    119.6856
   755.2500      0.0000    300.6841     36.4713    121.0585
   755.5000      0.0000    300.6706     36.2744    121.2557
   755.7500      0.0000    300.6584     36.1233    119.4620
   756.0000      0.0000    300.6639     35.9980    115.7405
   756.2500      0.0000    300.7006     35.9132    111.3136
   756.5000      0.0000    300.7597     35.8695    107.5299
   756.7500      0.0000    300.8052     35.8394    104.5179
   757.0000      0.0000    300.8084     35.8139    101.5903
   757.2500      0.0000    300.7649     35.8557     99.0550
   757.5000      0.0000    300.6754     36.0438     98.6637
   757.7500      0.0000    300.5381     36.3793    101.7449
   758.0000      0.0000    300.3620     36.7965    107.5580
   758.2500      0.0000    300.1827     37.2138    114.1004
   758.5000      0.0000    300.0517     37.5380    119.9440
   758.7500      0.0000    300.0008     37.6765    124.6100
   759.0000      0.0000    300.0356     37.5903    127.8528
   759.2500      0.0000    300.1541     37.3082    129.5190
   759.5000      0.0000    300.3268     36.8969    129.6653
   759.7500      0.0000    300.4788     36.4664    128.1862
   760.0000      0.0000    300.5425     36.1440    124.8729
   760.2500      0.0000    300.5150     35.9804    120.4486
   760.5000      0.0000    300.4580     35.9166    116.9218
   760.7500      0.0000    300.4452     35.8532    116.0127
   761.0000      0.0000    300.4931     35.7346    117.4455
   761.2500      0.0000    300.5553     35.5571    119.4576
   761.5000      0.0000    300.5826     35.3400    120.7565
   761.7500      0.0000    300.5712     35.1104    121.4751
   762.0000      0.0000    300.5556     34.8690    122.5742
   762.2500      0.0000    300.5599     34.6076    125.0431
   762.5000      0.0000    300.5678     34.3882    129.4632
   762.7500      0.0000    300.5447     34.3126    135.4740
   763.0000      0.0000    300.4801     34.3925    141.4007
   763.2500      0.0000    300.4046     34.5150    144.8521
   763.5000      0.0000    300.3666     34.5296    144.1741
   763.7500      0.0000    300.3924     34.3491    139.4903
   764.0000      0.0000    300.4748     33.9962    132.3242
   764.2500      0.0000    300.5854     33.5558    124.3042
   764.5000      0.0000    300.6867     33.1057    116.1977
   764.7500      0.0000    300.7539     32.7034    107.9208
   765.0000      0.0000    300.7826     32.3927     99.1930
   765.2500      0.0000    300.7751     32.1847     90.0639
   765.5000      0.0000    300.7454     32.0326     80.9903
   765.7500      0.0000    300.7256     31.8449     72.7810
   766.0000      0.0000    300.7355     31.5607     66.4197
   766.2500      0.0000    300.7589     31.2031     62.5963
   766.5000      0.0000    300.7646     30.8215     61.3753
   766.7500      0.0000    300.7606     30.4236     62.4611
   767.0000      0.0000    300.8021     30.0135     65.4660
   767.2500      0.0000    300.9097     29.6675     69.5864
   767.5000      0.0000    301.0238     29.4746     73.4742
   767.7500      0.0000    301.0839     29.3752     76.1995
   768.0000      0.0000    301.1104     29.1346     78.3066
   768.2500      0.0000    301.2471     28.4938     81.2506
   768.5000      0.0000    302.0069     27.3895     85.6580
   768.7500      0.0000    305.0633     25.9859     90.5172
   769.0000      0.0000    314.5842     24.3541     94.2066
   769.2500      0.0000    337.6822     22.4172     96.2220
   769.5000      0.0000    382.0911     20.1823     97.7256
   769.7500      0.0000    446.9426     17.7366    100.0964
   770.0000      0.0000    515.5487     15.5374    103.0160
   770.2500      0.0000    573.5815     14.2725    104.6418
