~Version Information
VERS.                      2.0: CWLS Log ASCII Standard - VERSION 2.0
WRAP.                       NO: One line per depth step
~Well Information Block
STRT.FT               680.0000: 
STOP.FT              1585.5000: 
STEP.FT                 0.1000: 
NULL.                -999.2500: 
COMP.          Pioneer Natural Resources: COMPANY
WELL.          Screamin' 12-29: WELL
FLD.           Purgatoire River: FIELD
LOC.           2038' FNL & 612' FWL: LOCATION
CNTY.               Las Animas: COUNTY
SRVC.                Patterson: SERVICE COMPANY
DATE.          Wed Mar 29 10:01:18 2006: LOG DATE
UWI.           05 071 08661 00: UNIQUE WELL ID
STAT.                 Colorado: STATE
~Curve Information Block
DEPT.FT            0 000 00 00: Depth
DCAL.in                       : CDL Caliper
RHOB.g/cc                     : CDL Bulk Density
RHOC.g/cc                     : CDL Density Correction
DPOR.pu                       : CDL Density Porosity
GR.GAPI                       : Gamma Ray
NPOR.pu                       : Neutron Porosity
~Parameter Information Block
~A  Depth       DCAL        RHOB        RHOC        DPOR         GR         NPOR    
# ...
  1035.2000      8.0199      2.2399     -0.0259     24.8530    128.6334     25.5550
  1035.3000      8.0342      2.2332      0.0773     25.2597    126.7076     25.5871
  1035.4000      8.0342      2.2543      0.1387     23.9809    124.4100     25.8989
  1035.5000      8.1064      2.2972      0.2185     21.3812    123.9866     26.6194
  1035.6000      8.1064      2.3547      0.3276     17.8983    127.8149     26.8233
  1035.7000      8.1064      2.4153      0.3494     14.2238    134.8467     26.4322
  1035.8000      8.2029      2.4728      0.3987     10.7365    140.0264     26.5229
  1035.9000      8.2029      2.5232      0.4328      7.6825    140.8756     27.6653
  1036.0000      8.2731      2.5587      0.4453      5.5345    139.3695     29.1650
  1036.1000      8.2731      2.5780      0.4193      4.3652    137.8826     29.7109
  1036.2000      8.2731      2.5922      0.3621      3.5028    136.7475     29.0238
  1036.3000      8.3440      2.6064      0.3788      2.6448    132.6023     28.3333
  1036.4000      8.3440      2.6155      0.3031      2.0931    126.1508     28.4881
  1036.5000      8.4366      2.6243      0.2757      1.5585    123.6694     28.8401
  1036.6000      8.4366      2.6367      0.2758      0.8033    125.1702     28.5365
  1036.7000      8.4366      2.6429      0.2758      0.4303    127.8155     27.9310
  1036.8000      8.4628      2.6325      0.2495      1.0603    129.4876     27.3983
  1036.9000      8.4628      2.6066      0.2124      2.6330    129.2061     26.7696
  1037.0000      8.3799      2.5703      0.2550      4.8324    129.3454     26.6295
  1037.1000      8.3799      2.5327      0.1553      7.1069    129.6597     27.4062
  1037.2000      8.3799      2.5097      0.1362      8.5047    128.1203     27.7500
  1037.3000      8.2704      2.5021      0.1139      8.9635    127.0923     27.0632
  1037.4000      8.2704      2.4998      0.0694      9.1059    128.9826     26.7882
  1037.5000      8.2218      2.5019      0.0453      8.9738    133.6605     27.3983
  1037.6000      8.2218      2.5096      0.0830      8.5103    140.2337     27.7924
  1037.7000      8.2218      2.5167      0.1303      8.0804    144.0781     27.4979
  1037.8000      8.2179      2.5261      0.1233      7.5098    142.8544     27.0308
  1037.9000      8.2179      2.5455      0.1774      6.3356    139.7336     26.8989
  1038.0000      8.2043      2.5613      0.1339      5.3783    135.6640     27.3205
  1038.1000      8.2043      2.5612      0.0895      5.3820    129.4233     27.6882
  1038.2000      8.2043      2.5619      0.0523      5.3418    125.3681     27.6030
  1038.3000      8.1641      2.5775      0.0957      4.3918    128.4207     27.6249
  1038.4000      8.1641      2.5987      0.1217      3.1067    134.8134     27.5408
  1038.5000      8.1267      2.6126      0.1827      2.2650    137.2936     26.9256
  1038.6000      8.1267      2.6068      0.2301      2.6184    134.6189     26.4293
  1038.7000      8.1267      2.5711      0.1562      4.7843    133.2390     26.4193
  1038.8000      8.1072      2.5108      0.1052      8.4338    135.3095     26.2824
  1038.9000      8.1072      2.4444     -0.0070     12.4628    136.8815     25.9040
  1039.0000      8.0985      2.3924     -0.0151     15.6151    137.2195     25.7592
  1039.1000      8.0985      2.3656     -0.0310     17.2380    136.4889     25.9212
  1039.2000      8.0985      2.3647     -0.0267     17.2890    136.5916     26.4813
  1039.3000      8.0980      2.3858      0.0284     16.0102    138.5795     27.5039
  1039.4000      8.0980      2.4232     -0.0019     13.7467    140.9261     28.4025
  1039.5000      8.1324      2.4662      0.1111     11.1373    142.2464     28.6594
  1039.6000      8.1324      2.4941      0.1522      9.4455    140.7559     28.6030
  1039.7000      8.1324      2.4931      0.1834      9.5081    137.5770     28.5269
  1039.8000      8.2094      2.4692      0.1907     10.9550    136.8254     28.2604
  1039.9000      8.2094      2.4310      0.2270     13.2748    139.7546     27.6183
  1040.0000      8.2619      2.3850      0.1590     16.0631    140.5591     26.7523
  1040.1000      8.2619      2.3519      0.0512     18.0652    136.8156     26.0876
  1040.2000      8.2619      2.3463      0.0669     18.4032    134.4234     26.0284
  1040.3000      8.2535      2.3614      0.0390     17.4904    134.9886     26.7010
  1040.4000      8.2535      2.3907      0.0387     15.7147    133.9698     27.4683
  1040.5000      8.1956      2.4292      0.0935     13.3844    130.4541     27.4551
  1040.6000      8.1956      2.4698      0.1266     10.9237    128.3616     26.7291
  1040.7000      8.1956      2.5094      0.2098      8.5194    129.1445     25.7272
  1040.8000      8.1404      2.5423      0.2843      6.5248    130.5635     24.8809
  1040.9000      8.1404      2.5654      0.2730      5.1244    131.8426     24.4400
  1041.0000      8.1165      2.5757      0.2814      4.5024    131.3530     24.6140
  1041.1000      8.1165      2.5671      0.2492      5.0262    127.9350     25.5172
  1041.2000      8.1165      2.5498      0.1703      6.0732    125.4069     26.3802
  1041.3000      8.1099      2.5299      0.1927      7.2770    126.6631     26.8445
  1041.4000      8.1099      2.4889      0.1811      9.7656    130.4422     27.6579
  1041.5000      8.1110      2.4210      0.1091     13.8802    135.3407     28.7642
  1041.6000      8.1110      2.3569      0.0377     17.7610    138.8115     29.1683
  1041.7000      8.1110      2.3334      0.0423     19.1904    136.7610     29.0692
  1041.8000      8.1140      2.3597      0.0998     17.5930    129.2642     29.2851
  1041.9000      8.1140      2.4224      0.1525     13.7912    121.7884     29.2977
  1042.0000      8.1050      2.4975      0.1982      9.2401    119.9020     28.6148
  1042.1000      8.1050      2.5640      0.2362      5.2132    123.7856     27.8088
  1042.2000      8.1050      2.6158      0.2954      2.0709    126.8995     27.5260
  1042.3000      8.0843      2.6554      0.3300     -0.3302    125.6995     27.4250
  1042.4000      8.0843      2.6797      0.3889     -1.8003    125.2983     26.7344
  1042.5000      8.0713      2.6822      0.3678     -1.9543    126.4671     25.9577
  1042.6000      8.0713      2.6658      0.2920     -0.9573    124.7184     25.9991
  1042.7000      8.0713      2.6404      0.2134      0.5812    124.0201     26.2534
  1042.8000      8.0680      2.6149      0.1443      2.1251    129.1101     26.3017
  1042.9000      8.0680      2.5888      0.1397      3.7103    136.3890     26.6374
  1043.0000      8.0660      2.5613      0.0759      5.3785    142.3615     27.2472
  1043.1000      8.0660      2.5462      0.0828      6.2889    149.7909     27.9925
  1043.2000      8.0660      2.5445      0.1951      6.3954    158.3324     28.9780
  1043.3000      8.0634      2.5372      0.1384      6.8335    159.8339     29.9674
  1043.4000      8.0634      2.5278      0.0939      7.4069    153.3540     30.5541
  1043.5000      8.0614      2.5275      0.1293      7.4244    145.5906     30.0836
  1043.6000      8.0614      2.5227      0.0865      7.7124    137.0105     28.7506
  1043.7000      8.0614      2.4990      0.0891      9.1530    127.3521     28.0629
  1043.8000      8.0601      2.4618      0.0606     11.4071    123.1651     28.5524
  1043.9000      8.0601      2.4279      0.0775     13.4601    125.4628     29.0349
  1044.0000      8.0587      2.4075      0.0908     14.6959    127.8203     28.7111
  1044.1000      8.0587      2.4000      0.0953     15.1517    129.8801     27.9216
  1044.2000      8.0587      2.4072      0.0596     14.7164    137.1442     27.2166
  1044.3000      8.0563      2.4344      0.0670     13.0644    147.8496     27.1000
  1044.4000      8.0563      2.4755      0.1308     10.5762    153.4267     27.4213
  1044.5000      8.0557      2.5197      0.1576      7.8986    151.2711     27.5490
  1044.6000      8.0557      2.5621      0.2190      5.3250    146.2807     27.6929
  1044.7000      8.0557      2.5930      0.2855      3.4575    141.4044     28.2550
