~Version Information
VERS.                      2.0: CWLS Log ASCII Standard - VERSION 2.0
WRAP.                       NO: One line per depth step
~Well Information Block
STRT.FT                -5.0000: 
STOP.FT               912.2500: 
STEP.FT                 0.2500: 
NULL.                -999.2500: 
COMP.          Pioneer Natural Resources: COMPANY
WELL.               Ernie 31-6: WELL
FLD.           Purgatoire River: FIELD
LOC.           681' FNL & 2138' FEL: LOCATION
CNTY.               Las Animas: COUNTY
SRVC.                         : SERVICE COMPANY
DATE.          Tue Jun 27 10:36:58 2006: LOG DATE
UWI.           05 071 08716 00: UNIQUE WELL ID
STAT.                       CO: STATE
~Curve Information Block
DEPT.FT            0 000 00 00: Depth
GR.GAPI                       : Gamma Ray
CCL.                          : Casing Collar Locator
TT3.usec                      : CBL 3' Travel Time
AMP3.mV                       : CBL 3' Amplitude
~Parameter Information Block
~A  Depth        GR         CCL         TT3         AMP3    
# ...
   531.0000    126.6930      0.0000    773.9743      5.1508
   531.2500    121.0539      0.0000    780.7019      5.1693
   531.5000    111.2508      0.0000    783.6534      5.2089
   531.7500    101.3617      0.0000    784.5919      5.2473
   532.0000     95.3935      0.0000    784.9322      5.2706
   532.2500     94.7610      0.0000    784.9850      5.2814
   532.5000     98.4284      0.0000    784.4915      5.2846
   532.7500    104.7031      0.0000    783.3243      5.2734
   533.0000    112.2239      0.0000    781.3898      5.2415
   533.2500    119.5545      0.0000    779.0295      5.2075
   533.5000    124.9518      0.0000    778.3936      5.2168
   533.7500    127.4239      0.0000    782.9844      5.3030
   534.0000    127.7314      0.0000    793.7421      5.4397
   534.2500    127.4699      0.0000    805.1898      5.5495
   534.5000    127.0030      0.0000    807.2819      5.5786
   534.7500    124.8779      0.0000    793.8239      5.5538
   535.0000    119.5387      0.0000    770.5425      5.5502
   535.2500    111.3838      0.0000    752.3506      5.6211
   535.5000    102.9036      0.0000    750.5357      5.7680
   535.7500     96.8113      1.5793    764.7452      5.9580
   536.0000     94.2612      2.0000    787.5125      6.1602
   536.2500     94.8503      0.0000    811.0413      6.3732
   536.5000     97.6591      0.0000    828.7958      6.6185
   536.7500    101.7795      0.0000    836.9525      6.8929
   537.0000    106.1736      0.0000    836.7750      7.1376
   537.2500    109.5987      0.0000    832.6305      7.2818
   537.5000    110.9960      0.0000    827.2054      7.3095
   537.7500    110.1729      0.0000    819.6845      7.2617
   538.0000    108.2163      0.0000    806.5687      7.1859
   538.2500    107.1073      0.0000    782.6058      7.1058
   538.5000    108.6369      0.0000    743.4320      7.0278
   538.7500    113.1082      0.0000    690.9038      6.9578
   539.0000    118.5968      0.0000    636.4968      6.9062
   539.2500    121.6783      0.0000    597.3853      6.8821
   539.5000    119.7556      0.0000    587.4940      6.8867
   539.7500    113.2747      0.0000    610.7803      6.9137
   540.0000    105.4353      0.0000    660.8034      6.9554
   540.2500     99.4603      0.0000    725.1240      7.0030
   540.5000     96.3977      0.0000    791.0773      7.0445
   540.7500     95.4269      0.0000    849.3944      7.0706
   541.0000     95.3526      0.0000    895.1580      7.0849
   541.2500     95.2618      0.0000    928.1044      7.1042
   541.5000     94.3327      0.0000    951.4258      7.1429
   541.7500     92.0468      0.0000    966.9727      7.1964
   542.0000     89.0158      0.0000    971.3919      7.2436
   542.2500     87.4026      0.0000    959.7830      7.2692
   542.5000     90.1479      0.0000    933.0705      7.2763
   542.7500     99.0103      0.0000    899.3310      7.2742
   543.0000    112.5449      0.0000    867.9646      7.2599
   543.2500    126.0963      0.0000    844.4105      7.2179
   543.5000    134.6821      0.0000    830.6965      7.1408
   543.7500    136.3074      0.0000    829.4142      7.0520
   544.0000    132.5461      0.0000    845.2501      6.9998
   544.2500    126.5715      0.0000    881.5419      7.0227
   544.5000    121.1941      0.0000    934.8334      7.1151
   544.7500    118.0991      0.0000    993.1388      7.2306
   545.0000    117.5949      0.0000   1040.9701      7.3183
   545.2500    118.3925      0.0000   1068.0647      7.3517
   545.5000    118.2233      0.0000   1074.1987      7.3318
   545.7500    115.6995      0.0000   1065.6559      7.2786
   546.0000    111.7036      0.0000   1048.2440      7.2218
   546.2500    108.3917      0.0000   1025.0735      7.1890
   546.5000    106.8226      0.0000   1000.0661      7.1922
   546.7500    106.1026      0.0000    980.8162      7.2244
   547.0000    104.9325      0.0000    976.0640      7.2669
   547.2500    103.4984      0.0000    989.6449      7.3001
   547.5000    103.5591      0.0000   1016.1525      7.3129
   547.7500    106.7519      0.0000   1043.1284      7.3046
   548.0000    112.9449      0.0000   1060.2112      7.2788
   548.2500    120.1260      0.0000   1067.0852      7.2374
   548.5000    125.6502      0.0000   1070.5015      7.1825
   548.7500    127.7927      0.0000   1073.2480      7.1221
   549.0000    126.7864      0.0000   1067.8138      7.0675
   549.2500    124.6239      0.0000   1041.8428      7.0219
   549.5000    123.4547      0.0000    990.8259      6.9738
   549.7500    123.7565      0.0000    926.4103      6.9094
   550.0000    124.1461      0.0000    870.1921      6.8345
   550.2500    123.1152      0.0000    837.5189      6.7770
   550.5000    120.6457      0.0000    828.2619      6.7619
   550.7500    117.7914      0.0000    832.3080      6.7833
   551.0000    115.0843      0.0000    840.0596      6.8087
   551.2500    112.1290      0.0000    846.8419      6.8129
   551.5000    108.8396      0.0000    850.9902      6.8036
   551.7500    106.3635      0.0000    851.3580      6.8072
   552.0000    106.3989      0.0000    847.3806      6.8364
   552.2500    109.7722      0.0000    840.4542      6.8754
   552.5000    115.7381      0.0000    834.3556      6.9019
   552.7500    122.4608      0.0000    833.0149      6.9149
   553.0000    128.1165      0.0000    835.8569      6.9334
   553.2500    131.6538      0.0000    835.3945      6.9724
   553.5000    132.7595      0.0000    823.3655      7.0308
   553.7500    131.4514      0.0000    801.0037      7.1039
   554.0000    127.9690      0.0000    778.8219      7.1944
   554.2500    122.9840      0.0000    764.1942      7.3041
   554.5000    117.6292      0.0000    754.2090      7.4202
   554.7500    113.1804      0.0000    742.9036      7.5176
   555.0000    110.7758      0.0000    730.4142      7.5725
   555.2500    111.1479      0.0000    722.0350      7.5700
   555.5000    113.9133      0.0000    721.0024      7.5007
   555.7500    117.1359      0.0000    724.7636      7.3611
   556.0000    118.4329      0.0000    728.4924      7.1616
   556.2500    116.8133      0.0000    731.0352      6.9298
   556.5000    113.0458      0.0000    735.8503      6.7017
   556.7500    108.2813      0.0000    746.0074      6.5079
   557.0000    102.9381      0.0000    760.1132      6.3665
   557.2500     96.9510      0.0000    773.7506      6.2871
   557.5000     90.4579      0.0000    783.5287      6.2757
   557.7500     84.1153      0.0000    788.9514      6.3359
   558.0000     79.0885      0.0000    791.2691      6.4679
   558.2500     76.6647      0.0000    791.6305      6.6664
   558.5000     77.5318      0.0000    790.0872      6.9224
   558.7500     81.2584      0.0000    785.5026      7.2365
   559.0000     86.4673      0.0000    775.9183      7.6266
   559.2500     91.7408      0.0000    759.1495      8.1102
   559.5000     96.6020      0.0000    733.5703      8.6734
   559.7500    101.5057      0.0000    699.4770      9.2621
   560.0000    106.9362      0.0000    661.1328      9.8040
   560.2500    112.9636      0.0000    627.6577     10.2408
   560.5000    119.5161      0.0000    610.1137     10.5549
   560.7500    126.2268      0.0000    615.0213     10.7755
   561.0000    131.8672      0.0000    638.9968     10.9594
   561.2500    134.7244      0.0000    670.1544     11.1632
   561.5000    133.8721      0.0000    696.3828     11.4277
   561.7500    129.7238      0.0000    713.2267     11.7735
   562.0000    123.4430      0.0000    724.2664     12.1984
   562.2500    116.2316      0.0000    734.9908     12.6869
   562.5000    108.9734      0.0000    746.9990     13.2344
   562.7500    102.0431      0.0000    757.1078     13.8478
   563.0000     95.4486      0.0000    760.1595     14.5143
   563.2500     89.4136      0.0000    751.9628     15.1949
   563.5000     84.7449      0.0000    731.4493     15.8712
   563.7500     82.2852      0.0000    702.9572     16.5812
   564.0000     82.0245      0.0000    676.3585     17.3870
   564.2500     83.1657      0.0000    661.1030     18.3120
