~Version Information
VERS.                      2.0: CWLS Log ASCII Standard - VERSION 2.0
WRAP.                       NO: One line per depth step
~Well Information Block
STRT.FT               530.7500: 
STOP.FT              1325.2500: 
STEP.FT                 0.2500: 
NULL.                -999.2500: 
COMP.          Pioneer Natural Resources: COMPANY
WELL.            Erin 21-15 Tr: WELL
FLD.           Purgatoire River: FIELD
LOC.           1217' FNL & 2284' FWL--: LOCATION
CNTY.               Las Animas: COUNTY
SRVC.                Patterson: SERVICE COMPANY
DATE.          Fri Mar 03 23:07:06 2006: LOG DATE
UWI.           05 071 08712 00: UNIQUE WELL ID
STAT.                 Colorado: STATE
~Curve Information Block
DEPT.FT            0 000 00 00: Depth
SN.Ohm-m                      : IEL Short Normal
SP.mV                         : IEL Spontaneous Potential
DIR.Ohm-m                     : IEL Induction Resistivity
GR.GAPI                       : Gamma Ray
~Parameter Information Block
~A  Depth        SN          SP         DIR          GR     
# ...
   966.2500     16.0294    102.9080     16.4075    121.2357
   966.5000     16.1302    102.2473     16.4487    123.3406
   966.7500     16.2311    101.5412     16.5366    125.0302
   967.0000     16.3234    100.8033     16.6708    127.5304
   967.2500     16.4226    100.0336     16.8498    128.7129
   967.5000     16.5522     99.2232     17.0715    129.1133
   967.7500     16.7252     98.3639     17.3346    128.6611
   968.0000     16.9351     97.4571     17.6391    128.0508
   968.2500     17.1627     96.5178     17.9855    128.1884
   968.5000     17.3899     95.5719     18.3702    129.1531
   968.7500     17.6140     94.6498     18.7811    129.9883
   969.0000     17.8525     93.7787     19.1965    130.9696
   969.2500     18.1347     92.9782     19.5930    131.0368
   969.5000     18.4835     92.2593     19.9558    129.5404
   969.7500     18.8995     91.6262     20.2837    127.4442
   970.0000     19.3601     91.0798     20.5835    123.6137
   970.2500     19.8294     90.6193     20.8588    121.3799
   970.5000     20.2721     90.2422     21.1045    119.2549
   970.7500     20.6637     89.9430     21.3127    118.6810
   971.0000     20.9968     89.7126     21.4847    118.8476
   971.2500     21.2867     89.5380     21.6392    119.3664
   971.5000     21.5712     89.4042     21.8086    119.9247
   971.7500     21.8977     89.2968     22.0255    119.7593
   972.0000     22.3015     89.2051     22.3106    118.8775
   972.2500     22.7898     89.1235     22.6687    118.2249
   972.5000     23.3438     89.0525     23.0930    117.0645
   972.7500     23.9379     88.9978     23.5710    115.6934
   973.0000     24.5569     88.9680     24.0906    112.3428
   973.2500     25.1988     88.9718     24.6427    109.6186
   973.5000     25.8655     89.0151     25.2220    105.8453
   973.7500     26.5516     89.0991     25.8273    103.8961
   974.0000     27.2374     89.2188     26.4600    101.8080
   974.2500     27.8907     89.3625     27.1211    100.8324
   974.5000     28.4849     89.5129     27.8040    100.0400
   974.7500     29.0271     89.6490     28.4905    100.1731
   975.0000     29.5763     89.7493     29.1602    101.4713
   975.2500     30.2273     89.7947     29.8129    102.6513
   975.5000     31.0602     89.7729     30.4826    103.4669
   975.7500     32.0886     89.6798     31.2229    102.5673
   976.0000     33.2507     89.5214     32.0716     98.7017
   976.2500     34.4473     89.3124     33.0246     95.0175
   976.5000     35.5927     89.0738     34.0400     89.3733
   976.7500     36.6425     88.8299     35.0647     86.2101
   977.0000     37.6018     88.6037     36.0568     82.9361
   977.2500     38.5118     88.4143     36.9857     81.9354
   977.5000     39.4121     88.2744     37.8190     82.4088
   977.7500     40.2914     88.1897     38.5227     83.9158
   978.0000     41.0753     88.1595     39.0823     87.0011
   978.2500     41.6779     88.1785     39.5177     88.6074
   978.5000     42.0740     88.2389     39.8708     88.5266
   978.7500     42.3206     88.3339     40.1678     86.3635
   979.0000     42.5115     88.4596     40.3907     81.0279
   979.2500     42.7115     88.6165     40.4785     77.4894
   979.5000     42.9161     88.8101     40.3594     74.4583
   979.7500     43.0485     89.0495     39.9914     74.4758
   980.0000     42.9886     89.3441     39.3857     76.8693
   980.2500     42.6329     89.7005     38.5998     79.1026
   980.5000     41.9638     90.1183     37.7095     81.8903
   980.7500     41.0791     90.5872     36.7881     82.9931
   981.0000     40.1513     91.0867     35.9028     83.9957
   981.2500     39.3398     91.5874     35.1199     84.8070
   981.5000     38.7237     92.0550     34.5021     86.5698
   981.7500     38.2962     92.4562     34.0973     87.6511
   982.0000     38.0069     92.7637     33.9241     87.9318
   982.2500     37.8139     92.9608     33.9648     86.7990
   982.5000     37.7250     93.0439     34.1722     83.2245
   982.7500     37.8233     93.0224     34.4975     80.0647
   983.0000     38.2548     92.9176     34.9256     75.2609
   983.2500     39.1582     92.7586     35.4905     72.5046
   983.5000     40.5592     92.5788     36.2466     69.2331
   983.7500     42.3109     92.4102     37.2104     67.4377
   984.0000     44.1424     92.2791     38.3176     64.9122
   984.2500     45.7889     92.2007     39.4356     63.2589
   984.5000     47.1066     92.1763     40.4313     60.9618
   984.7500     48.0976     92.1924     41.2430     59.6228
   985.0000     48.8618     92.2231     41.8949     57.8238
   985.2500     49.5265     92.2362     42.4538     56.7138
   985.5000     50.1924     92.2009     42.9840     55.3618
   985.7500     50.9025     92.0959     43.5396     54.9203
   986.0000     51.6369     91.9155     44.1812     55.4179
   986.2500     52.3260     91.6711     44.9730     56.6452
   986.5000     52.8757     91.3889     45.9433     59.3825
   986.7500     53.2071     91.1030     47.0406     61.1188
   987.0000     53.2998     90.8481     48.1302     62.3724
   987.2500     53.2129     90.6515     49.0493     62.1304
   987.5000     53.0603     90.5284     49.6914     61.0063
   987.7500     52.9544     90.4810     50.0551     60.5062
   988.0000     52.9546     90.4996     50.2254     60.9932
   988.2500     53.0494     90.5678     50.3068     62.2394
   988.5000     53.1741     90.6670     50.3625     65.0279
   988.7500     53.2380     90.7821     50.3943     66.9067
   989.0000     53.1454     90.9046     50.3571     68.4669
   989.2500     52.8140     91.0354     50.1876     68.1485
   989.5000     52.2041     91.1840     49.8239     65.8682
   989.7500     51.3470     91.3660     49.2268     63.9653
   990.0000     50.3450     91.5993     48.4100     62.1545
   990.2500     49.3335     91.8988     47.4627     62.0433
   990.5000     48.4257     92.2728     46.5249     62.9323
   990.7500     47.6727     92.7195     45.7187     63.6084
   991.0000     47.0541     93.2275     45.0859     64.3583
   991.2500     46.4963     93.7771     44.5793     65.0259
   991.5000     45.9050     94.3448     44.1093     67.0694
   991.7500     45.1987     94.9076     43.5992     69.1030
   992.0000     44.3343     95.4464     43.0049     72.0419
   992.2500     43.3162     95.9487     42.2945     73.1733
   992.5000     42.1881     96.4089     41.4306     73.3599
   992.7500     41.0190     96.8266     40.3924     73.0670
   993.0000     39.8856     97.2051     39.2235     73.5340
   993.2500     38.8541     97.5497     38.0436     75.0668
   993.5000     37.9674     97.8653     37.0028     79.1238
   993.7500     37.2410     98.1566     36.2097     82.3247
   994.0000     36.6697     98.4262     35.6903     86.3483
   994.2500     36.2358     98.6742     35.3940     87.8907
   994.5000     35.9189     98.8970     35.2333     88.4243
   994.7500     35.7080     99.0871     35.1310     88.0359
   995.0000     35.6079     99.2347     35.0523     87.1572
   995.2500     35.6305     99.3302     35.0075     86.4921
   995.5000     35.7723     99.3681     35.0301     84.9007
   995.7500     36.0012     99.3505     35.1494     83.0893
   996.0000     36.2663     99.2884     35.3727     79.1158
   996.2500     36.5199     99.2017     35.6796     75.9525
   996.5000     36.7327     99.1144     36.0261     71.4389
   996.7500     36.8998     99.0507     36.3601     69.1279
   997.0000     37.0386     99.0297     36.6424     67.0596
   997.2500     37.1774     99.0627     36.8581     66.4707
   997.5000     37.3303     99.1525     37.0058     66.3411
   997.7500     37.4759     99.2937     37.0727     66.5643
   998.0000     37.5595     99.4755     37.0268     67.0802
   998.2500     37.5247     99.6828     36.8411     67.3584
   998.5000     37.3522     99.8976     36.5259     67.4996
   998.7500     37.0727    100.1002     36.1343     67.5642
   999.0000     36.7475    100.2701     35.7310     68.3670
   999.2500     36.4329    100.3893     35.3569     69.8611
   999.5000     36.1492    100.4455     35.0171     73.7474
