~Version Information
VERS.                      2.0: CWLS Log ASCII Standard - VERSION 2.0
WRAP.                       NO: One line per depth step
~Well Information Block
STRT.FT                 0.0000: 
STOP.FT              1877.2500: 
STEP.FT                 0.2500: 
NULL.                -999.2500: 
COMP.          Pioneer Natural Resources: COMPANY
WELL.            Corazon 13-10: WELL
FLD.           Purgatoire River: FIELD
LOC.           2510' FSL & 439' FWL--------: LOCATION
PROV.                 Colorado: PROVINCE
CNTY.               Las Animas: COUNTRY
SRVC.                         : SERVICE COMPANY
DATE.          Mon Dec 19 14:34:49 2005: LOG DATE
UWI.                          : UNIQUE WELL ID
~Curve Information Block
DEPT.FT            0 000 00 00: Depth
CCL.                          : Casing Collar Locator
TT3.usec                      : CBL 3' Travel Time
AMP3.mV                       : CBL 3' Amplitude
AMP5.mV                       : CBL 5' Amplitude
GR.GAPI                       : Gamma Ray
~Parameter Information Block
~A  Depth       CCL         TT3         AMP3        AMP5         GR     
# ...
   252.0000      0.0000    778.0743     20.7018      4.8461    100.1004
   252.2500      0.0000    777.5518     20.7728      4.9586     99.4704
   252.5000      0.0000    777.4766     20.8224      5.0883     98.7923
   252.7500      0.0000    777.6459     20.8833      5.2369     98.6039
   253.0000      0.0000    777.8809     20.9872      5.3937     99.0014
   253.2500      0.0000    777.9434     21.1424      5.5318     99.1532
   253.5000      0.0000    777.6974     21.3209      5.6405     97.5758
   253.7500      0.0000    777.2059     21.4806      5.7310     93.3192
   254.0000      0.0000    776.6610     21.6031      5.8019     86.9842
   254.2500      0.0000    776.2152     21.6997      5.8246     80.3733
   254.5000      0.0000    775.8489     21.7791      5.7723     75.2992
   254.7500      0.0000    775.3467     21.8306      5.6583     72.9576
   255.0000      0.0000    774.3485     21.8386      5.5363     73.9049
   255.2500      0.0000    772.5232     21.7973      5.4600     77.8615
   255.5000      0.0000    769.9653     21.7096      5.4437     83.4908
   255.7500      0.0000    767.5565     21.5886      5.4592     88.9228
   256.0000      0.0000    766.6063     21.4585      5.4448     92.9537
   256.2500      0.0000    767.7415     21.3465      5.3020     95.7458
   256.5000      0.0000    770.2719     21.2617      4.9173     98.1660
   256.7500      0.0000    772.9630     21.1608      4.2372    100.5728
   257.0000      0.0000    775.3757     20.9091      3.3458    102.5546
   257.2500      0.0000    778.4440     20.2699      2.4488    103.6091
   257.5000      0.0000    783.9839     18.9834      1.7535    103.5417
   257.7500      0.0000    793.4437     16.9535      1.3502    102.2595
   258.0000      0.0000    806.5507     14.4122      1.1953     99.7109
   258.2500      0.0000    821.4686     11.8572      1.1750     96.2013
   258.5000      0.0000    836.8600      9.7742      1.1817     92.4943
   258.7500      0.0000    853.0308      8.4006      1.1654     89.3780
   259.0000      0.0000    869.9046      7.7012      1.1426     87.2050
   259.2500      0.0000    884.6639      7.4791      1.1641     86.0781
   259.5000      0.0000    892.8364      7.5055      1.2587     86.4626
   259.7500      0.0000    891.3453      7.6282      1.3947     89.1117
   260.0000     -2.0000    879.4407      7.8339      1.4975     93.9776
   260.2500      0.0000    856.1163      8.2584      1.5095     99.3752
   260.5000      0.0000    817.7350      9.1503      1.4390    102.8455
   260.7500      0.0000    762.7704     10.7605      1.3572    103.1924
   261.0000      0.0000    702.1287     13.1391      1.3504    101.4373
   261.2500      0.0000    659.6422     15.9783      1.4737     99.5430
   261.5000      0.0000    654.3023     18.7079      1.7543     98.5685
   261.7500      0.0000    682.3156     20.8129      2.2248     98.3891
   262.0000      0.0000    721.5421     22.0920      2.9069     98.6473
   262.2500      0.0000    751.9767     22.6691      3.7435     99.2052
   262.5000      0.0000    767.8672     22.8163      4.5840     99.8556
   262.7500      0.0000    773.6132     22.7699      5.2740    100.1764
   263.0000      0.0000    774.9617     22.6581      5.7481     99.6884
   263.2500      0.0000    775.0859     22.5309      6.0241     98.0092
   263.5000      0.0000    775.0511     22.4125      6.1426     95.1730
   263.7500      0.0000    775.0689     22.3273      6.1467     91.9323
   264.0000      0.0000    775.1370     22.2934      6.0968     89.4088
   264.2500      0.0000    775.2087     22.3048      6.0549     88.2229
   264.5000      0.0000    775.2542     22.3240      6.0346     88.0571
   264.7500      0.0000    775.4255     22.3023      5.9882     88.0665
   265.0000      0.0000    776.2405     22.2104      5.8607     87.5995
   265.2500      0.0000    778.6796     22.0549      5.6510     86.5406
   265.5000      0.0000    783.7664     21.8664      5.4161     85.1130
   265.7500      0.0000    791.3118     21.6712      5.2212     83.5796
   266.0000      0.0000    798.8254     21.4785      5.0889     82.1971
   266.2500      0.0000    802.7537     21.3007      4.9937     81.2697
   266.5000      0.0000    802.0078     21.1734      4.9003     81.0624
   266.7500      0.0000    799.7909     21.1349      4.8062     81.6946
   267.0000      0.0000    800.6042     21.1813      4.7423     83.2089
   267.2500      0.0000    805.3485     21.2573      4.7348     85.6273
   267.5000      0.0000    810.2349     21.2984      4.7727     88.8642
   267.7500      0.0000    810.9424     21.2787      4.8201     92.6880
   268.0000      0.0000    807.2068     21.2184      4.8537     96.8055
   268.2500      0.0000    802.4094     21.1560      4.8828    100.7049
   268.5000      0.0000    799.0810     21.1190      4.9323    103.3211
   268.7500      0.0000    796.3947     21.1109      5.0080    103.2793
   269.0000      0.0000    792.3031     21.1135      5.0801     99.8888
   269.2500      0.0000    786.5016     21.1049      5.1044     93.9950
   269.5000      0.0000    780.3243     21.0821      5.0673     87.7500
   269.7500      0.0000    774.8591     21.0595      5.0017     83.2781
   270.0000      0.0000    770.3457     21.0445      4.9521     81.2150
   270.2500      0.0000    767.0432     21.0241      4.9311     80.4183
   270.5000      0.0000    765.6324     20.9794      4.9234     79.0273
   270.7500      0.0000    766.4160     20.9113      4.9244     75.8946
   271.0000      0.0000    768.6205     20.8491      4.9485     71.3674
   271.2500      0.0000    770.9296     20.8372      4.9961     66.9971
   271.5000      0.0000    772.4967     20.9098      5.0407     64.4336
   271.7500      0.0000    773.2568     21.0699      5.0619     64.3398
   272.0000      0.0000    773.5278     21.2889      5.0732     66.1415
   272.2500      0.0000    773.6191     21.5229      5.0987     68.4663
   272.5000      0.0000    773.7208     21.7313      5.1354     69.6577
   272.7500      0.0000    773.9193     21.8892      5.1616     68.3630
   273.0000      0.0000    774.2162     21.9901      5.1724     64.3540
   273.2500      0.0000    774.5715     22.0383      5.1805     58.9407
   273.5000      0.0000    774.9381     22.0421      5.1865     54.3563
   273.7500      0.0000    775.2617     22.0161      5.1786     52.4625
   274.0000      0.0000    775.4649     21.9872      5.1609     53.6924
   274.2500      0.0000    775.4816     21.9853      5.1538     56.9411
   274.5000      0.0000    775.3269     22.0252      5.1656     60.5393
   274.7500      0.0000    775.1123     22.0978      5.1895     63.5156
   275.0000      0.0000    774.9592     22.1792      5.2304     65.9226
   275.2500      0.0000    774.8840     22.2490      5.3083     68.0280
   275.5000      0.0000    774.7799     22.3046      5.4250     69.5362
   275.7500      0.0000    774.5203     22.3629      5.5406     69.8350
   276.0000      0.0000    774.0759     22.4466      5.6060     68.7798
   276.2500      0.0000    773.5308     22.5671      5.6132     66.9533
   276.5000      0.0000    773.0001     22.7180      5.6003     65.3059
   276.7500      0.0000    772.5411     22.8839      5.6136     64.7636
   277.0000      0.0000    772.1284     23.0533      5.6755     65.8661
   277.2500      0.0000    771.6569     23.2233      5.7744     68.4231
   277.5000      0.0000    770.8912     23.3915      5.8663     71.6020
   277.7500      0.0000    769.3482     23.5509      5.9041     74.3744
   278.0000      0.0000    766.2728     23.6979      5.8849     75.8328
   278.2500      0.0000    761.0283     23.8388      5.8565     75.5129
   278.5000      0.0000    753.9202     23.9793      5.8678     73.9236
   278.7500      0.0000    746.7178     24.1097      5.9276     72.4689
   279.0000      0.0000    741.9843     24.2093      6.0132     72.2593
   279.2500      0.0000    741.4208     24.2633      6.1020     73.0974
   279.5000      0.0000    744.6507     24.2721      6.1867     74.0279
   279.7500      0.0000    749.6522     24.2473      6.2710     74.6802
