~Version Information
VERS.                      2.0: CWLS Log ASCII Standard - VERSION 2.0
WRAP.                       NO: One line per depth step
~Well Information Block
STRT.FT                65.0000: 
STOP.FT               998.0000: 
STEP.FT                 0.2500: 
NULL.                -999.2500: 
COMP.          Pioneer Natural Resources: COMPANY
WELL.              Gough 14-29: WELL
FLD.           Purgatorie River: FIELD
LOC.           1199' FSL & 676' FWL: LOCATION
PROV.                 Colorado: PROVINCE
CNTY.               Las Animas: COUNTRY
SRVC.                Patterson: SERVICE COMPANY
DATE.          Wed Dec 28 08:38:26 2005: LOG DATE
UWI.                          : UNIQUE WELL ID
~Curve Information Block
DEPT.FT            0 000 00 00: Depth
CCL.                          : Casing Collar Locator
TT3.usec                      : CBL 3' Travel Time
AMP3.mV                       : CBL 3' Amplitude
GR.GAPI                       : Gamma Ray
~Parameter Information Block
~A  Depth       CCL         TT3         AMP3         GR     
# ...
   735.0000      0.0000    790.4662     10.7852     76.6534
   735.2500      0.0000    791.7344     10.7137     75.6525
   735.5000      0.0000    791.0496     10.6704     74.2356
   735.7500      0.0000    788.4203     10.6829     71.5316
   736.0000      0.0000    783.7999     10.7511     67.9297
   736.2500      0.0000    779.4955     10.8422     65.0298
   736.5000      0.0000    778.7115     10.9129     64.0598
   736.7500      0.0000    780.9711     10.9274     64.7546
   737.0000      0.0000    783.0327     10.8943     65.8707
   737.2500      0.0000    784.2773     10.8786     66.5037
   737.5000      0.0000    786.1412     10.9314     66.8167
   737.7500      0.0000    787.8265     11.0243     67.6040
   738.0000      0.0000    786.8596     11.0854     69.2481
   738.2500      0.0000    782.2628     11.0795     71.1611
   738.5000      0.0000    775.7402     11.0361     72.1348
   738.7500      0.0000    769.8489     11.0018     71.1039
   739.0000      0.0000    764.4664     10.9717     67.7624
   739.2500      0.0000    756.6331     10.9042     62.7727
   739.5000      0.0000    746.6823     10.7977     57.4709
   739.7500      0.0000    742.4117     10.7037     53.2247
   740.0000      0.0000    750.2091     10.6747     50.7793
   740.2500      0.0000    765.4158     10.7229     49.8971
   740.5000      0.0000    778.8632     10.8182     49.5459
   740.7500      0.0000    786.5240     10.9310     48.5916
   741.0000      0.0000    789.2406     11.0430     46.5200
   741.2500      0.0000    788.0015     11.1171     43.6839
   741.5000      0.0000    780.6763     11.1315     40.9997
   741.7500      0.0000    763.5477     11.1102     39.3835
   742.0000      0.0000    738.8169     11.0717     39.2905
   742.2500      0.0000    718.5740     11.0141     40.6259
   742.5000      0.0000    713.3110     10.9571     42.9317
   742.7500      0.0000    719.6089     10.9290     45.5937
   743.0000      0.0000    729.2369     10.9348     48.0433
   743.2500      0.0000    739.4675     10.9838     49.9907
   743.5000      0.0000    746.4130     11.0825     51.3680
   743.7500      0.0000    744.1528     11.1836     51.9324
   744.0000      0.0000    732.9619     11.2161     51.2275
   744.2500      0.0000    722.5687     11.1699     49.3001
   744.5000      0.0000    724.0635     11.1126     47.1980
   744.7500      0.0000    732.1959     11.1007     46.3140
   745.0000      0.0000    729.0435     11.1009     47.3440
   745.2500      0.0000    712.1438     11.0522     50.0654
   745.5000      0.0000    699.5651     10.9662     53.8338
   745.7500      0.0000    705.5755     10.9031     58.0436
   746.0000      0.0000    727.0517     10.9057     62.2819
   746.2500      0.0000    752.2284     11.0000     66.1980
   746.5000      0.0000    772.3223     11.1867     69.2789
   746.7500      0.0000    784.2742     11.4093     70.9399
   747.0000      0.0000    788.5022     11.6013     71.0205
   747.2500      0.0000    785.6517     11.7438     70.1741
   747.5000      0.0000    774.8959     11.8362     69.5608
   747.7500      0.0000    756.8774     11.8848     69.9789
   748.0000      0.0000    736.5566     11.8950     71.2682
   748.2500      0.0000    719.5917     11.8515     72.5900
   748.5000      0.0000    708.3937     11.7809     73.3663
   748.7500      0.0000    703.8873     11.7809     73.9892
   749.0000      0.0000    705.6346     11.9075     75.3516
   749.2500      0.0000    709.9054     12.0968     77.4885
   749.5000      0.0000    712.9707     12.2459     79.1431
   749.7500      0.0000    714.6322     12.2979     79.1501
   750.0000      0.0000    717.1471     12.2367     77.9625
   750.2500      0.0000    722.8613     12.0880     77.2509
   750.5000      0.0000    730.6386     11.9147     78.1226
   750.7500      0.0000    733.9071     11.7646     80.1771
   751.0000      0.0000    728.6581     11.6529     82.2087
   751.2500      0.0000    722.6083     11.5925     83.4589
   751.5000      0.0000    727.7268     11.6020     84.0884
   751.7500      0.0000    744.4316     11.6790     84.5366
   752.0000      0.0000    760.8166     11.7993     84.6117
   752.2500      0.0000    768.0602     11.9303     83.4735
   752.5000      0.0000    768.1606     12.0380     80.5386
   752.7500      0.0000    766.4033     12.1182     76.1957
   753.0000      0.0000    764.9591     12.2060     71.5866
   753.2500      0.0000    763.8663     12.3251     67.8804
   753.5000      0.0000    763.0240     12.4561     65.8736
   753.7500      0.0000    762.4851     12.5771     66.1157
   754.0000      0.0000    762.1814     12.6940     68.9902
   754.2500      0.0000    761.7294     12.8064     74.1995
   754.5000      0.0000    760.2669     12.8996     80.1765
   754.7500      0.0000    756.7972     12.9579     84.5682
   755.0000      0.0000    752.0898     12.9517     85.8449
   755.2500      0.0000    749.8767     12.8600     84.3690
   755.5000      0.0000    752.8625     12.6992     81.6735
   755.7500      0.0000    758.2687     12.5060     79.0449
   756.0000      0.0000    759.8304     12.3191     77.0746
   756.2500      0.0000    752.6848     12.1749     76.0455
   756.5000      0.0000    737.7196     12.1012     76.0033
   756.7500      0.0000    720.9982     12.0910     76.3440
   757.0000      0.0000    707.2803     12.0778     75.8533
   757.2500      0.0000    697.2813     11.9522     73.6972
   757.5000      0.0000    688.9478     11.6035     70.2978
   757.7500      0.0000    679.0551     11.0172     66.8701
   758.0000      0.0000    666.3715     10.3665     64.1509
   758.2500      0.0000    654.5131      9.8615     61.9615
   758.5000      0.0000    652.7401      9.4551     59.9269
   758.7500      0.0000    669.5709      8.8733     58.0880
   759.0000      0.0000    702.0000      8.1019     56.7239
   759.2500      0.0000    733.7534      7.5566     55.9928
   759.5000      0.0000    747.2716      7.4585     55.9588
   759.7500      0.0000    739.0933      7.5577     56.7426
   760.0000      0.0000    721.0488      7.6022     58.3981
   760.2500     -2.0000    710.6528      7.5809     60.6218
   760.5000      0.0000    718.2689      7.6041     62.7248
   760.7500      0.0000    732.7888      7.8506     63.9650
   761.0000      0.0000    732.9204      8.5953     63.8166
   761.2500      0.0000    719.5493      9.9087     61.9928
   761.5000      0.0000    714.7846     11.1766     58.6465
   761.7500      0.0000    727.6563     11.6314     54.8048
   762.0000      0.0000    743.2399     11.4116     52.1526
   762.2500      0.0000    740.6621     11.2864     51.9570
   762.5000      0.0000    702.2811     11.6656     54.2412
   762.7500      0.0000    620.8685     12.3466     57.9333
   763.0000      0.0000    518.5012     12.9374     61.3921
   763.2500      0.0000    436.6518     13.2786     62.9440
   763.5000      0.0000    394.8916     13.4615     61.7405
   763.7500      0.0000    381.4978     13.6088     58.5598
   764.0000      0.0000    379.0048     13.7580     55.5401
   764.2500      0.0000    378.8678     13.9109     54.6654
   764.5000      0.0000    378.9167     14.0855     56.2114
   764.7500      0.0000    378.9099     14.2635     58.6263
   765.0000      0.0000    378.8156     14.3545     60.0739
   765.2500      0.0000    378.5708     14.3007     60.1068
   765.5000      0.0000    378.2636     14.1601     59.6927
   765.7500      0.0000    378.1115     14.0099     59.7208
   766.0000      0.0000    378.1565     13.8424     59.8834
   766.2500      0.0000    378.2443     13.6257     59.2899
   766.5000      0.0000    378.3572     13.3942     57.9316
   766.7500      0.0000    378.9031     13.2116     57.0593
   767.0000      0.0000    381.8436     13.0796     57.9836
   767.2500      0.0000    394.4250     12.9464     60.8919
   767.5000      0.0000    431.6196     12.7750     64.9223
   767.7500      0.0000    503.5877     12.5591     68.8355
   768.0000      0.0000    593.5651     12.3077     71.3425
   768.2500      0.0000    666.7619     12.0502     71.4183
