~Version Information
VERS.                      2.0: CWLS Log ASCII Standard - VERSION 2.0
WRAP.                       NO: One line per depth step
~Well Information Block
STRT.FT               310.0000: 
STOP.FT               815.0000: 
STEP.FT                 0.2500: 
NULL.                -999.2500: 
COMP.          Pioneer Natural Resources: COMPANY
WELL.           Weissach 32-32: WELL
FLD.           Purgatorie River: FIELD
LOC.           2193' FNL & 2256' FEL: LOCATION
STAT.                 Colorado: State
CNTY.               Las Animas: COUNTY
CTRY. USA : Country
SECT. 32 : Section
TOWN. 33S : Township
RANG. 65W : Range
SRVC.                Patterson: SERVICE COMPANY
DATE.          Mon Sep 26 09:20:51 2005: LOG DATE
API. 05-071-08523                         : UNIQUE WELL ID
~Curve Information Block
DEPT.FT            0 000 00 00: Depth
SN.Ohm-m                      : IEL Short Normal
SP.mV                         : IEL Spontaneous Potential
DIR.Ohm-m                     : IEL Induction Resistivity
GR.GAPI                       : Gamma Ray
~Parameter Information Block
~A  Depth        SN          SP         DIR          GR     
# ...
   678.5000     28.2290    165.4887     29.1924     51.2854
   678.7500     27.5998    165.5102     30.8327     43.9780
   679.0000     26.9630    165.5566     25.9400     57.9879
   679.2500     26.6029    165.6967     26.3329     56.8004
   679.5000     26.4106    165.6828     25.9731     57.4647
   679.7500     26.3565    165.8756     28.2759     56.5506
   680.0000     26.3908    166.6358     26.5665     71.3357
   680.2500     26.7788    167.1263     24.8906     68.2567
   680.5000     27.5507    167.1722     24.4948     74.2676
   680.7500     27.4578    167.5070     24.0967     67.0829
   681.0000     27.2247    167.8956     24.2864     64.7385
   681.2500     27.1733    167.6525     27.5404     66.3085
   681.5000     27.4745    167.8658     32.0504     62.7124
   681.7500     27.5028    168.2505     25.9995     68.4258
   682.0000     27.9123    169.0391     25.4684     74.9401
   682.2500     28.2594    170.0573     25.9084     68.7834
   682.5000     28.9058    170.6651     26.9244     55.1124
   682.7500     30.3777    171.1602     30.0132     63.9588
   683.0000     31.1795    171.1749     44.8556     71.4114
   683.2500     30.3098    170.0585     23.4873     69.3260
   683.5000     30.1473    169.6750     25.6870     52.2643
   683.7500     29.8170    169.7760     26.6955     56.7512
   684.0000     29.9865    168.8878     27.3030     67.9909
   684.2500     30.5486    168.0888     27.6843     70.1514
   684.5000     30.9612    168.0833     28.6055     60.3911
   684.7500     30.6504    167.5079     26.9180     43.8846
   685.0000     30.9811    167.3896     27.2281     48.7229
   685.2500     30.9496    166.7625     27.3860     55.0180
   685.5000     31.1031    166.5497     27.6786     45.5467
   685.7500     30.6728    166.0710     28.3528     46.9470
   686.0000     30.8575    165.9028     28.8144     47.6045
   686.2500     31.2833    166.1084     28.0287     55.0016
   686.5000     30.7427    166.3615     28.5687     50.7090
   686.7500     30.9213    166.9668     30.0401     62.3493
   687.0000     31.1555    167.9643     38.0266     69.9784
   687.2500     31.1134    168.3371     32.9869     66.7558
   687.5000     31.5742    168.4545     49.1080     74.4567
   687.7500     32.5228    168.5277     29.5361     69.3695
   688.0000     31.6524    168.5557     27.7019     71.1726
   688.2500     31.5669    168.4202     27.5839     67.2068
   688.5000     31.1568    168.3995     30.9654     60.2964
   688.7500     30.5610    168.7690     28.1639     47.4810
   689.0000     30.3252    168.9548     28.5296     53.7338
   689.2500     30.5912    167.8256     32.5850     58.0072
   689.5000     30.6645    167.6057     27.5319     69.8889
   689.7500     29.5495    167.5656     27.4433     64.1269
   690.0000     28.9988    167.6058     28.1159     69.9012
   690.2500     28.5513    167.6191     28.6602     71.2225
   690.5000     28.2417    167.8203     27.0457     70.1042
   690.7500     27.8754    167.9575     25.9779     61.3403
   691.0000     27.5573    168.1961     26.1961     51.7346
   691.2500     27.3291    168.6214     26.0997     50.3825
   691.5000     27.2049    169.2612     25.8804     68.4057
   691.7500     26.9400    169.7310     26.5129     67.6817
   692.0000     26.7523    170.1003     28.6382     67.0665
   692.2500     26.6572    170.3253     27.0195     70.2648
   692.5000     26.3433    170.4585     31.5554     62.8651
   692.7500     26.2429    170.5949     29.9775     75.0577
   693.0000     26.1982    170.2447     24.5178     74.3865
   693.2500     26.3600    169.9894     24.2782     67.6359
   693.5000     26.1365    169.3970     24.5074     62.8137
   693.7500     26.7121    169.0437     24.5158     70.4485
   694.0000     25.9483    168.9400     24.3970     57.9272
   694.2500     25.7639    168.9851     24.8280     58.9759
   694.5000     25.5927    168.3639     27.6630     69.5614
   694.7500     25.3470    168.3180     44.8150     75.5649
   695.0000     25.2411    168.3914     26.9824     68.9940
   695.2500     25.1897    167.7423     27.4475     55.6158
   695.5000     25.3267    167.7854     27.8662     65.0482
   695.7500     25.0570    168.2496     23.8830     62.4138
   696.0000     24.9698    168.4259     23.5529     58.7109
   696.2500     25.2536    168.1368     24.8951     63.2033
   696.5000     26.2274    168.2842     28.7268     61.9599
   696.7500     24.7567    168.3725     23.9552     67.6048
   697.0000     24.5228    168.2453     23.3084     71.8499
   697.2500     24.3942    167.8939     23.8983     74.3541
   697.5000     24.1857    167.6282     24.5518     76.4562
   697.7500     24.2020    167.5827     24.5407     74.8156
   698.0000     24.1719    167.1984     24.4694     62.0490
   698.2500     24.2364    167.6440     27.0939     58.7934
   698.5000     24.0475    167.5905     23.6262     54.2586
   698.7500     24.1287    167.2463     23.1767     54.7222
   699.0000     24.0531    167.3119     23.7896     61.7032
   699.2500     23.7234    167.5195     23.5640     54.6213
   699.5000     23.5199    167.5900     23.7530     61.4970
   699.7500     23.4175    167.7458     23.2442     70.2873
   700.0000     23.4184    168.1097     22.7579     77.1419
   700.2500     23.3825    168.8269     23.4592     77.5579
   700.5000     23.3673    169.6778     23.7177     72.2420
   700.7500     23.6283    170.4682     22.6961     75.0698
   701.0000     24.2668    171.9250     23.8061     92.5407
   701.2500     23.5977    172.7052     26.4989     68.9168
   701.5000     23.6818    172.8854     23.7128     67.5365
   701.7500     23.8586    173.2228     24.7650     81.2342
   702.0000     23.7601    173.4508     33.7954     81.9018
   702.2500     23.6045    173.5548     24.3587     73.4476
   702.5000     23.6897    172.8709     24.5990     76.7688
   702.7500     23.9276    172.4882     32.4872     77.3750
   703.0000     23.5462    172.1868     23.7335     54.3652
   703.2500     23.4871    171.9401     25.3304     61.6120
   703.5000     23.4542    171.7209     37.5125     74.3547
   703.7500     23.3070    171.4855     23.3089     59.2750
   704.0000     23.0917    171.4169     22.4187     60.0511
   704.2500     23.0970    170.6633     23.3308     69.3765
   704.5000     23.1668    170.1497     24.8471     69.6553
   704.7500     22.8198    169.7572     22.4981     76.3372
   705.0000     22.7952    169.5253     22.2695     82.6203
   705.2500     22.6149    169.4473     22.6400     94.5915
   705.5000     22.5981    169.3919     22.8135     92.8002
   705.7500     22.7761    169.3177     22.6636     87.4103
   706.0000     22.7835    169.3727     23.1427     70.6001
   706.2500     22.9330    169.4342     27.7461     60.0261
   706.5000     23.2155    169.4408     28.0354     77.2224
   706.7500     23.2489    169.7421     23.5572     86.0603
   707.0000     23.3751    170.3895     26.7542     81.8991
   707.2500     23.6970    169.4211     23.2012     80.7933
   707.5000     24.4186    169.4636     23.1869     83.4574
   707.7500     23.8587    169.6376     23.1925     69.6737
   708.0000     24.1332    169.3249     23.6155     62.6090
   708.2500     24.7524    169.5111     24.6095     81.5434
   708.5000     24.5639    169.8449     30.2657     88.3510
   708.7500     24.7938    169.2872     27.4097     96.1618
   709.0000     25.1803    169.3170     27.3967     98.1639
   709.2500     25.0669    169.4279     24.1382     95.4402
   709.5000     25.5557    169.2308     24.5383     75.2262
   709.7500     26.5257    169.6650     25.0797     70.8123
   710.0000     26.2536    170.3822     22.0242     57.4568
   710.2500     26.3445    171.1753     24.0982     67.7915
   710.5000     26.6674    171.2949     25.6978     79.3033
   710.7500     27.3637    171.6929     27.9890     67.7953
   711.0000     27.5457    171.9283     31.2986     83.3329
   711.2500     27.6541    171.8036     29.8858     81.4070
   711.5000     27.8840    171.5735     43.5741     65.0935
   711.7500     27.9646    171.5078     27.6639     75.0849
