~Version Information
VERS.                      2.0: CWLS Log ASCII Standard - VERSION 2.0
WRAP.                       NO: One line per depth step
~Well Information Block
STRT.FT               460.0000: 
STOP.FT              3058.5000: 
STEP.FT                 0.1000: 
NULL.                -999.2500: 
COMP.          Pioneer Natural Resources: COMPANY
WELL.            Cleaver 24-12: WELL
FLD.           Purgatoire River: FIELD
LOC.           204' FSL & 2351' FWL: LOCATION
PROV.                 Colorado: PROVINCE
CNTY.               Las Animas: COUNTRY
SRVC.                Patterson: SERVICE COMPANY
DATE.          Mon Jan 09 13:49:27 2006: LOG DATE
UWI.           05 071 08634 00: UNIQUE WELL ID
~Curve Information Block
DEPT.FT            0 000 00 00: Depth
DCAL.in                       : CDL Caliper
RHOB.g/cc                     : CDL Bulk Density
RHOC.g/cc                     : CDL Density Correction
DPOR.pu                       : CDL Density Porosity
GR.GAPI                       : Gamma Ray
NPOR.pu                       : Neutron Porosity
~Parameter Information Block
~A  Depth       DCAL        RHOB        RHOC        DPOR         GR         NPOR    
# ...
  3042.4000      7.8883      2.5266      0.0246      7.4770   -999.2500     19.6073
  3042.5000      7.8969      2.5231      0.0277      7.6936   -999.2500     18.2681
  3042.6000      7.8969      2.5164      0.0242      8.0976   -999.2500     17.6271
  3042.7000      7.8969      2.5076      0.0382      8.6278   -999.2500     17.6716
  3042.8000      7.8971      2.4971      0.0405      9.2666   -999.2500     18.1511
  3042.9000      7.8971      2.4865      0.0416      9.9069   -999.2500     18.9491
  3043.0000      7.8833      2.4852     -0.0007      9.9903   -999.2500     19.6354
  3043.1000      7.8833      2.4935      0.0697      9.4870   -999.2500     19.4112
  3043.2000      7.8833      2.4952     -0.0029      9.3843   -999.2500     18.2736
  3043.3000      7.8909      2.4883      0.0312      9.7993   -999.2500     17.3305
  3043.4000      7.8909      2.4884      0.0259      9.7915   -999.2500     17.2123
  3043.5000      7.8854      2.4943      0.0740      9.4362   -999.2500     17.7969
  3043.6000      7.8854      2.4864      0.0352      9.9135   -999.2500     20.3645
  3043.7000      7.8854      2.4619      0.0162     11.3983   -999.2500     27.9477
  3043.8000      7.8770      2.4391     -0.0397     12.7834   -999.2500     39.4294
  3043.9000      7.8770      2.4322      0.0112     13.1995   -999.2500     47.5391
  3044.0000      7.8415      2.4392     -0.0229     12.7733   -999.2500     50.4179
  3044.1000      7.8415      2.4524      0.0193     11.9747   -999.2500     50.9777
  3044.2000      7.8415      2.4652      0.0003     11.1986   -999.2500     51.0369
  3044.3000      7.8421      2.4824     -0.0033     10.1600   -999.2500     51.0402
  3044.4000      7.8421      2.5104      0.0689      8.4589   -999.2500   -999.2500
  3044.5000      7.8286      2.5381      0.0779      6.7821   -999.2500   -999.2500
  3044.6000      7.8286      2.5526      0.0493      5.9004   -999.2500   -999.2500
  3044.7000      7.8286      2.5529      0.0815      5.8852   -999.2500   -999.2500
  3044.8000      7.8299      2.5429      0.0984      6.4924   -999.2500   -999.2500
  3044.9000      7.8299      2.5331      0.0408      7.0822   -999.2500   -999.2500
  3045.0000      7.8340      2.5284      0.0931      7.3694   -999.2500   -999.2500
  3045.1000      7.8340      2.5234     -0.0251      7.6749   -999.2500   -999.2500
  3045.2000      7.8340      2.5269      0.0324      7.4621   -999.2500   -999.2500
  3045.3000      7.8505      2.5457      0.0601      6.3214   -999.2500   -999.2500
  3045.4000      7.8505      2.5613      0.0586      5.3735   -999.2500   -999.2500
  3045.5000      7.8687      2.5556      0.0587      5.7221   -999.2500   -999.2500
  3045.6000      7.8687      2.5459     -0.0114      6.3116   -999.2500   -999.2500
  3045.7000      7.8687      2.5561      0.0027      5.6883   -999.2500   -999.2500
  3045.8000      7.8733      2.5709      0.1009      4.7946   -999.2500   -999.2500
  3045.9000      7.8733      2.5747      0.0199      4.5617   -999.2500   -999.2500
  3046.0000      7.8877      2.5818      0.0624      4.1308   -999.2500   -999.2500
  3046.1000      7.8877      2.5861      0.0996      3.8740   -999.2500   -999.2500
  3046.2000      7.8877      2.5681      0.0508      4.9657   -999.2500   -999.2500
  3046.3000      7.8903      2.5474     -0.0585      6.2210   -999.2500   -999.2500
  3046.4000      7.8903      2.5554      0.0318      5.7361   -999.2500   -999.2500
  3046.5000      7.8808      2.5867      0.0539      3.8345   -999.2500   -999.2500
  3046.6000      7.8808      2.6119      0.1083      2.3076   -999.2500   -999.2500
  3046.7000      7.8808      2.6120      0.0767      2.3022   -999.2500   -999.2500
  3046.8000      7.8641      2.5938      0.0557      3.4031   -999.2500   -999.2500
  3046.9000      7.8641      2.5598      0.0939      5.4643   -999.2500   -999.2500
  3047.0000      7.8705      2.5177     -0.0536      8.0169   -999.2500   -999.2500
  3047.1000      7.8705      2.5112     -0.1114      8.4144   -999.2500   -999.2500
  3047.2000      7.8705      2.5457      0.0502      6.3229   -999.2500   -999.2500
  3047.3000      7.8813      2.5646      0.0591      5.1742   -999.2500   -999.2500
  3047.4000      7.8813      2.5531     -0.0073      5.8713   -999.2500   -999.2500
  3047.5000      7.8884      2.5530      0.0297      5.8810   -999.2500   -999.2500
  3047.6000      7.8884      2.5780      0.0599      4.3663   -999.2500   -999.2500
  3047.7000      7.8884      2.6023      0.0189      2.8882   -999.2500   -999.2500
  3047.8000      7.8828      2.6046      0.0416      2.7497   -999.2500   -999.2500
  3047.9000      7.8828      2.5929     -0.0287      3.4612   -999.2500   -999.2500
  3048.0000      7.9123      2.5900      0.0846      3.6383   -999.2500   -999.2500
  3048.1000      7.9123      2.5994      0.0222      3.0667   -999.2500   -999.2500
  3048.2000      7.9123      2.6077      0.0545      2.5659   -999.2500   -999.2500
  3048.3000      7.8607      2.6088      0.0495      2.4971   -999.2500   -999.2500
  3048.4000      7.8607      2.6175      0.0765      1.9723   -999.2500   -999.2500
  3048.5000      7.8489      2.6343      0.1472      0.9542   -999.2500   -999.2500
  3048.6000      7.8489      2.6348      0.0999      0.9235   -999.2500   -999.2500
  3048.7000      7.8489      2.6171      0.0688      1.9928   -999.2500   -999.2500
  3048.8000      7.8694      2.6072      0.0655      2.5970   -999.2500   -999.2500
  3048.9000      7.8694      2.6169      0.0762      2.0046   -999.2500   -999.2500
  3049.0000      7.8815      2.6345      0.0555      0.9403   -999.2500   -999.2500
  3049.1000      7.8815      2.6400      0.1331      0.6061   -999.2500   -999.2500
  3049.2000      7.8815      2.6175      0.0726      1.9697   -999.2500   -999.2500
  3049.3000      7.8864      2.5787      0.0712      4.3194   -999.2500   -999.2500
  3049.4000      7.8864      2.5564      0.0286      5.6726   -999.2500   -999.2500
  3049.5000      7.8921      2.5674      0.0290      5.0031   -999.2500   -999.2500
  3049.6000      7.8921      2.5828      0.1436      4.0700   -999.2500   -999.2500
  3049.7000      7.8921      2.5672      0.0370      5.0170   -999.2500   -999.2500
  3049.8000      7.8154      2.5374     -0.0356      6.8245   -999.2500   -999.2500
  3049.9000      7.8154      2.5190      0.0374      7.9411   -999.2500   -999.2500
  3050.0000      7.8308      2.5097      0.0628      8.5057   -999.2500   -999.2500
  3050.1000      7.8308      2.5077      0.0163      8.6271   -999.2500   -999.2500
  3050.2000      7.8308      2.5144      0.0521      8.2209   -999.2500   -999.2500
  3050.3000      7.8518      2.5197      0.0527      7.8953   -999.2500   -999.2500
  3050.4000      7.8518      2.5138      0.0592      8.2574   -999.2500   -999.2500
  3050.5000      7.8553      2.5021     -0.0262      8.9628   -999.2500   -999.2500
  3050.6000      7.8553      2.5016      0.0027      8.9926   -999.2500   -999.2500
  3050.7000      7.8553      2.5126      0.0331      8.3247   -999.2500   -999.2500
  3050.8000      7.8344      2.5191      0.0195      7.9304   -999.2500   -999.2500
  3050.9000      7.8344      2.5173      0.0347      8.0440   -999.2500   -999.2500
  3051.0000      7.8485      2.5231      0.0272      7.6937   -999.2500   -999.2500
  3051.1000      7.8485      2.5483      0.0691      6.1621   -999.2500   -999.2500
  3051.2000      7.8485      2.5738      0.1045      4.6169   -999.2500   -999.2500
  3051.3000      7.8657      2.5833      0.0161      4.0441   -999.2500   -999.2500
  3051.4000      7.8657      2.5889      0.0630      3.7018   -999.2500   -999.2500
  3051.5000      7.9122      2.5906      0.0809      3.6028   -999.2500   -999.2500
  3051.6000      7.9122      2.5720      0.0852      4.7244   -999.2500   -999.2500
  3051.7000      7.9122      2.5335      0.0349      7.0631   -999.2500   -999.2500
  3051.8000      7.8685      2.4891      0.0115      9.7489   -999.2500   -999.2500
  3051.9000      7.8685      2.4547     -0.0212     11.8362   -999.2500   -999.2500
