~Version Information
VERS.                      2.0: CWLS Log ASCII Standard - VERSION 2.0
WRAP.                       NO: One line per depth step
~Well Information Block
STRT.FT               529.2000: 
STOP.FT              1325.2000: 
STEP.FT                 0.1000: 
NULL.                -999.2500: 
COMP.          Pioneer Natural Resources: COMPANY
WELL.            Erin 21-15 Tr: WELL
FLD.           Purgatoire River: FIELD
LOC.           1217' FNL & 2284' FWL--: LOCATION
CNTY.               Las Animas: COUNTY
SRVC.                Patterson: SERVICE COMPANY
DATE.          Mon Mar 06 14:26:48 2006: LOG DATE
UWI.           05 071 08712 00: UNIQUE WELL ID
STAT.                 Colorado: STATE
~Curve Information Block
DEPT.FT            0 000 00 00: Depth
DCAL.in                       : CDL Caliper
RHOB.g/cc                     : CDL Bulk Density
RHOC.g/cc                     : CDL Density Correction
DPOR.pu                       : CDL Density Porosity
GR.GAPI                       : Gamma Ray
~Parameter Information Block
~A  Depth       DCAL        RHOB        RHOC        DPOR         GR     
# ...
  1246.0000      7.8069      2.5088      0.0711      8.5600     85.2334
  1246.1000      7.8069      2.5252      0.0792      7.5637     81.5476
  1246.2000      7.8069      2.5370      0.0786      6.8498     75.6809
  1246.3000      7.8072      2.5427      0.0818      6.5022     72.8734
  1246.4000      7.8072      2.5440      0.0569      6.4251     75.6870
  1246.5000      7.8068      2.5355      0.0737      6.9377     78.9679
  1246.6000      7.8068      2.5196      0.0552      7.9025     77.4505
  1246.7000      7.8068      2.5126      0.0557      8.3287     72.5538
  1246.8000      7.8070      2.5165      0.0607      8.0902     69.6588
  1246.9000      7.8070      2.5160      0.0686      8.1197     72.8136
  1247.0000      7.8068      2.5103      0.0508      8.4676     80.5222
  1247.1000      7.8068      2.5126      0.0352      8.3249     83.3483
  1247.2000      7.8068      2.5238      0.0754      7.6507     79.0455
  1247.3000      7.8057      2.5352      0.0413      6.9591     79.0895
  1247.4000      7.8057      2.5429      0.0670      6.4925     87.5148
  1247.5000      7.8065      2.5390      0.0655      6.7247     94.7127
  1247.6000      7.8065      2.5217      0.0252      7.7779     93.0323
  1247.7000      7.8065      2.5045      0.0096      8.8165     85.6585
  1247.8000      7.8079      2.5014      0.0141      9.0081     78.0906
  1247.9000      7.8079      2.5112      0.0212      8.4129     72.2220
  1248.0000      7.8072      2.5180      0.0395      7.9984     67.4423
  1248.1000      7.8072      2.5125      0.0393      8.3310     62.8307
  1248.2000      7.8072      2.5131      0.0132      8.2949     60.0013
  1248.3000      7.8073      2.5363      0.0105      6.8925     59.8042
  1248.4000      7.8073      2.5645      0.0643      5.1810     60.5018
  1248.5000      7.8077      2.5771      0.0492      4.4162     62.1358
  1248.6000      7.8077      2.5766      0.0365      4.4510     65.6972
  1248.7000      7.8077      2.5688      0.0469      4.9210     69.7074
  1248.8000      7.8072      2.5565      0.0425      5.6693     72.2618
  1248.9000      7.8072      2.5511      0.0158      5.9929     74.7478
  1249.0000      7.8078      2.5582      0.0502      5.5648     76.8132
  1249.1000      7.8078      2.5678      0.0219      4.9837     75.2219
  1249.2000      7.8078      2.5698      0.0920      4.8636     72.2257
  1249.3000      7.8083      2.5662      0.0264      5.0770     72.8777
  1249.4000      7.8083      2.5704      0.0609      4.8234     76.0058
  1249.5000      7.8100      2.5823      0.0559      4.1033     76.2205
  1249.6000      7.8100      2.5892      0.0423      3.6826     72.9195
  1249.7000      7.8100      2.5836      0.0591      4.0233     70.3934
  1249.8000      7.8112      2.5674      0.0587      5.0067     70.1992
  1249.9000      7.8112      2.5510      0.0219      6.0002     71.2008
  1250.0000      7.8089      2.5488     -0.0330      6.1324     73.9217
  1250.1000      7.8089      2.5680      0.0205      4.9688     76.2619
  1250.2000      7.8089      2.5944      0.0820      3.3683     75.2952
  1250.3000      7.8055      2.6077      0.0678      2.5632     73.8626
  1250.4000      7.8055      2.6140      0.0533      2.1791     76.1517
  1250.5000      7.8057      2.6312      0.0494      1.1413     78.8721
  1250.6000      7.8057      2.6500      0.0903      0.0026     77.6935
  1250.7000      7.8057      2.6455      0.0928      0.2756     75.9275
  1250.8000      7.8066      2.6173      0.0467      1.9808     75.5224
  1250.9000      7.8066      2.5876      0.0289      3.7839     75.2373
  1251.0000      7.8063      2.5728      0.0583      4.6811     76.4599
  1251.1000      7.8063      2.5771      0.0392      4.4167     78.5732
  1251.2000      7.8063      2.5903      0.0399      3.6156     79.6284
  1251.3000      7.8082      2.5886      0.0739      3.7196     81.3389
  1251.4000      7.8082      2.5641      0.0431      5.2075     82.8323
  1251.5000      7.8097      2.5384      0.0192      6.7635     79.9872
  1251.6000      7.8097      2.5295      0.0040      7.3031     74.9536
  1251.7000      7.8097      2.5346      0.0461      6.9916     73.6390
  1251.8000      7.8091      2.5399      0.0503      6.6710     74.1366
  1251.9000      7.8091      2.5312      0.0396      7.2007     72.2330
  1252.0000      7.8099      2.5116      0.0136      8.3858     70.8621
  1252.1000      7.8099      2.4963      0.0202      9.3175     73.3051
  1252.2000      7.8099      2.4832      0.0519     10.1115     78.2544
  1252.3000      7.8116      2.4640      0.0388     11.2747     80.9019
  1252.4000      7.8116      2.4492     -0.0273     12.1690     78.7744
  1252.5000      7.8131      2.4536      0.0024     11.9007     75.6393
  1252.6000      7.8131      2.4712      0.0022     10.8348     74.8850
  1252.7000      7.8131      2.4890      0.0548      9.7557     75.7133
  1252.8000      7.8123      2.5075      0.0332      8.6392     77.4896
  1252.9000      7.8123      2.5281      0.1059      7.3895     80.2906
  1253.0000      7.8089      2.5387      0.0883      6.7472     81.3610
  1253.1000      7.8089      2.5318      0.0667      7.1656     80.3607
  1253.2000      7.8089      2.5140      0.0642      8.2442     79.8609
  1253.3000      7.8063      2.4968      0.0479      9.2868     80.8607
  1253.4000      7.8063      2.4879      0.0573      9.8220     81.9722
  1253.5000      7.8066      2.4861      0.0475      9.9330     80.2196
  1253.6000      7.8066      2.4839      0.0879     10.0656     75.1352
  1253.7000      7.8066      2.4756      0.0253     10.5719     70.4385
  1253.8000      7.8090      2.4672      0.0207     11.0794     68.6897
  1253.9000      7.8090      2.4654      0.0512     11.1894     67.0384
  1254.0000      7.8099      2.4688      0.0293     10.9827     64.2434
  1254.1000      7.8099      2.4810      0.0540     10.2426     63.2526
  1254.2000      7.8099      2.5078      0.0593      8.6171     64.6704
  1254.3000      7.8102      2.5397      0.1043      6.6843     66.5063
  1254.4000      7.8102      2.5528      0.1003      5.8897     68.3123
  1254.5000      7.8111      2.5398      0.0656      6.6813     71.1954
  1254.6000      7.8111      2.5241      0.0380      7.6304     73.3537
  1254.7000      7.8111      2.5233      0.0801      7.6814     72.3190
  1254.8000      7.8104      2.5270      0.0571      7.4545     69.0208
  1254.9000      7.8104      2.5262      0.0555      7.5054     67.3787
  1255.0000      7.8089      2.5208      0.0552      7.8320     68.4454
  1255.1000      7.8089      2.5150      0.0321      8.1833     68.7345
  1255.2000      7.8089      2.5121      0.0749      8.3582     67.0293
  1255.3000      7.8088      2.5075      0.0394      8.6366     64.8400
  1255.4000      7.8088      2.5011      0.0220      9.0215     64.4049
  1255.5000      7.8102      2.4946      0.0540      9.4202     67.9217
  1255.6000      7.8102      2.4847      0.0429     10.0178     74.0727
  1255.7000      7.8102      2.4728      0.0499     10.7389     78.5519
  1255.8000      7.8111      2.4644      0.0282     11.2468     79.0554
  1255.9000      7.8111      2.4668      0.0214     11.1010     76.6493
  1256.0000      7.8109      2.4753      0.0623     10.5908     76.8311
  1256.1000      7.8109      2.4790      0.0401     10.3651     80.4190
  1256.2000      7.8109      2.4861      0.0265      9.9313     79.7219
  1256.3000      7.8102      2.5021      0.0776      8.9637     72.1891
  1256.4000      7.8102      2.5129      0.0638      8.3098     65.0178
  1256.5000      7.8089      2.5110      0.0795      8.4269     63.5935
  1256.6000      7.8089      2.5043      0.0460      8.8327     65.0291
  1256.7000      7.8089      2.5006      0.0681      9.0538     66.2028
  1256.8000      7.8084      2.5008      0.0686      9.0411     67.6549
  1256.9000      7.8084      2.5053      0.0552      8.7686     70.1861
  1257.0000      7.8091      2.5112      0.0581      8.4137     73.8091
  1257.1000      7.8091      2.5138      0.0344      8.2561     77.2938
