~Version Information
VERS.                      2.0: CWLS Log ASCII Standard - VERSION 2.0
WRAP.                       NO: One line per depth step
~Well Information Block
STRT.FT                 0.0000: 
STOP.FT              2792.7500: 
STEP.FT                 0.2500: 
NULL.                -999.2500: 
COMP.          Pioneer Natural Resources: COMPANY
WELL.          Black Cat 13-32: WELL
FLD.           Purgatorie River: FIELD
LOC.           1865' FSL & 1120' FWL: LOCATION
PROV.                 Colorado: PROVINCE
CNTY.               Las Animas: COUNTRY
SRVC.                Patterson: SERVICE COMPANY
DATE.          Fri Aug 19 09:19:21 2005: LOG DATE
UWI.                          : UNIQUE WELL ID
~Curve Information Block
DEPT.FT            0 000 00 00: Depth
CCL.                          : Casing Collar Locator
TT3.usec                      : CBL 3' Travel Time
AMP3.mV                       : CBL 3' Amplitude
GR.GAPI                       : Gamma Ray
~Parameter Information Block
~A  Depth       CCL         TT3         AMP3         GR     
# ...
  1474.0000      0.0000    516.6171      4.5651    138.9935
  1474.2500      0.0000    513.0315      4.5226    142.8676
  1474.5000      0.0000    538.5972      4.4914    143.8230
  1474.7500      0.0000    590.4810      4.4855    141.0781
  1475.0000      0.0000    650.9424      4.5068    134.6871
  1475.2500      0.0000    696.0453      4.5403    125.2394
  1475.5000      0.0000    715.7270      4.5750    113.9577
  1475.7500      0.0000    715.1567      4.6028    102.9641
  1476.0000      0.0000    703.3323      4.6026     94.8274
  1476.2500      0.0000    688.1010      4.5541     91.5172
  1476.5000      0.0000    672.8392      4.4760     93.4932
  1476.7500      0.0000    657.0972      4.4251     99.3162
  1477.0000      0.0000    643.2194      4.4392    106.1323
  1477.2500      0.0000    634.7667      4.4956    111.1521
  1477.5000      0.0000    631.3329      4.5425    113.2141
  1477.7500      0.0000    630.3893      4.5537    113.0661
  1478.0000      0.0000    630.3165      4.5436    112.1971
  1478.2500      0.0000    630.5259      4.5374    111.3737
  1478.5000      0.0000    630.8221      4.5425    110.0266
  1478.7500      0.0000    631.0110      4.5551    106.8192
  1479.0000      0.0000    630.2977      4.5667    100.9555
  1479.2500      0.0000    626.1592      4.5642     93.1431
  1479.5000      0.0000    615.0454      4.5555     85.2485
  1479.7500      0.0000    599.2307      4.5697     79.0434
  1480.0000      0.0000    591.1768      4.6142     75.3649
  1480.2500      0.0000    599.4161      4.6585     74.2628
  1480.5000      0.0000    615.4365      4.6630     75.4433
  1480.7500      0.0000    626.7672      4.6070     78.2215
  1481.0000      0.0000    631.0922      4.4988     81.4058
  1481.2500      0.0000    631.8140      4.3797     83.7982
  1481.5000      0.0000    630.5394      4.3001     84.8202
  1481.7500      0.0000    624.8376      4.2695     84.4117
  1482.0000      0.0000    610.0853      4.2520     82.6432
  1482.2500      0.0000    588.2156      4.2231     79.7679
  1482.5000      0.0000    572.0059      4.2024     76.3845
  1482.7500      0.0000    567.7538      4.2196     73.2572
  1483.0000      0.0000    567.4658      4.2651     70.9646
  1483.2500      0.0000    571.5119      4.3004     69.6624
  1483.5000      0.0000    587.3866      4.3154     69.0727
  1483.7500      0.0000    604.8619      4.3283     68.8029
  1484.0000      0.0000    604.2621      4.3385     68.7503
  1484.2500      0.0000    582.2949      4.3357     69.2187
  1484.5000      0.0000    558.9739      4.3389     70.6121
  1484.7500      0.0000    558.9726      4.3790     72.7382
  1485.0000      0.0000    583.2266      4.4541     74.3452
  1485.2500      0.0000    610.5988      4.5396     73.8837
  1485.5000      0.0000    626.2419      4.6147     71.1160
  1485.7500      0.0000    631.5316      4.6538     67.6109
  1486.0000      0.0000    632.4771      4.6375     65.4119
  1486.2500      0.0000    631.4459      4.5843     65.4465
  1486.5000      0.0000    626.3160      4.5297     67.2867
  1486.7500      0.0000    612.9931      4.4833     70.0192
  1487.0000      0.0000    594.4857      4.4418     73.0020
  1487.2500      0.0000    586.4490      4.4125     75.7672
  1487.5000      0.0000    598.6633      4.3800     77.4897
  1487.7500      0.0000    616.5533      4.2713     77.1412
  1488.0000      0.0000    622.5061      4.0428     74.4490
  1488.2500      0.0000    623.1222      3.8280     70.4111
  1488.5000      0.0000    631.8111      3.8033     66.5673
  1488.7500      0.0000    643.0270      3.8679     63.8910
  1489.0000      0.0000    647.0210      3.8090     62.4526
  1489.2500      0.0000    648.1253      3.6911     61.8659
  1489.5000      0.0000    653.0908      3.6831     61.7722
  1489.7500      2.0000    658.2988      3.7604     62.0436
  1490.0000      0.0000    662.5687      3.8121     62.7148
  1490.2500     -2.0000    676.9774      3.7960     63.7531
  1490.5000      0.0000    703.4683      3.7256     65.0387
  1490.7500      0.0000    724.0283      3.6663     66.6654
  1491.0000      0.0000    725.7652      3.7449     69.0291
  1491.2500      0.0000    711.6749      3.9742     72.3839
  1491.5000      0.0000    683.4204      4.1142     76.4069
  1491.7500      0.0000    643.8620      4.0009     80.2124
  1492.0000      0.0000    611.9211      3.7978     82.5772
  1492.2500      0.0000    604.5941      3.6436     82.4178
  1492.5000      0.0000    614.5912      3.4564     79.6613
  1492.7500      0.0000    627.9819      3.1727     75.6660
  1493.0000      0.0000    645.0031      2.8426     72.3121
  1493.2500      0.0000    670.7356      2.5451     70.5478
  1493.5000      0.0000    703.0231      2.3407     69.9424
  1493.7500      0.0000    733.9443      2.2335     69.6106
  1494.0000      0.0000    752.2882      2.1676     69.4141
  1494.2500      0.0000    750.5441      2.0898     70.3108
  1494.5000      0.0000    735.2640      1.9974     73.6293
  1494.7500      0.0000    719.9943      1.9227     80.0123
  1495.0000      0.0000    709.5915      1.9004     89.0437
  1495.2500      0.0000    699.6874      1.9649     99.7000
  1495.5000      0.0000    686.9705      2.1479    110.8988
  1495.7500      0.0000    674.5053      2.4424    121.7328
  1496.0000      0.0000    667.9528      2.7860    131.5632
  1496.2500      0.0000    668.7819      3.1135    140.0010
  1496.5000      0.0000    674.4205      3.4090    146.7355
  1496.7500      0.0000    683.9380      3.6777    151.3747
  1497.0000      0.0000    695.1020      3.8979    153.5803
  1497.2500      0.0000    700.6483      4.0433    153.5765
  1497.5000      0.0000    696.9858      4.1229    152.5749
  1497.7500      0.0000    687.6030      4.1634    152.2920
  1498.0000      0.0000    673.6635      4.1839    153.6650
  1498.2500      0.0000    651.0175      4.2035    156.0746
  1498.5000      0.0000    618.6467      4.2379    157.8422
  1498.7500      0.0000    585.3228      4.2795    157.3339
  1499.0000      0.0000    564.7766      4.3015    153.7018
  1499.2500      0.0000    561.8455      4.2899    147.0740
  1499.5000      0.0000    572.0665      4.2478    138.4662
  1499.7500      0.0000    596.1915      4.1813    129.2924
  1500.0000      0.0000    632.3654      4.1051    120.4985
  1500.2500      0.0000    664.2982      4.0402    112.1910
  1500.5000      0.0000    680.3778      3.9943    104.4692
  1500.7500      0.0000    685.3080      3.9594     98.3737
  1501.0000      0.0000    686.1024      3.9029     95.2061
  1501.2500      0.0000    680.9460      3.7804     94.6228
  1501.5000      0.0000    663.4698      3.5988     94.1214
  1501.7500      0.0000    638.3156      3.4299     91.0359
  1502.0000      0.0000    625.5792      3.3200     84.8197
  1502.2500      0.0000    637.9040      3.2403     77.1411
  1502.5000      0.0000    662.8300      3.1631     70.2285
  1502.7500      0.0000    680.2140      3.1104     65.6433
  1503.0000      0.0000    685.2440      3.0972     64.4168
  1503.2500      0.0000    684.6550      3.0826     67.5584
  1503.5000      0.0000    683.0154      3.0117     75.7050
  1503.7500      0.0000    680.2152      2.8917     88.2720
  1504.0000      0.0000    676.3246      2.7801    103.3553
  1504.2500      0.0000    675.0835      2.7017    118.3667
  1504.5000      0.0000    680.0761      2.6243    130.5732
  1504.7500      0.0000    688.2427      2.5091    137.5286
  1505.0000      0.0000    694.1239      2.3622    137.8342
  1505.2500      0.0000    697.6271      2.2188    131.8090
  1505.5000      0.0000    699.7738      2.0876    121.2920
  1505.7500      0.0000    697.4385      1.9520    108.7133
  1506.0000      0.0000    688.2449      1.8114     96.3334
  1506.2500      0.0000    675.4025      1.6852     86.0418
  1506.5000      0.0000    664.6583      1.5927     79.2555
  1506.7500      0.0000    658.7925      1.5462     76.5130
  1507.0000      0.0000    656.8505      1.5486     77.1145
  1507.2500      0.0000    656.6052      1.6041     79.5583
