~Version Information
VERS.                      2.0: CWLS Log ASCII Standard - VERSION 2.0
WRAP.                       NO: One line per depth step
~Well Information Block
STRT.FT               460.0000: 
STOP.FT              2824.0000: 
STEP.FT                 0.2500: 
NULL.                -999.2500: 
COMP.          Pioneer Natural Resources: COMPANY
WELL.           Dolzanie 34-12: WELL
FLD.           Purgatoire River: FIELD
LOC.           1001' FSL & 1750' FEL--: LOCATION
PROV.                 Colorado: PROVINCE
CNTY.               Las Animas: COUNTRY
SRVC.                Patterson: SERVICE COMPANY
DATE.          Wed Jul 20 07:51:58 2005: LOG DATE
UWI.           05 071 08439 00: UNIQUE WELL ID
~Curve Information Block
DEPT.FT            0 000 00 00: Depth
DIR.Ohm-m                     : IEL Induction Resistivity
SN.Ohm-m                      : IEL Short Normal
SP.mV                         : IEL Spontaneous Potential
GR.GAPI                       : Gamma Ray
~Parameter Information Block
~A  Depth       DIR          SN          SP          GR     
# ...
  2336.0000     10.0300     12.3171     10.8370    111.7348
  2336.2500     10.2272     12.3272     10.6786    109.0399
  2336.5000     10.2574     12.1959     10.5267    107.8216
  2336.7500     10.1184     11.9412     10.3532    108.9005
  2337.0000      9.8375     11.5931     10.1283    111.9008
  2337.2500      9.4600     11.1819      9.8237    113.4023
  2337.5000      9.0331     10.7384      9.4151    112.8976
  2337.7500      8.5960     10.3034      8.8846    110.5047
  2338.0000      8.1762      9.9276      8.2218    105.0377
  2338.2500      7.7912      9.6544      7.4236    101.1046
  2338.5000      7.4520      9.4983      6.4950     95.8172
  2338.7500      7.1660      9.4363      5.4474     92.8185
  2339.0000      6.9383      9.4217      4.2979     88.7110
  2339.2500      6.7735      9.4122      3.0683     85.9283
  2339.5000      6.6753      9.3899      1.7830     81.7621
  2339.7500      6.6457      9.3595      0.4676     79.5220
  2340.0000      6.6838      9.3311     -0.8530     77.8963
  2340.2500      6.7844      9.3053     -2.1566     77.8794
  2340.5000      6.9377      9.2710     -3.4249     78.2967
  2340.7500      7.1315      9.2158     -4.6443     78.3574
  2341.0000      7.3531      9.1411     -5.8059     78.2864
  2341.2500      7.5935      9.0758     -6.9043     78.4673
  2341.5000      7.8488      9.0805     -7.9359     79.3423
  2341.7500      8.1206      9.2357     -8.8973     80.4659
  2342.0000      8.4146      9.6141     -9.7841     83.4388
  2342.2500      8.7369     10.2443    -10.5901     86.3338
  2342.5000      9.0892     11.0838    -11.3070     91.1733
  2342.7500      9.4668     12.0221    -11.9253     93.9821
  2343.0000      9.8600     12.9232    -12.4351     96.9157
  2343.2500     10.2589     13.6828    -12.8268     98.1083
  2343.5000     10.6580     14.2620    -13.0923     98.8967
  2343.7500     11.0562     14.6781    -13.2261     98.4468
  2344.0000     11.4543     14.9725    -13.2256     95.5357
  2344.2500     11.8546     15.1931    -13.0915     92.1080
  2344.5000     12.2646     15.3993    -12.8264     85.8322
  2344.7500     12.7021     15.6681    -12.4325     81.7007
  2345.0000     13.1943     16.0776    -11.9089     76.4853
  2345.2500     13.7674     16.6668    -11.2487     73.9460
  2345.5000     14.4294     17.3905    -10.4385     71.8555
  2345.7500     15.1511     18.1056     -9.4594     71.5753
  2346.0000     15.8570     18.6085     -8.2921     72.2182
  2346.2500     16.4365     18.7174     -6.9231     72.8589
  2346.5000     16.7791     18.3586     -5.3518     73.5469
  2346.7500     16.8198     17.6127     -3.5962     73.6919
  2347.0000     16.5662     16.6876     -1.6947     73.5290
  2347.2500     16.0906     15.8252      0.2957     73.5004
  2347.5000     15.4955     15.1936      2.3050     74.6808
  2347.7500     14.8743     14.8262      4.2596     76.9168
  2348.0000     14.2876     14.6432      6.0909     82.6898
  2348.2500     13.7578     14.5255      7.7446     87.7127
  2348.5000     13.2800     14.3836      9.1856     95.8848
  2348.7500     12.8377     14.1820     10.4004    101.2126
  2349.0000     12.4186     13.9263     11.3952    108.0776
  2349.2500     12.0236     13.6398     12.1913    111.0486
  2349.5000     11.6660     13.3487     12.8190    111.6305
  2349.7500     11.3653     13.0757     13.3118    109.4931
  2350.0000     11.1387     12.8367     13.7013    104.8485
  2350.2500     10.9966     12.6364     14.0151    102.5420
  2350.5000     10.9388     12.4663     14.2745    101.5588
  2350.7500     10.9544     12.3081     14.4954    102.1144
  2351.0000     11.0212     12.1439     14.6887    103.4565
  2351.2500     11.1083     11.9671     14.8604    104.1619
  2351.5000     11.1824     11.7871     15.0130    104.2198
  2351.7500     11.2164     11.6261     15.1455    103.2749
  2352.0000     11.1981     11.5071     15.2537    100.7934
  2352.2500     11.1326     11.4419     15.3308     99.3440
  2352.5000     11.0380     11.4258     15.3682     98.9807
  2352.7500     10.9365     11.4442     15.3557    100.0170
  2353.0000     10.8474     11.4830     15.2826    102.2680
  2353.2500     10.7866     11.5356     15.1378    103.5448
  2353.5000     10.7680     11.6038     14.9102    105.1344
  2353.7500     10.8047     11.6947     14.5894    106.3773
  2354.0000     10.9074     11.8155     14.1664    108.6626
  2354.2500     11.0824     11.9693     13.6340    110.1663
  2354.5000     11.3316     12.1559     12.9875    111.8904
  2354.7500     11.6536     12.3738     12.2252    112.5291
  2355.0000     12.0465     12.6213     11.3489    112.5438
  2355.2500     12.5101     12.8995     10.3637    111.8364
  2355.5000     13.0469     13.2190      9.2780    109.4803
  2355.7500     13.6615     13.6034      8.1038    106.9103
  2356.0000     14.3577     14.0817      6.8561    101.7852
  2356.2500     15.1347     14.6754      5.5535     98.0895
  2356.5000     15.9816     15.3874      4.2169     93.3440
  2356.7500     16.8719     16.2022      2.8690     91.0190
  2357.0000     17.7597     17.0899      1.5333     88.0764
  2357.2500     18.5838     18.0133      0.2331     85.6766
  2357.5000     19.2817     18.9350     -1.0095     80.8984
  2357.7500     19.8029     19.8217     -2.1734     77.5650
  2358.0000     20.1097     20.6452     -3.2382     73.9865
  2358.2500     20.1620     21.3796     -4.1835     72.8538
  2358.5000     19.9066     21.9997     -4.9881     72.0764
  2358.7500     19.3003     22.4812     -5.6301     71.4384
  2359.0000     18.3676     22.7997     -6.0886     69.8699
  2359.2500     17.2516     22.9267     -6.3456     68.6125
  2359.5000     16.2072     22.8260     -6.3910     66.8061
  2359.7500     15.5642     22.4627     -6.2261     65.6581
  2360.0000     15.7694     21.8286     -5.8680     63.6640
  2360.2500     17.7256     20.9695     -5.3502     61.9271
  2360.5000     24.5849     19.9832     -4.7224     58.6081
  2360.7500     65.3308     18.9804     -4.0459     56.1369
  2361.0000 100000.0000     18.0366     -3.3883     53.0729
  2361.2500 100000.0000     17.1735     -2.8162     52.4138
  2361.5000 100000.0000     16.3755     -2.3897     55.1273
  2361.7500 100000.0000     15.6175     -2.1583     59.8407
  2362.0000 100000.0000     14.8812     -2.1598     70.4796
  2362.2500 100000.0000     14.1575     -2.4223     78.6984
  2362.5000 100000.0000     13.4454     -2.9676     90.2243
  2362.7500 100000.0000     12.7540     -3.8172     96.3653
  2363.0000     33.6834     12.1025     -4.9984    102.8603
  2363.2500     16.6298     11.5144     -6.5498    105.7747
  2363.5000     11.8923     11.0086     -8.5268    109.0305
  2363.7500      9.4362     10.5901    -11.0051    110.8330
  2364.0000      7.6325     10.2484    -14.0817    113.1412
  2364.2500      6.1965      9.9650    -17.8741    114.6133
  2364.5000      5.1791      9.7234    -22.5147    117.7023
  2364.7500      4.6554      9.5152    -28.1443    120.8153
  2365.0000      4.7545      9.3386    -34.9021    126.3942
  2365.2500      6.0327      9.1937    -42.9137    129.5131
  2365.5000     12.6101      9.0758    -52.2788    131.3824
  2365.7500 100000.0000      8.9688    -63.0593    130.4869
  2366.0000 100000.0000      8.8417    -75.2690    127.0686
  2366.2500 100000.0000      8.6461    -88.8639    124.4657
  2366.5000 100000.0000      8.3168   -103.7323    121.3213
  2366.7500 100000.0000      7.7814   -119.6850    119.8611
  2367.0000      5.6389      6.9879   -136.4461    118.3538
  2367.2500      1.1292      5.9478   -153.6487    117.8028
  2367.5000      0.4425      4.7657   -170.8424    118.1081
  2367.7500      0.2004      3.6125   -187.5197    119.2413
  2368.0000      0.1030      2.6473   -203.1608    121.7592
  2368.2500      0.0691      1.9454   -217.2939    123.1624
  2368.5000      0.0672      1.4903   -229.5569    123.3618
  2368.7500      0.0959      1.2183   -239.7444    121.6773
  2369.0000      0.1862      1.0657   -247.8278    116.3048
  2369.2500      0.4255      0.9876   -253.9410    111.2464
