~Version Information
VERS.                      2.0: CWLS Log ASCII Standard - VERSION 2.0
WRAP.                       NO: One line per depth step
~Well Information Block
STRT.FT                -2.7500: 
STOP.FT               973.2500: 
STEP.FT                 0.2500: 
NULL.                -999.2500: 
COMP.          Pioneer Natural Resources: COMPANY
WELL.          Red Raider 22-15: WELL
FLD.           Purgatoire River: FIELD
LOC.           1809' FNL & 2107' FWL: LOCATION
CNTY.               Las Animas: COUNTY
SRVC.                Patterson: SERVICE COMPANY
DATE.          Mon Apr 17 16:50:50 2006: LOG DATE
UWI.           05 071 08718 00: UNIQUE WELL ID
STAT.                 Colorado: STATE
~Curve Information Block
DEPT.FT            0 000 00 00: Depth
GR.GAPI                       : Gamma Ray
CCL.                          : Casing Collar Locator
TT3.usec                      : CBL 3' Travel Time
AMP3.mV                       : CBL 3' Amplitude
~Parameter Information Block
~A  Depth        GR         CCL         TT3         AMP3    
# ...
   365.7500     99.1718      0.0000    254.9803     75.3015
   366.0000     95.5327      0.0000    254.9861     75.3441
   366.2500     94.9015      0.0000    254.9890     75.3801
   366.5000     97.4406      0.0000    254.9883     75.4026
   366.7500    103.1390      0.0000    254.9873     75.4138
   367.0000    111.0510      0.0000    254.9875     75.4135
   367.2500    118.7500      0.0000    254.9872     75.3953
   367.5000    123.2088      0.0000    254.9843     75.3585
   367.7500    122.7814      0.0000    254.9802     75.3172
   368.0000    118.5157      0.0000    254.9781     75.2897
   368.2500    113.3617      0.0000    254.9786     75.2783
   368.5000    109.7947      0.0000    254.9782     75.2675
   368.7500    107.9318      0.0000    254.9724     75.2428
   369.0000    105.8567      0.0000    254.9606     75.2052
   369.2500    101.6824      0.0000    254.9463     75.1692
   369.5000     95.0398      0.0000    254.9352     75.1486
   369.7500     86.6944      0.0000    254.9314     75.1464
   370.0000     77.6650      0.0000    254.9355     75.1545
   370.2500     69.2577      0.0000    254.9437     75.1603
   370.5000     63.2042      0.0000    254.9515     75.1545
   370.7500     60.8854      0.0000    254.9555     75.1339
   371.0000     62.4612      0.0000    254.9553     75.1031
   371.2500     67.1127      0.0000    254.9526     75.0726
   371.5000     73.9348      0.0000    254.9504     75.0527
   371.7500     82.1906      0.0000    254.9507     75.0437
   372.0000     90.7448      0.0000    254.9531     75.0359
   372.2500     97.7200      0.0000    254.9551     75.0179
   372.5000    101.0765      0.0000    254.9546     74.9894
   372.7500     99.7429      0.0000    254.9518     74.9618
   373.0000     94.3563      0.0000    254.9497     74.9497
   373.2500     86.8446      0.0000    254.9523     74.9620
   373.5000     79.2114      0.0000    254.9631     74.9990
   373.7500     72.8169      0.0000    254.9831     75.0551
   374.0000     68.5433      0.0000    255.0107     75.1232
   374.2500     66.9094      0.0000    255.0397     75.1936
   374.5000     67.8339      0.0000    255.0595     75.2480
   374.7500     70.8585      0.0000    255.0612     75.2669
   375.0000     75.8346      0.0000    255.0462     75.2495
   375.2500     82.8858      0.0000    255.0258     75.2179
   375.5000     91.3610      0.0000    255.0102     75.1959
   375.7500     99.3439      0.0000    255.0012     75.1906
   376.0000    104.8516      0.0000    254.9947     75.1972
   376.2500    107.4386      0.0000    254.9868     75.2126
   376.5000    108.0757      0.0000    254.9772     75.2397
   376.7500    107.5316      0.0000    254.9674     75.2789
   377.0000    105.4916      0.0000    254.9580     75.3199
   377.2500    101.4144      0.0000    254.9480     75.3466
   377.5000     95.8229      0.0000    254.9384     75.3512
   377.7500     90.4193      0.0000    254.9330     75.3429
   378.0000     86.9789      0.0000    254.9358     75.3399
   378.2500     86.3388      0.0000    254.9465     75.3544
   378.5000     88.4562      0.0000    254.9622     75.3867
   378.7500     92.9821      0.0000    254.9840     75.4281
   379.0000     99.2302      0.0000    255.0298     75.4518
   379.2500    105.6547      0.0000    255.1562     75.3792
   379.5000    110.0754      0.0000    255.5041     75.0156
   379.7500    111.0375      0.0000    256.3340     74.0359
   380.0000    109.1167      0.0000    257.9911     72.1410
   380.2500    106.7183      0.0000    260.7003     69.3402
   380.5000    106.2488      0.0000    264.1872     66.0733
   380.7500    108.2025      0.0000    267.4503     63.0004
   381.0000    110.9652      0.0000    269.2013     60.6601
   381.2500    112.4881      0.0000    268.8678     59.2562
   381.5000    111.9568      0.0000    267.1020     58.6477
   381.7500    109.8473      0.0000    265.1333     58.5138
   382.0000    107.0096      0.0000    263.7589     58.5937
   382.2500    104.1422      3.0000    263.0352     58.8412
   382.5000    101.7151      0.0000    262.6330     59.4465
   382.7500     99.8393      0.0000    262.2147     60.7550
   383.0000     98.2472      0.0000    261.5661     63.0412
   383.2500     96.5002      0.0000    260.6089     66.1836
   383.5000     94.0704      0.0000    259.4073     69.5586
   383.7500     90.3602      0.0000    258.1409     72.4079
   384.0000     85.1238      0.0000    257.0256     74.3380
   384.2500     78.9619      0.0000    256.2100     75.4289
   384.5000     73.2076      0.0000    255.7195     75.9704
   384.7500     69.4011      0.0000    255.4796     76.2143
   385.0000     68.9288      0.0000    255.3849     76.3098
   385.2500     72.6897      0.0000    255.3531     76.3299
   385.5000     80.3662      0.0000    255.3401     76.3075
   385.7500     89.7499      0.0000    255.3304     76.2610
   386.0000     97.2267      0.0000    255.3232     76.2080
   386.2500     99.6179      0.0000    255.3230     76.1627
   386.5000     96.0541      0.0000    255.3296     76.1295
   386.7500     88.4628      0.0000    255.3359     76.0969
   387.0000     80.5493      0.0000    255.3324     76.0486
   387.2500     76.1063      0.0000    255.3157     75.9796
   387.5000     77.4918      0.0000    255.2898     75.8984
   387.7500     84.7326      0.0000    255.2610     75.8172
   388.0000     95.6357      0.0000    255.2359     75.7469
   388.2500    107.0277      0.0000    255.2208     75.7005
   388.5000    116.2464      0.0000    255.2202     75.6886
   388.7500    121.6495      0.0000    255.2334     75.7126
   389.0000    122.4731      0.0000    255.2539     75.7593
   389.2500    119.2781      0.0000    255.2711     75.8045
   389.5000    114.3611      0.0000    255.2764     75.8254
   389.7500    110.4850      0.0000    255.2698     75.8182
   390.0000    108.6299      0.0000    255.2608     75.8031
   390.2500    107.3472      0.0000    255.2600     75.8037
   390.5000    104.5092      0.0000    255.2695     75.8242
   390.7500     99.4770      0.0000    255.2823     75.8478
   391.0000     93.4739      0.0000    255.2902     75.8560
   391.2500     88.1728      0.0000    255.2914     75.8464
   391.5000     84.3771      0.0000    255.2915     75.8328
   391.7500     82.1202      0.0000    255.2964     75.8269
   392.0000     81.4628      0.0000    255.3047     75.8231
   392.2500     82.6054      0.0000    255.3081     75.8012
   392.5000     85.3490      0.0000    255.2998     75.7452
   392.7500     89.0845      0.0000    255.2814     75.6573
   393.0000     93.4512      0.0000    255.2603     75.5516
   393.2500     98.4388      0.0000    255.2404     75.4362
   393.5000    103.5353      0.0000    255.2195     75.3102
   393.7500    107.4050      0.0000    255.1965     75.1793
   394.0000    109.0884      0.0000    255.1776     75.0667
   394.2500    109.3059      0.0000    255.1704     74.9981
   394.5000    109.9487      0.0000    255.1737     74.9768
   394.7500    112.2803      0.0000    255.1769     74.9814
   395.0000    115.9468      0.0000    255.1710     74.9867
   395.2500    119.4760      0.0000    255.1568     74.9830
   395.5000    121.3191      0.0000    255.1416     74.9742
   395.7500    120.7582      0.0000    255.1320     74.9644
   396.0000    118.3250      0.0000    255.1314     74.9531
   396.2500    115.1415      0.0000    255.1404     74.9410
   396.5000    111.6752      0.0000    255.1573     74.9316
   396.7500    107.4810      0.0000    255.1764     74.9236
   397.0000    102.1005      0.0000    255.1903     74.9063
   397.2500     95.7329      0.0000    255.1936     74.8658
   397.5000     89.1264      0.0000    255.1856     74.7983
   397.7500     83.2968      0.0000    255.1700     74.7174
   398.0000     79.1726      0.0000    255.1527     74.6424
   398.2500     77.0015      0.0000    255.1373     74.5801
   398.5000     76.1489      0.0000    255.1258     74.5223
   398.7500     75.8107      0.0000    255.1214     74.4614
   399.0000     75.8637      0.0000    255.1271     74.4008
