~Version Information
VERS.                      2.0: CWLS Log ASCII Standard - VERSION 2.0
WRAP.                       NO: One line per depth step
~Well Information Block
STRT.FT                -8.2500: 
STOP.FT              1118.7500: 
STEP.FT                 0.2500: 
NULL.                -999.2500: 
COMP.          Pioneer Natural Resources: COMPANY
WELL.             Croc 42-9 Tr: WELL
FLD.           Purgatorie River: FIELD
LOC.           --2429' FNL & 315' FEL------: LOCATION
STAT.                       CO: State
CNTY.               Las Animas: COUNTY
CTRY. USA : Country
SECT. 9 : Section
TOWN. 32S : Township
RANG. 66W : Range
SRVC.          Patterson Wireline: SERVICE COMPANY
DATE.          Tue Oct 18 14:14:43 2005: LOG DATE
API.           05 071 08550 00: UNIQUE WELL ID
~Curve Information Block
DEPT.FT            0 000 00 00: Depth
CCL.                          : Casing Collar Locator
TT3.usec                      : CBL 3' Travel Time
AMP3.mV                       : CBL 3' Amplitude
GR.GAPI                       : Gamma Ray
~Parameter Information Block
~A  Depth       CCL         TT3         AMP3         GR     
# ...
   360.2500      0.0000    749.1024     13.3461     62.4015
   360.5000      0.0000    749.0612     13.2213     65.3080
   360.7500      0.0000    749.0192     13.1449     66.4520
   361.0000      0.0000    748.9982     13.1073     65.6303
   361.2500      0.0000    749.0048     13.0821     63.2350
   361.5000      0.0000    749.0291     13.0511     59.7821
   361.7500      0.0000    749.0491     13.0165     56.2937
   362.0000      0.0000    749.0393     12.9934     54.5518
   362.2500      0.0000    748.9855     12.9867     56.1895
   362.5000      0.0000    748.8951     12.9762     61.3208
   362.7500      0.0000    748.7951     12.9282     68.1425
   363.0000      0.0000    748.7167     12.8277     74.0124
   363.2500      0.0000    748.6812     12.6943     77.0989
   363.5000      0.0000    748.6710     12.5620     77.0461
   363.7500      0.0000    748.5874     12.4474     74.3222
   364.0000      0.0000    748.2136     12.3416     69.6228
   364.2500      0.0000    747.2953     12.2295     64.1317
   364.5000      0.0000    745.8335     12.1090     59.7424
   364.7500      0.0000    744.3765     11.9906     58.3891
   365.0000      0.0000    743.8016     11.8823     60.9760
   365.2500      0.0000    744.5536     11.7800     66.8016
   365.5000      0.0000    746.1894     11.6757     73.8106
   365.7500      0.0000    747.8261     11.5725     79.6007
   366.0000      0.0000    748.8947     11.4887     82.7743
   366.2500      0.0000    749.3574     11.4424     83.6022
   366.5000      0.0000    749.4373     11.4345     83.2911
   366.7500      0.0000    749.3594     11.4460     82.7083
   367.0000      0.0000    749.2842     11.4551     81.9263
   367.2500      0.0000    749.3053     11.4574     80.6659
   367.5000      0.0000    749.4352     11.4675     78.8467
   367.7500      0.0000    749.6166     11.4998     76.8571
   368.0000      0.0000    749.8088     11.5522     75.5753
   368.2500      0.0000    750.1274     11.6136     76.0087
   368.5000      0.0000    750.9623     11.6818     78.5642
   368.7500      0.0000    752.9149     11.7670     82.4906
   369.0000      0.0000    756.4634     11.8793     86.1066
   369.2500      0.0000    761.5826     12.0131     87.8496
   369.5000      0.0000    767.7441     12.1432     87.4561
   369.7500      0.0000    774.2659     12.2400     86.1501
   370.0000      0.0000    780.4865     12.2878     85.4163
   370.2500      0.0000    785.7119     12.2899     85.5474
   370.5000      0.0000    789.4019     12.2577     85.6133
   370.7500      0.0000    791.5137     12.2020     84.7948
   371.0000      0.0000    792.4882     12.1319     83.2748
   371.2500      0.0000    792.8870     12.0535     81.7524
   371.5000      0.0000    793.0973     11.9690     80.7020
   371.7500      0.0000    793.2778     11.8784     80.3477
   372.0000      0.0000    793.4450     11.7830     80.7034
   372.2500      0.0000    793.5724     11.6868     81.2816
   372.5000      0.0000    793.6558     11.5950     81.4060
   372.7500      0.0000    793.7121     11.5138     81.1962
   373.0000      0.0000    793.7594     11.4504     81.6970
   373.2500      0.0000    793.8098     11.4085     83.6388
   373.5000      0.0000    793.8750     11.3829     86.3158
   373.7500      0.0000    793.9624     11.3617     87.9692
   374.0000      0.0000    794.0599     11.3335     87.4268
   374.2500      0.0000    794.1359     11.2940     85.3962
   374.5000      0.0000    794.1658     11.2463     83.9696
   374.7500      0.0000    794.1630     11.1937     84.7739
   375.0000      0.0000    794.1753     11.1324     87.7696
   375.2500      0.0000    794.2471     11.0523     91.6499
   375.5000      0.0000    794.3865     10.9465     94.8072
   375.7500      0.0000    794.5930     10.8179     95.8956
   376.0000      0.0000    794.9423     10.6792     94.2692
   376.2500      0.0000    795.6807     10.5473     90.4366
   376.5000      0.0000    797.1431     10.4348     85.7633
   376.7500      0.0000    799.3278     10.3400     81.4491
   377.0000      0.0000    801.4814     10.2448     78.0944
   377.2500      0.0000    802.5173     10.1308     76.0933
   377.5000      0.0000    802.2888     10.0051     75.6949
   377.7500      0.0000    802.2145      9.9071     76.6584
   378.0000      0.0000    804.0107      9.8821     78.4337
   378.2500      0.0000    807.6620      9.9439     80.6971
   378.5000      0.0000    811.0777     10.0650     83.3984
   378.7500      0.0000    812.1346     10.2020     86.3171
   379.0000      0.0000    810.8660     10.3267     88.7940
   379.2500      0.0000    809.1707     10.4324     89.9577
   379.5000      0.0000    808.5738     10.5181     89.2490
   379.7500      0.0000    808.9587     10.5788     86.7864
   380.0000      0.0000    809.3475     10.6200     83.2501
   380.2500      0.0000    808.9760     10.6701     79.4359
   380.5000      0.0000    807.4545     10.7613     75.8718
   380.7500      0.0000    804.7834     10.8945     72.7521
   381.0000      0.0000    801.5759     11.0327     70.0665
   381.2500      0.0000    798.7808     11.1299     67.6874
   381.5000      0.0000    796.9882     11.1616     65.5216
   381.7500      0.0000    796.1589     11.1282     63.7282
   382.0000      0.0000    795.9199     11.0415     62.7556
   382.2500      0.0000    795.9235     10.9162     63.0782
   382.5000      0.0000    795.9838     10.7753     64.7382
   382.7500      0.0000    796.0563     10.6557     67.0905
   383.0000      0.0000    796.1434     10.5985     69.2418
   383.2500      0.0000    796.2030     10.6271     70.8427
   383.5000      0.0000    796.1533     10.7326     72.1852
   383.7500      0.0000    795.9501     10.8848     73.4392
   384.0000      0.0000    795.6317     11.0568     74.1908
   384.2500      0.0000    795.2794     11.2402     74.0007
   384.5000      0.0000    794.9630     11.4353     73.2753
   384.7500      0.0000    794.7313     11.6370     73.3333
   385.0000      0.0000    794.6528     11.8344     75.3607
   385.2500      0.0000    794.9114     12.0218     79.2931
   385.5000      0.0000    795.9580     12.2034     83.8821
   385.7500      0.0000    798.5311     12.3863     87.6844
   386.0000      0.0000    803.1960     12.5683     89.8014
   386.2500      0.0000    809.4365     12.7323     90.0924
   386.5000      0.0000    815.2516     12.8555     89.2189
   386.7500      0.0000    818.3554     12.9302     88.3929
   387.0000      0.0000    818.3404     12.9709     88.6634
   387.2500      0.0000    817.3985     12.9974     90.2318
   387.5000      0.0000    818.3166     13.0142     92.2437
   387.7500      0.0000    821.7207     13.0120     93.2428
   388.0000      0.0000    825.4683     12.9895     92.2748
   388.2500      0.0000    826.4214     12.9649     89.8709
   388.5000      0.0000    822.4462     12.9626     87.7757
   388.7500      0.0000    813.2931     12.9939     87.4848
   389.0000      0.0000    800.2418     13.0477     89.0093
   389.2500      0.0000    784.6467     13.0953     91.1011
   389.5000      0.0000    765.9896     13.0964     92.5529
   389.7500      0.0000    741.7269     12.9975     92.8523
   390.0000      0.0000    710.9423     12.7277     91.5807
   390.2500      0.0000    678.6500     12.2251     88.1082
   390.5000      0.0000    654.4358     11.5139     82.5277
   390.7500      0.0000    646.1155     10.7542     76.3901
   391.0000      0.0000    656.4098     10.1583     71.7160
   391.2500      0.0000    683.6013      9.8361     69.2388
   391.5000      0.0000    720.1907      9.7551     68.0296
   391.7500      0.0000    752.8373      9.8313     66.8499
   392.0000      0.0000    770.5748      9.9991     65.5197
   392.2500      0.0000    773.7200     10.2103     64.9732
   392.5000      0.0000    772.1341     10.4276     66.3866
   392.7500     -2.0000    776.0413     10.6280     70.4737
   393.0000      0.0000    788.9684     10.8056     77.2218
   393.2500      0.0000    805.9253     10.9791     85.8310
   393.5000      0.0000    816.2656     11.1873     94.9870
