~Version Information
VERS.                      2.0: CWLS Log ASCII Standard - VERSION 2.0
WRAP.                       NO: One line per depth step
~Well Information Block
STRT.FT                -5.5000: 
STOP.FT              2262.7500: 
STEP.FT                 0.2500: 
NULL.                -999.2500: 
COMP.          Pioneer Natural Resources: COMPANY
WELL.             Baa Baa 34-1: WELL
FLD.           Purgatorie River: FIELD
LOC.           617' FSL & 2289' FEL------: LOCATION
STAT.                       CO: State
CNTY.               Las Animas: COUNTY
CTRY. USA : Country
SECT. 1 : Section
TOWN. 33S : Township
RANG. 67W : Range
SRVC.          Patterson Wireline: SERVICE COMPANY
DATE.          Mon Sep 12 14:08:52 2005: LOG DATE
API.           05 071 08502 00: UNIQUE WELL ID
~Curve Information Block
DEPT.FT            0 000 00 00: Depth
LTEN.lb                       : Surface Line Tension
CCL.                          : Casing Collar Locator
TT3.usec                      : CBL 3' Travel Time
AMP3.mV                       : CBL 3' Amplitude
GR.GAPI                       : Gamma Ray
~Parameter Information Block
~A  Depth       LTEN        CCL         TT3         AMP3         GR     
# ...
  1338.5000  -4537.1924      0.0000    793.0394      5.9295    124.7805
  1338.7500  -4533.1958      0.0000    793.2363      5.8663    115.5458
  1339.0000  -4535.8604      0.0000    789.9613      5.7966    103.6415
  1339.2500  -4534.5283      0.0000    785.4257      5.7222     92.2713
  1339.5000  -4533.1958      0.0000    781.0861      5.6388     83.1840
  1339.7500  -4537.1924      0.0000    775.2433      5.5459     76.4663
  1340.0000  -4533.1958      0.0000    765.1623      5.4556     71.7518
  1340.2500  -4538.5244      0.0000    751.4016      5.3878     69.1348
  1340.5000  -4534.5283      0.0000    739.2000      5.3549     69.1036
  1340.7500  -4535.8604      0.0000    734.5215      5.3534     71.8636
  1341.0000  -4538.5244      0.0000    738.3141      5.3711     76.6123
  1341.2500  -4535.8604      0.0000    744.9816      5.4010     81.5469
  1341.5000  -4530.5317      0.0000    747.2795      5.4459     85.1851
  1341.7500  -4531.8638      0.0000    743.4163      5.5130     87.8606
  1342.0000  -4535.8604      0.0000    738.9203      5.6054     91.3288
  1342.2500  -4537.1924      0.0000    740.5316      5.7180     96.6332
  1342.5000  -4531.8638      0.0000    748.7512      5.8400    102.8215
  1342.7500  -4533.1958      0.0000    757.6921      5.9617    107.8641
  1343.0000  -4534.5283      0.0000    761.8242      6.0783    110.4302
  1343.2500  -4538.5244      0.0000    761.2841      6.1851    110.7286
  1343.5000  -4531.8638      0.0000    760.5095      6.2729    110.0332
  1343.7500  -4535.8604      0.0000    763.1634      6.3305    109.7436
  1344.0000  -4534.5283      0.0000    769.2683      6.3537    110.9069
  1344.2500  -4534.5283      0.0000    776.3627      6.3498    114.4161
  1344.5000  -4535.8604      0.0000    781.8057      6.3317    121.1638
  1344.7500  -4538.5244      0.0000    783.4412      6.3065    131.4704
  1345.0000  -4533.1958      0.0000    779.1261      6.2720    144.0184
  1345.2500  -4533.1958      0.0000    766.9386      6.2249    155.5954
  1345.5000  -4527.8677      0.0000    746.8984      6.1715    162.6330
  1345.7500  -4533.1958      0.0000    722.9901      6.1270    163.5013
  1346.0000  -4535.8604      0.0000    702.8709      6.1057    159.3123
  1346.2500  -4535.8604      0.0000    693.8633      6.1092    152.6451
  1346.5000  -4538.5244      0.0000    698.0687      6.1250    145.6632
  1346.7500  -4537.1924      0.0000    711.3828      6.1375    139.1634
  1347.0000  -4539.8569      0.0000    727.0222      6.1390    132.9863
  1347.2500  -4533.1958      0.0000    739.2265      6.1292    127.0401
  1347.5000  -4537.1924      0.0000    744.3754      6.1067    121.7642
  1347.7500  -4534.5283      0.0000    741.1596      6.0660    117.7154
  1348.0000  -4535.8604      0.0000    731.5438      6.0036    114.8709
  1348.2500  -4538.5244      0.0000    721.0030      5.9274    112.3639
  1348.5000  -4535.8604      0.0000    715.8423      5.8567    109.0535
  1348.7500  -4531.8638      0.0000    719.0060      5.8137    104.5990
  1349.0000  -4531.8638      0.0000    728.4335      5.8091     99.9000
  1349.2500  -4534.5283      0.0000    739.3184      5.8335     96.5235
  1349.5000  -4531.8638      0.0000    747.8079      5.8625     95.9847
  1349.7500  -4531.8638      0.0000    753.3088      5.8731     99.3965
  1350.0000  -4534.5283      0.0000    757.7661      5.8568    107.0094
  1350.2500  -4531.8638      0.0000    762.0712      5.8185    117.6528
  1350.5000  -4533.1958      0.0000    763.0398      5.7670    129.0360
  1350.7500  -4533.1958      0.0000    755.0514      5.7109    139.0500
  1351.0000  -4533.1958      0.0000    735.5995      5.6608    146.6906
  1351.2500  -4534.5283      0.0000    709.7171      5.6287    151.7153
  1351.5000  -4534.5283      0.0000    688.9205      5.6186    153.7923
  1351.7500  -4538.5244      0.0000    684.5117      5.6226    152.1513
  1352.0000  -4531.8638      0.0000    699.8652      5.6314    145.9004
  1352.2500  -4538.5244      0.0000    727.7802      5.6472    134.9201
  1352.5000  -4531.8638      0.0000    755.4230      5.6847    120.9882
  1352.7500  -4538.5244      0.0000    773.0669      5.7598    107.8217
  1353.0000  -4537.1924      0.0000    779.1979      5.8777     98.9711
  1353.2500  -4533.1958      0.0000    778.5381      6.0264     95.1021
  1353.5000  -4534.5283      0.0000    776.6321      6.1802     93.6485
  1353.7500  -4530.5317      0.0000    776.3563      6.3094     91.1607
  1354.0000  -4534.5283      0.0000    777.7336      6.3874     85.8442
  1354.2500  -4537.1924      0.0000    779.3160      6.3956     78.5359
  1354.5000  -4531.8638      0.0000    779.6575      6.3312     72.1323
  1354.7500  -4531.8638      0.0000    778.5668      6.2143     69.7946
  1355.0000  -4534.5283      0.0000    777.3442      6.0812     72.9541
  1355.2500  -4533.1958      0.0000    777.3785      5.9626     80.9587
  1355.5000  -4531.8638      0.0000    778.2355      5.8631     92.5756
  1355.7500  -4531.8638      0.0000    777.4149      5.7624    107.1125
  1356.0000  -4533.1958      0.0000    772.3586      5.6404    123.5824
  1356.2500  -4530.5317      0.0000    763.0295      5.5028    139.3291
  1356.5000  -4531.8638      0.0000    752.4437      5.3828    150.4682
  1356.7500  -4537.1924      0.0000    744.1940      5.3164    154.2217
  1357.0000  -4539.8569      0.0000    739.6623      5.3194    150.8146
  1357.2500  -4535.8604      0.0000    738.4031      5.3839    142.9711
  1357.5000  -4538.5244      0.0000    740.2880      5.4898    133.8089
  1357.7500  -4534.5283      0.0000    745.4992      5.6134    125.3831
  1358.0000  -4531.8638      0.0000    753.1769      5.7289    118.6398
  1358.2500  -4535.8604      0.0000    761.7128      5.8086    113.9083
  1358.5000  -4531.8638      0.0000    769.6718      5.8351    111.1876
  1358.7500  -4533.1958      0.0000    775.6558      5.8155    110.1674
  1359.0000  -4535.8604      0.0000    778.5146      5.7801    110.0462
  1359.2500  -4530.5317      0.0000    778.5507      5.7596    109.4927
  1359.5000  -4535.8604      0.0000    777.8039      5.7616    107.3518
  1359.7500  -4535.8604      0.0000    778.4493      5.7709    103.9222
  1360.0000  -4535.8604      0.0000    780.9637      5.7708    101.4974
  1360.2500  -4534.5283      0.0000    783.9940      5.7624    103.1627
  1360.5000  -4533.1958      0.0000    785.6306      5.7618    110.5057
  1360.7500  -4534.5283      0.0000    784.4990      5.7781    122.2864
  1361.0000  -4535.8604      0.0000    779.8884      5.7977    135.4451
  1361.2500  -4537.1924      0.0000    771.4341      5.7927    147.3847
  1361.5000  -4533.1958      0.0000    758.9829      5.7473    157.0673
  1361.7500  -4541.1890      0.0000    742.8948      5.6750    164.0831
  1362.0000  -4533.1958      0.0000    724.7444      5.6073    167.5302
  1362.2500  -4531.8638      0.0000    707.5364      5.5677    166.5910
  1362.5000  -4531.8638      0.0000    694.5048      5.5583    161.9955
  1362.7500  -4534.5283      0.0000    687.2167      5.5661    156.1788
  1363.0000  -4534.5283      0.0000    684.8810      5.5767    151.7415
  1363.2500  -4534.5283      0.0000    685.4911      5.5823    149.9245
  1363.5000  -4534.5283      0.0000    687.3199      5.5798    150.4266
  1363.7500  -4538.5244      0.0000    689.3077      5.5644    152.1749
  1364.0000  -4533.1958      0.0000    690.6816      5.5262    154.1254
  1364.2500  -4531.8638      0.0000    691.0197      5.4564    155.7757
  1364.5000  -4533.1958      0.0000    690.7667      5.3600    157.2957
  1364.7500  -4534.5283      0.0000    691.1613      5.2554    158.9782
  1365.0000  -4530.5317      0.0000    693.2973      5.1593    160.2434
  1365.2500  -4535.8604      0.0000    697.3304      5.0779    159.4059
  1365.5000  -4537.1924      0.0000    702.7079      5.0143    155.0857
  1365.7500  -4535.8604      0.0000    708.9205      4.9799    148.1145
  1366.0000  -4535.8604      0.0000    715.4808      4.9911    141.6845
  1366.2500  -4531.8638      0.0000    721.0582      5.0537    139.3453
