~Version Information
VERS.                      2.0: CWLS Log ASCII Standard - VERSION 2.0
WRAP.                       NO: One line per depth step
~Well Information Block
STRT.FT               295.7500: 
STOP.FT              1461.0000: 
STEP.FT                 0.2500: 
NULL.                -999.2500: 
COMP.          Pioneer Natural Resources: COMPANY
WELL.              Lucky 21-36: WELL
FLD.           Purgatoire River: FIELD
LOC.           799' FNL & 1578' FWL--: LOCATION
CDN. :
PROV. :
UWI. :
STAT. :
CNTY. :
CTRY. :
API. :
COMP. :
WELL. :
FLD. :
LOC. :
DATE. :
SRVC. :
CNTY.               Las Animas: COUNTY
SRVC.          Superior Well Services: SERVICE COMPANY
DATE.          Mon Jul 07 19-13-01 2008: LOG DATE
UWI.           05 071 08456 00: UNIQUE WELL ID
STAT.                 Colorado: STATE
~Curve Information Block
DEPT.FT            0 000 00 00: Depth
SN.Ohm-m                      : IEL Short Normal
SP.mV                         : IEL Spontaneous Potential
DIR.Ohm-m                     : IEL Induction Resistivity
GR.GAPI                       : Gamma Ray
~Parameter Information Block
~A  Depth        SN          SP         DIR          GR     
# ...
   697.7500   2000.0000   1980.0000     13.5037    115.9579
   698.0000   2000.0000   1980.0000     13.5766    115.3703
   698.2500   2000.0000   1980.0000     13.6970    114.9214
   698.5000   2000.0000   1980.0000     13.8651    114.8663
   698.7500   2000.0000   1980.0000     14.0769    114.9448
   699.0000   2000.0000   1980.0000     14.3241    115.0431
   699.2500   2000.0000   1980.0000     14.5957    114.9077
   699.5000   2000.0000   1980.0000     14.8812    114.1757
   699.7500   2000.0000   1980.0000     15.1751    111.5159
   700.0000   2000.0000   1980.0000     15.4792    108.8603
   700.2500   2000.0000   1980.0000     15.8003    104.6009
   700.5000   2000.0000   1980.0000     16.1453    102.1507
   700.7500   2000.0000   1980.0000     16.5151     99.2963
   701.0000   2000.0000   1980.0000     16.8999     97.7929
   701.2500   2000.0000   1980.0000     17.2787     96.1129
   701.5000   2000.0000   1980.0000     17.6202     95.5873
   701.7500   2000.0000   1980.0000     17.8877     95.9997
   702.0000   2000.0000   1980.0000     18.0461     97.0787
   702.2500   2000.0000   1980.0000     18.0718     99.6739
   702.5000   2000.0000   1980.0000     17.9588    101.7959
   702.7500   2000.0000   1980.0000     17.7180    104.9842
   703.0000   2000.0000   1980.0000     17.3715    106.9427
   703.2500   2000.0000   1980.0000     16.9442    109.9704
   703.5000   2000.0000   1980.0000     16.4581    112.3807
   703.7500   2000.0000   1980.0000     15.9313    116.5176
   704.0000   2000.0000   1980.0000     15.3805    119.0542
   704.2500   2000.0000   1980.0000     14.8245    121.3069
   704.5000   2000.0000   1980.0000     14.2827    121.4874
   704.7500   2000.0000   1980.0000     13.7725    120.5517
   705.0000   2000.0000   1980.0000     13.3084    119.9978
   705.2500   2000.0000   1980.0000     12.9018    120.1884
   705.5000   2000.0000   1980.0000     12.5616    120.8171
   705.7500   2000.0000   1980.0000     12.2915    121.5805
   706.0000   2000.0000   1980.0000     12.0873    121.6251
   706.2500   2000.0000   1980.0000     11.9356    121.2190
   706.5000   2000.0000   1980.0000     11.8183    121.1171
   706.7500   2000.0000   1980.0000     11.7177    122.0125
   707.0000   2000.0000   1980.0000     11.6199    123.3512
   707.2500   2000.0000   1980.0000     11.5157    125.6986
   707.5000   2000.0000   1980.0000     11.3972    126.9075
   707.7500   2000.0000   1980.0000     11.2583    127.7232
   708.0000   2000.0000   1980.0000     11.0959    127.7413
   708.2500   2000.0000   1980.0000     10.9125    127.4889
   708.5000   2000.0000   1980.0000     10.7167    127.2486
   708.7500   2000.0000   1980.0000     10.5203    126.5726
   709.0000   2000.0000   1980.0000     10.3341    125.8893
   709.2500   2000.0000   1980.0000     10.1647    125.0002
   709.5000   2000.0000   1980.0000     10.0136    124.8010
   709.7500   2000.0000   1980.0000      9.8789    125.0488
   710.0000   2000.0000   1980.0000      9.7592    125.3614
   710.2500   2000.0000   1980.0000      9.6559    126.0349
   710.5000   2000.0000   1980.0000      9.5730    126.8902
   710.7500   2000.0000   1980.0000      9.5156    129.0527
   711.0000   2000.0000   1980.0000      9.4872    130.8115
   711.2500   2000.0000   1980.0000      9.4891    133.2232
   711.5000   2000.0000   1980.0000      9.5210    134.6993
   711.7500   2000.0000   1980.0000      9.5818    137.4172
   712.0000   2000.0000   1980.0000      9.6699    139.6384
   712.2500   2000.0000   1980.0000      9.7819    142.4165
   712.5000   2000.0000   1980.0000      9.9125    142.9609
   712.7500   2000.0000   1980.0000     10.0555    141.1031
   713.0000   2000.0000   1980.0000     10.2056    138.3622
   713.2500   2000.0000   1980.0000     10.3611    133.0102
   713.5000   2000.0000   1980.0000     10.5267    129.0778
   713.7500   2000.0000   1980.0000     10.7132    123.0044
   714.0000   2000.0000   1980.0000     10.9353    119.0138
   714.2500   2000.0000   1980.0000     11.2065    113.5782
   714.5000   2000.0000   1980.0000     11.5356    110.5692
   714.7500   2000.0000   1980.0000     11.9253    107.1459
   715.0000   2000.0000   1980.0000     12.3729    105.6201
   715.2500   2000.0000   1980.0000     12.8694    104.4364
   715.5000   2000.0000   1980.0000     13.3969    104.0679
   715.7500   2000.0000   1980.0000     13.9233    102.9030
   716.0000   2000.0000   1980.0000     14.4024    101.1433
   716.2500   2000.0000   1980.0000     14.7813     97.7080
   716.5000   2000.0000   1980.0000     15.0156     96.1634
   716.7500   2000.0000   1980.0000     15.0839     96.9083
   717.0000   2000.0000   1980.0000     14.9906     99.7497
   717.2500   2000.0000   1980.0000     14.7583    106.8569
   717.5000   2000.0000   1980.0000     14.4147    112.7840
   717.7500   2000.0000   1980.0000     13.9846    121.9938
   718.0000   2000.0000   1980.0000     13.4886    127.4512
   718.2500   2000.0000   1980.0000     12.9474    133.4193
   718.5000   2000.0000   1980.0000     12.3852    135.6299
   718.7500   2000.0000   1980.0000     11.8282    136.5738
   719.0000   2000.0000   1980.0000     11.2993    136.1138
   719.2500   2000.0000   1980.0000     10.8137    134.8703
   719.5000   2000.0000   1980.0000     10.3778    134.2567
   719.7500   2000.0000   1980.0000      9.9925    134.1726
   720.0000   2000.0000   1980.0000      9.6570    134.5669
   720.2500   2000.0000   1980.0000      9.3718    135.3144
   720.5000   2000.0000   1980.0000      9.1392    135.7754
   720.7500   2000.0000   1980.0000      8.9619    136.4905
   721.0000   2000.0000   1980.0000      8.8417    136.8463
   721.2500   2000.0000   1980.0000      8.7784    136.2390
   721.5000   2000.0000   1980.0000      8.7690    134.4159
   721.7500   2000.0000   1980.0000      8.8072    129.1330
   722.0000   2000.0000   1980.0000      8.8814    124.1801
   722.2500   2000.0000   1980.0000      8.9751    115.6039
   722.5000   2000.0000   1980.0000      9.0679    109.9274
   722.7500   2000.0000   1980.0000      9.1396    103.2190
   723.0000   2000.0000   1980.0000      9.1749    100.9734
   723.2500   2000.0000   1980.0000      9.1656    101.8737
   723.5000   2000.0000   1980.0000      9.1100    105.0125
   723.7500   2000.0000   1980.0000      9.0101    111.7619
   724.0000   2000.0000   1980.0000      8.8698    116.4597
   724.2500   2000.0000   1980.0000      8.6949    122.6260
   724.5000   2000.0000   1980.0000      8.4942    126.0472
   724.7500   2000.0000   1980.0000      8.2785    130.5151
   725.0000   2000.0000   1980.0000      8.0597    133.3341
   725.2500   2000.0000   1980.0000      7.8490    137.6861
   725.5000   2000.0000   1980.0000      7.6560    140.6715
   725.7500   2000.0000   1980.0000      7.4874    144.6845
   726.0000   2000.0000   1980.0000      7.3469    146.4544
   726.2500   2000.0000   1980.0000      7.2354    147.0602
   726.5000   2000.0000   1980.0000      7.1522    146.3250
   726.7500   2000.0000   1980.0000      7.0963    144.9967
   727.0000   2000.0000   1980.0000      7.0662    144.9414
   727.2500   2000.0000   1980.0000      7.0589    146.7655
   727.5000   2000.0000   1980.0000      7.0689    148.7363
   727.7500   2000.0000   1980.0000      7.0887    150.9072
   728.0000   2000.0000   1980.0000      7.1107    150.8533
   728.2500   2000.0000   1980.0000      7.1294    148.3157
   728.5000   2000.0000   1980.0000      7.1434    145.7364
   728.7500   2000.0000   1980.0000      7.1543    142.1975
   729.0000   2000.0000   1980.0000      7.1667    140.6818
   729.2500   2000.0000   1980.0000      7.1856    139.9795
   729.5000   2000.0000   1980.0000      7.2169    140.4927
   729.7500   2000.0000   1980.0000      7.2655    142.5067
   730.0000   2000.0000   1980.0000      7.3354    144.5264
   730.2500   2000.0000   1980.0000      7.4287    148.1410
   730.5000   2000.0000   1980.0000      7.5471    150.4191
   730.7500   2000.0000   1980.0000      7.6930    152.1956
   731.0000   2000.0000   1980.0000      7.8689    151.4657
