~Version Information
VERS.                      2.0: CWLS Log ASCII Standard - VERSION 2.0
WRAP.                       NO: One line per depth step
~Well Information Block
STRT.FT               430.0000: 
STOP.FT              2074.0000: 
STEP.FT                 0.1000: 
NULL.                -999.2500: 
COMP.          Pioneer Natural Resources: COMPANY
WELL.             Fleming 11-2: WELL
FLD.           Purgatoire River: FIELD
LOC.           534' FNL & 160' FWL: LOCATION
CNTY.               Las Animas: COUNTY
SRVC.                Patterson: SERVICE COMPANY
DATE.          Tue Jun 27 10:07:47 2006: LOG DATE
UWI.           05 071 08491 00: UNIQUE WELL ID
STAT.                 Colorado: STATE
~Curve Information Block
DEPT.FT            0 000 00 00: Depth
DCAL.in                       : CDL Caliper
RHOB.g/cc                     : CDL Bulk Density
RHOC.g/cc                     : CDL Density Correction
DPOR.pu                       : CDL Density Porosity
GR.GAPI                       : Gamma Ray
NPOR.pu                       : Neutron Porosity
~Parameter Information Block
~A  Depth       DCAL        RHOB        RHOC        DPOR         GR         NPOR    
# ...
   650.8000      8.1092      2.5457      0.0809      6.3222    129.8073     30.1173
   650.9000      8.1092      2.5695      0.0455      4.8772    123.4861     29.9794
   651.0000      8.1026      2.6054      0.0870      2.7055    114.5381     29.9942
   651.1000      8.1026      2.6462      0.1683      0.2317    114.0617     29.6559
   651.2000      8.1026      2.6788      0.1478     -1.7472    120.5564     28.9490
   651.3000      8.0981      2.7033      0.1618     -3.2283    124.4604     28.7137
   651.4000      8.0981      2.7221      0.1269     -4.3686    122.1873     28.6502
   651.5000      8.0977      2.7296      0.1660     -4.8234    117.5465     27.9051
   651.6000      8.0977      2.7153      0.1208     -3.9600    116.3533     27.0432
   651.7000      8.0977      2.6763      0.1015     -1.5922    120.2718     26.8454
   651.8000      8.0962      2.6256      0.0029      1.4793    123.3319     27.0228
   651.9000      8.0962      2.5789      0.0682      4.3073    120.7912     27.0121
   652.0000      8.0910      2.5315      0.0167      7.1824    115.2840     26.4578
   652.1000      8.0910      2.4812      0.0022     10.2290    109.1310     25.3444
   652.2000      8.0910      2.4392     -0.0127     12.7736    105.7697     24.2453
   652.3000      8.0874      2.4171     -0.0275     14.1124    111.4310     23.8782
   652.4000      8.0874      2.4227      0.0302     13.7761    123.4625     24.4259
   652.5000      8.0867      2.4524      0.1040     11.9769    131.9115     25.3610
   652.6000      8.0867      2.4968      0.1117      9.2834    132.7791     26.1470
   652.7000      8.0867      2.5460      0.2000      6.3010    128.3271     26.8520
   652.8000      8.0863      2.5896      0.1862      3.6605    122.4610     27.5138
   652.9000      8.0863      2.6247      0.1965      1.5305    120.7835     27.9312
   653.0000      8.0873      2.6547      0.1851     -0.2826    123.7291     28.2145
   653.1000      8.0873      2.6719      0.2506     -1.3261    125.8909     28.4138
   653.2000      8.0873      2.6634      0.2079     -0.8144    126.5333     28.2900
   653.3000      8.0947      2.6457      0.1232      0.2598    127.6148     28.0190
   653.4000      8.0947      2.6477      0.1673      0.1416    130.1051     28.0276
   653.5000      8.1053      2.6680      0.1578     -1.0936    131.7200     28.3171
   653.6000      8.1053      2.6835      0.1218     -2.0311    128.2599     28.7230
   653.7000      8.1053      2.6810      0.0713     -1.8785    121.5414     29.0227
   653.8000      8.1057      2.6710      0.0291     -1.2726    115.6031     29.0074
   653.9000      8.1057      2.6622      0.0582     -0.7382    110.8350     28.7778
   654.0000      8.0933      2.6450      0.0577      0.3042    108.6600     28.5862
   654.1000      8.0933      2.6154      0.0182      2.0967    110.2858     28.1212
   654.2000      8.0933      2.5798     -0.0010      4.2521    114.7693     27.3231
   654.3000      8.0801      2.5439     -0.0601      6.4280    120.3244     26.7906
   654.4000      8.0801      2.5195     -0.0878      7.9068    122.3589     26.7401
   654.5000      8.0835      2.5161     -0.0394      8.1171    117.9727     27.2561
   654.6000      8.0835      2.5207      0.0430      7.8370    111.3143     28.6966
   654.7000      8.0835      2.5175     -0.0180      8.0298    109.1864     30.4491
   654.8000      8.0956      2.5149     -0.0199      8.1876    112.7412     31.1739
   654.9000      8.0956      2.5310      0.0010      7.2122    114.7925     31.1775
   655.0000      8.1005      2.5713      0.0125      4.7716    113.0050     31.5202
   655.1000      8.1005      2.6195      0.1067      1.8460    112.3431     31.9065
   655.2000      8.1005      2.6505      0.0713     -0.0294    110.4103     31.6442
   655.3000      8.0928      2.6653      0.0660     -0.9254    104.5688     30.9484
   655.4000      8.0928      2.6823      0.0820     -1.9604     97.4679     30.5131
   655.5000      8.0670      2.7092      0.0372     -3.5898     88.1257     30.7989
   655.6000      8.0670      2.7350      0.0811     -5.1517     77.5607     31.3254
   655.7000      8.0670      2.7369      0.0664     -5.2664     71.7207     31.0424
   655.8000      8.0327      2.7141      0.0071     -3.8844     71.3996     29.7204
   655.9000      8.0327      2.6895     -0.0192     -2.3963     70.3750     28.1624
   656.0000      8.0123      2.6752     -0.0348     -1.5297     66.0405     27.1258
   656.1000      8.0123      2.6589      0.0059     -0.5402     63.1207     26.4113
   656.2000      8.0123      2.6277     -0.0358      1.3528     63.6390     25.4841
   656.3000      8.0042      2.5899     -0.0547      3.6440     65.2698     24.4042
   656.4000      8.0042      2.5564     -0.0534      5.6756     67.8525     23.6625
   656.5000      8.0017      2.5249     -0.0691      7.5828     72.6908     23.3108
   656.6000      8.0017      2.4980     -0.0695      9.2092     80.4576     23.2643
   656.7000      8.0017      2.4887     -0.0056      9.7774     89.9591     23.4540
   656.8000      8.0040      2.4949      0.0520      9.3982     99.1513     23.5973
   656.9000      8.0040      2.4973      0.0682      9.2560    107.0576     23.6048
   657.0000      8.0126      2.4860      0.0439      9.9385    111.8038     23.7510
   657.1000      8.0126      2.4723      0.0340     10.7681    113.5812     24.2494
   657.2000      8.0126      2.4696      0.0000     10.9309    115.1378     24.4201
   657.3000      8.0254      2.4740      0.0524     10.6658    117.6852     23.6419
   657.4000      8.0254      2.4627      0.0726     11.3492    120.9670     22.6986
   657.5000      8.0337      2.4292      0.0106     13.3834    125.3770     21.9245
   657.6000      8.0337      2.3961      0.0102     15.3900    131.5639     20.5419
   657.7000      8.0337      2.3701      0.0207     16.9621    134.9713     18.8997
   657.8000      8.0403      2.3281      0.0292     19.5068    130.3436     17.8909
   657.9000      8.0403      2.2544     -0.0165     23.9758    122.8903     17.5473
   658.0000      8.0540      2.1508     -0.0232     30.2534    119.3344     17.8691
   658.1000      8.0540      2.0233     -0.0401     37.9833    116.2938     18.7546
   658.2000      8.0540      1.8952     -0.1147     45.7465    109.7238     19.5864
   658.3000      8.0781      1.7961     -0.0684     51.7491    100.8595     20.5838
   658.4000      8.0781      1.7358     -0.1407     55.4089     93.1525     22.5397
   658.5000      8.1028      1.7174     -0.1197     56.5184     88.6366     25.0337
   658.6000      8.1028      1.7452     -0.0691     54.8350     86.6173     27.1720
   658.7000      8.1028      1.8187      0.0289     50.3828     85.0791     28.7014
   658.8000      8.1095      1.9268      0.1699     43.8294     83.7994     29.8168
   658.9000      8.1095      2.0525      0.2480     36.2116     83.9499     30.8530
   659.0000      8.0954      2.1844      0.2916     28.2190     82.6585     31.7015
   659.1000      8.0954      2.3180      0.2497     20.1223     78.9757     31.9810
   659.2000      8.0954      2.4421      0.2863     12.5992     76.4044     31.5889
   659.3000      8.0709      2.5265      0.2495      7.4875     77.7278     30.7509
   659.4000      8.0709      2.5578      0.0776      5.5907     84.3793     29.7275
   659.5000      8.0460      2.5608      0.0431      5.4034     93.1042     28.6668
   659.6000      8.0460      2.5642      0.0168      5.1990     97.4791     27.9002
   659.7000      8.0460      2.5762      0.0079      4.4715     96.2213     27.7771
   659.8000      8.0268      2.5894      0.0219      3.6714     93.9202     27.9373
   659.9000      8.0268      2.5951      0.0329      3.3302     94.7734     27.6569
   660.0000      8.0179      2.5897      0.0142      3.6571     97.3663     27.0563
   660.1000      8.0179      2.5764     -0.0061      4.4621     96.8258     26.7512
   660.2000      8.0179      2.5656     -0.0250      5.1126     95.4870     26.8376
   660.3000      8.0152      2.5678     -0.0012      4.9815     98.2420     26.7938
