~Version Information
 VERS.                                  2.0 : CWLS LAS VERSION
 WRAP.                                   NO : WRAPING MODE
 SWARE .                MController 2.5.0QA : SOFTWARE VERSION
~Well Information
 WELL.                        Fleming 11-02 : WELL
 COMP.    Pioneer Natural Resources USA Inc : COMPANY
 FLD.                      Purgatoire River : FIELD
 LOC.                 NW/NW Sec02 T33S R66W : LOCATION
 DATE.                          06/25-27/06 : DATE(S) LOGGED
 SRVC.       Blanco Geological Services LLC : SERVICE COMPANY
 STAT.                             Colorado : STATE
 CNTY.                           Las Animas : COUNTY
 CTRY.                                  USA : COUNTRY
 API.                       05-071-08491-00 : API NUMBER
 STRT.FT                             347.00 : START DEPTH
 STOP.FT                            2080.00 : STOP DEPTH
 STEP.FT                               1.00 : DEPTH INCREMENT
 NULL.                                -9999 : NULL VALUE
~Curve information
 DEPTH.FT                                   :
 ROP.MIN/FT                                 :
 GAS.UNITS                                  :
~ASCII Log data
# ...
      1547.0         0.30       1162.3 
      1548.0         0.33       1155.8 
      1549.0         0.37       1120.4 
      1550.0         0.47       1035.0 
      1551.0         0.57        904.8 
      1552.0         2.38       1766.2 
      1553.0         0.67       1597.4 
      1554.0         0.40       1607.8 
      1555.0         0.30       1518.5 
      1556.0         0.32       1492.8 
      1557.0         0.23       1500.3 
      1558.0         0.27       1512.3 
      1559.0         0.27       1457.8 
      1560.0         0.23       1457.8 
      1561.0         0.27       1425.3 
      1562.0         0.23       1391.5 
      1563.0         0.23       1350.0 
      1564.0         0.23       1324.6 
      1565.0         0.27       1303.5 
      1566.0         0.27       1270.7 
      1567.0         0.27       1247.4 
      1568.0         0.23       1191.5 
      1569.0         0.28       1169.1 
      1570.0         0.23       1154.2 
      1571.0         0.23       1154.2 
      1572.0         0.27       1164.9 
      1573.0         0.27       1168.1 
      1574.0         0.23       1158.7 
      1575.0         0.23       1157.4 
      1576.0         0.23       1143.1 
      1577.0         0.27       1153.2 
      1578.0         0.27       1174.0 
      1579.0         0.27       1183.4 
      1580.0         0.30       1122.0 
      1581.0         0.23       1037.6 
      1582.0         3.28       1689.6 
      1583.0         0.38       1648.0 
      1584.0         0.43       1613.0 
      1585.0         0.33       1543.2 
      1586.0         0.37       1476.6 
      1587.0         0.33       1403.2 
      1588.0         0.33       1375.3 
      1589.0         0.33       1353.2 
      1590.0         0.33       1329.8 
      1591.0         0.33       1298.3 
      1592.0         0.30       1275.6 
      1593.0         0.32       1271.1 
      1594.0         0.30       1253.5 
      1595.0         0.30       1240.9 
      1596.0         0.37       1240.2 
      1597.0         0.33       1225.0 
      1598.0         0.33       1211.0 
      1599.0         0.33       1190.9 
      1600.0         0.33       1163.6 
      1601.0         0.43       1190.5 
      1602.0         0.48       1196.7 
      1603.0         0.33       1170.4 
      1604.0         0.37       1153.2 
      1605.0         0.37       1146.0 
      1606.0         0.37       1143.4 
      1607.0         0.37       1135.0 
      1608.0         0.37       1157.7 
      1609.0         0.33       1175.9 
      1610.0         0.37       1126.2 
      1611.0         0.42       1068.8 
      1612.0         3.13       1728.9 
      1613.0         0.62       1723.1 
      1614.0         0.47       1566.9 
      1615.0         0.47       1443.8 
      1616.0         0.43       1391.5 
      1617.0         0.47       1371.7 
      1618.0         0.50       1323.7 
      1619.0         0.50       1269.8 
      1620.0         0.48       1224.3 
      1621.0         0.50       1195.4 
      1622.0         0.50       1184.4 
      1623.0         0.47       1179.5 
      1624.0         0.50       1165.2 
      1625.0         0.53       1165.9 
      1626.0         0.48       1194.8 
      1627.0         0.37       1208.7 
      1628.0         0.40       1216.5 
      1629.0         0.37       1216.2 
      1630.0         0.33       1210.0 
      1631.0         0.33       1203.8 
      1632.0         0.33       1181.8 
      1633.0         0.30       1161.0 
      1634.0         0.30       1146.4 
      1635.0         0.33       1151.6 
      1636.0         0.42       1166.5 
      1637.0         0.40       1167.2 
      1638.0         0.37       1172.0 
      1639.0         0.33       1163.3 
      1640.0         0.37       1123.6 
      1641.0         0.53       1046.7 
      1642.0         3.62       2055.9 
      1643.0         0.53       1825.7 
      1644.0         0.52       1727.6 
      1645.0         0.43       1628.2 
      1646.0         0.43       1558.7 
      1647.0         0.50       1556.8 
      1648.0         0.43       1518.5 
      1649.0         0.43       1465.6 
      1650.0         0.43       1409.1 
      1651.0         0.48       1355.2 
      1652.0         0.37       1298.7 
      1653.0         0.40       1295.4 
      1654.0         0.43       1269.1 
      1655.0         0.43       1247.4 
      1656.0         0.30       1226.6 
      1657.0         0.33       1200.3 
      1658.0         0.30       1180.8 
      1659.0         0.30       1173.0 
      1660.0         0.33       1177.2 
      1661.0         0.42       1189.2 
      1662.0         0.50       1197.7 
      1663.0         0.40       1195.4 
      1664.0         0.30       1187.3 
      1665.0         0.33       1175.6 
      1666.0         0.33       1164.9 
      1667.0         0.30       1158.4 
      1668.0         0.30       1152.2 
      1669.0         0.33       1166.8 
      1670.0         0.35       1135.0 
      1671.0         0.30       1053.8 
      1672.0         3.78       2345.2 
      1673.0         0.30       1904.9 
      1674.0         0.37       1814.6 
      1675.0         0.27       1777.9 
      1676.0         0.37       1770.5 
      1677.0         0.47       1738.3 
      1678.0         0.43       1696.4 
      1679.0         0.42       1684.7 
      1680.0         0.43       1651.3 
      1681.0         0.30       1597.4 
      1682.0         0.30       1563.0 
      1683.0         0.30       1527.6 
      1684.0         0.53       1498.7 
      1685.0         0.37       1431.5 
      1686.0         0.27       1430.2 
      1687.0         0.30       1401.9 
      1688.0         0.27       1363.9 
      1689.0         0.22       1345.7 
      1690.0         0.23       1343.8 
      1691.0         0.30       1353.2 
      1692.0         0.23       1353.2 
      1693.0         0.20       1334.7 
      1694.0         0.20       1327.6 
      1695.0         0.27       1317.5 
      1696.0         0.30       1317.8 
      1697.0         0.30       1310.7 
      1698.0         0.27       1307.1 
      1699.0         0.33       1294.4 
      1700.0         0.30       1277.2 
      1701.0         0.35       1264.2 
      1702.0         4.88       2399.7 
      1703.0         0.70       1752.6 
      1704.0         0.43       1766.9 
      1705.0         0.50       1801.0 
      1706.0         0.45       1782.5 
      1707.0         0.37       1703.6 
      1708.0         0.37       1633.1 
      1709.0         0.37       1568.5 
      1710.0         0.37       1470.8 
      1711.0         0.33       1460.7 
      1712.0         0.33       1414.6 
      1713.0         0.30       1355.5 
      1714.0         0.27       1349.6 
      1715.0         0.35       1335.4 
      1716.0         0.33       1328.9 
      1717.0         0.37       1337.6 
      1718.0         0.33       1342.5 
      1719.0         0.33       1340.2 
      1720.0         0.33       1326.9 
      1721.0         0.33       1312.6 
      1722.0         0.53       1291.2 
      1723.0         0.40       1271.1 
      1724.0         0.55       1268.8 
      1725.0         0.43       1265.9 
      1726.0         0.37       1253.5 
      1727.0         0.37       1246.4 
      1728.0         0.43       1235.3 
      1729.0         0.43       1216.2 
      1730.0         0.43       1209.0 
      1731.0         0.43       1216.5 
      1732.0         3.87       2064.0 
      1733.0         0.53       1931.8 
      1734.0         0.57       1954.9 
      1735.0         0.57       1902.3 
      1736.0         0.47       1728.2 
      1737.0         0.47       1662.7 
      1738.0         0.40       1633.4 
      1739.0         0.48       1600.6 
      1740.0         0.40       1555.8 
      1741.0         0.40       1480.8 
      1742.0         0.43       1434.4 
      1743.0         0.40       1394.4 
      1744.0         0.37       1358.7 
      1745.0         0.37       1330.5 
      1746.0         0.37       1315.9 
