~Version Information
VERS.                      2.0: CWLS Log ASCII Standard - VERSION 2.0
WRAP.                       NO: One line per depth step
~Well Information Block
STRT.FT                -8.2500: 
STOP.FT               686.7500: 
STEP.FT                 0.2500: 
NULL.                -999.2500: 
COMP.          Pioneer Natural Resources: COMPANY
WELL.           Quintessa 23-7: WELL
FLD.           Purgatorie River: FIELD
LOC.           1964' FSL & 2589' FWL--: LOCATION
PROV.                       CO: PROVINCE
CNTY.               Las Animas: COUNTRY
SRVC.          Patterson Wireline: SERVICE COMPANY
DATE.          Wed Nov 23 10:31:07 2005: LOG DATE
UWI.           05 071 08558 00: UNIQUE WELL ID
~Curve Information Block
DEPT.FT            0 000 00 00: Depth
CCL.                          : Casing Collar Locator
TT3.usec                      : CBL 3' Travel Time
AMP3.mV                       : CBL 3' Amplitude
GR.GAPI                       : Gamma Ray
~Parameter Information Block
~A  Depth       CCL         TT3         AMP3         GR     
# ...
   494.2500      0.0000    325.6032     27.2493     51.0488
   494.5000      0.0000    325.6889     27.0681     50.6209
   494.7500      0.0000    325.8000     26.7937     48.7563
   495.0000      0.0000    325.9179     26.4778     45.9737
   495.2500      0.0000    326.0585     26.1561     43.0467
   495.5000      0.0000    326.3203     25.8550     40.9036
   495.7500      0.0000    327.1907     25.5918     40.1633
   496.0000      0.0000    330.1391     25.3604     40.6269
   496.2500      0.0000    338.1625     25.1350     41.5293
   496.5000      0.0000    354.6334     24.8994     42.2112
   496.7500      0.0000    379.0522     24.6730     42.2418
   497.0000      0.0000    402.9229     24.5037     41.1480
   497.2500      0.0000    413.1448     24.4350     38.6634
   497.5000      0.0000    403.1703     24.4780     35.3268
   497.7500      0.0000    379.5704     24.6090     32.4346
   498.0000      0.0000    355.3997     24.7892     31.1719
   498.2500      0.0000    339.0763     24.9842     31.7255
   498.5000      0.0000    331.0885     25.1671     33.1789
   498.7500      0.0000    328.1624     25.3150     34.2884
   499.0000      0.0000    327.5632     25.4091     34.4205
   499.2500      0.0000    328.4840     25.4348     33.7335
   499.5000      0.0000    331.8622     25.3812     32.6021
   499.7500      0.0000    339.6146     25.2494     31.3027
   500.0000      0.0000    352.6166     25.0676     30.3887
   500.2500      0.0000    367.9838     24.8937     30.7515
   500.5000      0.0000    378.8067     24.7956     32.6739
   500.7500      0.0000    378.7923     24.8213     35.0870
   501.0000      0.0000    367.9283     24.9770     36.3855
   501.2500      0.0000    352.4847     25.2263     35.9518
   501.5000      0.0000    339.3517     25.5119     34.4999
   501.7500      0.0000    331.4065     25.7788     33.1627
   502.0000      0.0000    327.7531     25.9819     32.7319
   502.2500      0.0000    326.3921     26.0839     33.4627
   502.5000      0.0000    325.9334     26.0661     34.8916
   502.7500      0.0000    325.7736     25.9439     35.8701
   503.0000      0.0000    325.7222     25.7644     35.4087
   503.2500      0.0000    325.7181     25.5812     33.7276
   503.5000      0.0000    325.7257     25.4316     32.1578
   503.7500      0.0000    325.7184     25.3310     31.9091
   504.0000      0.0000    325.6787     25.2772     33.1472
   504.2500      0.0000    325.6034     25.2571     35.2399
   504.5000      0.0000    325.5042     25.2582     37.6200
   504.7500      0.0000    325.4077     25.2753     40.3884
   505.0000      0.0000    325.3563     25.3093     44.2706
   505.2500      0.0000    325.3948     25.3611     50.0577
   505.5000      0.0000    325.5335     25.4323     57.9735
   505.7500      0.0000    325.7133     25.5259     67.3871
   506.0000      0.0000    325.8328     25.6365     76.9762
   506.2500      0.0000    325.8333     25.7380     85.1109
   506.5000      0.0000    325.7447     25.7944     90.2968
   506.7500      0.0000    325.6347     25.7960     91.6775
   507.0000      0.0000    325.5329     25.7790     89.4691
   507.2500      0.0000    325.4224     25.7998     84.9505
   507.5000      0.0000    325.2849     25.8848     79.8743
   507.7500      0.0000    325.1312     26.0054     75.6878
   508.0000      0.0000    324.9908     26.0993     72.9700
   508.2500      0.0000    324.8887     26.1142     71.3278
   508.5000      0.0000    324.8367     26.0348     69.8918
   508.7500      0.0000    324.8375     25.8836     67.9938
   509.0000      0.0000    324.8874     25.6979     65.4204
   509.2500      0.0000    324.9749     25.5030     62.4204
   509.5000      0.0000    325.0746     25.3082     59.9124
   509.7500      0.0000    325.1421     25.1296     59.4897
   510.0000      0.0000    325.1270     25.0006     62.5626
   510.2500      0.0000    325.0116     24.9480     69.1553
   510.5000      0.0000    324.8366     24.9588     77.6607
   510.7500      0.0000    324.6760     24.9778     85.7052
   511.0000      0.0000    324.5867     24.9387     91.2366
   511.2500      0.0000    324.5850     24.8017     93.3673
   511.5000      0.0000    324.6581     24.5700     92.7246
   511.7500      0.0000    324.7843     24.2780     90.8335
   512.0000      0.0000    324.9496     23.9644     88.9310
   512.2500      0.0000    325.1852     23.6512     87.4703
   512.5000      0.0000    325.6252     23.3428     86.4464
   512.7500      0.0000    326.8231     23.0360     85.5514
   513.0000      0.0000    330.6107     22.7317     84.1174
   513.2500      0.0000    341.2363     22.4452     81.5573
   513.5000      0.0000    364.8123     22.2070     78.0788
   513.7500      0.0000    404.3962     22.0473     74.6541
   514.0000      0.0000    452.6253     21.9770     72.2178
   514.2500      0.0000    491.8329     21.9839     71.1878
   514.5000      0.0000    507.0228     22.0409     71.6184
   514.7500      0.0000    498.3244     22.1177     73.1861
   515.0000      0.0000    476.3033     22.1968     75.0421
   515.2500      0.0000    448.2174     22.2855     76.3444
   515.5000      0.0000    415.6408     22.4075     76.9756
   515.7500      0.0000    382.1145     22.5786     77.3198
   516.0000      0.0000    354.5921     22.7911     77.5019
   516.2500      0.0000    337.3576     23.0194     77.2854
   516.5000      0.0000    329.1503     23.2379     76.5609
   516.7500      0.0000    326.1404     23.4310     75.6507
   517.0000      0.0000    325.2648     23.5883     75.1723
   517.2500      0.0000    325.0384     23.6893     75.6766
   517.5000      0.0000    324.9723     23.6980     77.3675
   517.7500      0.0000    324.9893     23.5854     79.9807
   518.0000      0.0000    325.0978     23.3685     82.6861
   518.2500      0.0000    325.2869     23.1273     84.2554
   518.5000      0.0000    325.4738     22.9712     83.8603
   518.7500      0.0000    325.5608     22.9688     81.9103
   519.0000      0.0000    325.5209     23.0987     79.9296
   519.2500      0.0000    325.4145     23.2705     79.6080
   519.5000      0.0000    325.3188     23.3985     81.8513
   519.7500      0.0000    325.2577     23.4545     86.3446
   520.0000      0.0000    325.2089     23.4597     91.8520
   520.2500      0.0000    325.1600     23.4414     96.9676
   520.5000      0.0000    325.1416     23.3980    100.5610
   520.7500      0.0000    325.2040     23.3029    101.8378
   521.0000      0.0000    325.3670     23.1413    100.5711
   521.2500      0.0000    325.5913     22.9452     97.4326
   521.5000      0.0000    325.8044     22.7788     93.9040
   521.7500      0.0000    325.9583     22.6862     91.7508
   522.0000      0.0000    326.0536     22.6649     92.1799
   522.2500      0.0000    326.1088     22.6910     94.9496
   522.5000      0.0000    326.1298     22.7509     98.2747
   522.7500      0.0000    326.1181     22.8408     99.8982
   523.0000      0.0000    326.0859     22.9598     98.5021
   523.2500      0.0000    326.0418     23.1149     94.3735
   523.5000      0.0000    325.9744     23.3201     89.0850
   523.7500      0.0000    325.8647     23.5780     84.5803
   524.0000      0.0000    325.7141     23.8608     82.1311
   524.2500      0.0000    325.5621     24.1051     81.7694
   524.5000      0.0000    325.4766     24.2245     82.5733
   524.7500      0.0000    325.5285     24.1520     83.4194
   525.0000      0.0000    325.7717     23.8899     83.7196
   525.2500      0.0000    326.3661     23.5155     83.8098
   525.5000      0.0000    327.8591     23.1284     84.5703
   525.7500      0.0000    331.4760     22.7937     86.5215
   526.0000      0.0000    338.7155     22.5293     89.4706
   526.2500      0.0000    349.9068     22.3205     92.8345
   526.5000      0.0000    363.3914     22.1157     95.6965
   526.7500      0.0000    378.1524     21.8047     96.8610
   527.0000      0.0000    398.4622     21.2175     95.8784
   527.2500      0.0000    432.9216     20.2076     93.8376
   527.5000      0.0000    486.0535     18.8036     92.2404
