~Version Information
VERS.                      2.0: CWLS Log ASCII Standard - VERSION 2.0
WRAP.                       NO: One line per depth step
~Well Information Block
STRT.FT                 0.0000: 
STOP.FT               787.2500: 
STEP.FT                 0.2500: 
NULL.                -999.2500: 
COMP.          Pioneer Natural Resources: COMPANY
WELL.             Veedol 34-28: WELL
FLD.           Purgatorie River: FIELD
LOC.           357' FSL & 2520' FEL: LOCATION
PROV.                 Colorado: PROVINCE
CNTY.               Las Animas: COUNTRY
SRVC.                Patterson: SERVICE COMPANY
DATE.          Wed Dec 28 10:10:37 2005: LOG DATE
UWI.                          : UNIQUE WELL ID
~Curve Information Block
DEPT.FT            0 000 00 00: Depth
CCL.                          : Casing Collar Locator
TT3.usec                      : CBL 3' Travel Time
AMP3.mV                       : CBL 3' Amplitude
GR.GAPI                       : Gamma Ray
~Parameter Information Block
~A  Depth       CCL         TT3         AMP3         GR     
# ...
   402.0000      0.0000    722.9568     12.6363     85.7594
   402.2500      0.0000    723.2625     12.6320     87.2890
   402.5000      0.0000    723.4602     12.6319     86.9119
   402.7500      0.0000    723.4677     12.5770     84.6390
   403.0000      0.0000    723.3229     12.4082     81.7102
   403.2500      0.0000    723.1484     12.1190     79.5462
   403.5000      0.0000    723.0264     11.7574     78.8516
   403.7500      0.0000    722.9277     11.4084     79.4324
   404.0000      0.0000    722.8140     11.1503     80.5116
   404.2500      0.0000    722.7152     11.0032     81.3026
   404.5000      0.0000    722.6415     10.9484     81.6723
   404.7500      0.0000    722.5347     10.9711     82.3797
   405.0000      0.0000    722.3568     11.0551     84.3742
   405.2500      0.0000    722.1395     11.1702     87.5331
   405.5000      0.0000    721.9335     11.2892     90.2591
   405.7500      0.0000    721.7965     11.3975     90.7360
   406.0000      0.0000    721.7874     11.4684     88.5851
   406.2500      0.0000    721.8955     11.4519     85.1213
   406.5000      0.0000    722.0692     11.3237     82.1351
   406.7500      0.0000    722.3254     11.1415     80.6282
   407.0000      0.0000    722.6789     11.0184     80.6232
   407.2500      0.0000    722.9834     11.0174     81.8896
   407.5000      0.0000    723.0552     11.0975     84.4326
   407.7500      0.0000    722.9501     11.1859     88.0194
   408.0000      0.0000    722.8849     11.2615     91.6710
   408.2500      0.0000    722.9198     11.3285     94.2289
   408.5000      0.0000    722.9258     11.3759     95.3204
   408.7500      0.0000    722.8157     11.4216     95.4757
   409.0000      0.0000    722.6381     11.5047     95.5899
   409.2500      0.0000    722.4883     11.5675     96.5204
   409.5000      0.0000    722.4290     11.4693     98.7703
   409.7500      0.0000    722.4412     11.2081    102.1127
   410.0000      0.0000    722.4358     10.9647    105.6260
   410.2500      0.0000    722.3693     10.8824    108.2765
   410.5000      0.0000    722.2963     10.9576    109.3880
   410.7500      0.0000    722.2751     11.1064    108.7037
   411.0000      0.0000    722.3118     11.2467    106.4351
   411.2500      0.0000    722.3917     11.3582    103.3918
   411.5000      0.0000    722.4851     11.4929    100.6924
   411.7500      0.0000    722.5431     11.7188     99.0536
   412.0000      0.0000    722.5481     12.0314     98.5013
   412.2500      0.0000    722.5396     12.3254     98.8640
   412.5000      0.0000    722.5493     12.5243    100.1705
   412.7500      0.0000    722.5704     12.6886    102.2012
   413.0000      0.0000    722.6014     12.9192    103.8355
   413.2500      0.0000    722.6335     13.2419    103.4802
   413.5000      0.0000    722.4290     13.5825    100.5078
   413.7500      0.0000    720.7432     13.7389     96.0928
   414.0000      0.0000    713.7302     13.4054     92.3589
   414.2500      0.0000    694.5859     12.4249     90.7281
   414.5000      0.0000    660.3198     11.1992     91.1129
   414.7500      0.0000    627.5676     10.4336     92.5562
   415.0000      0.0000    631.5486     10.1392     94.3074
   415.2500      0.0000    682.8727      9.8345     96.0732
   415.5000      0.0000    744.4084      9.6011     97.5448
   415.7500      0.0000    782.9505      9.6946     98.2815
   416.0000     -2.0000    808.1907      9.9234     98.3551
   416.2500      2.0000    836.9092     10.0883     98.8143
   416.5000      0.0000    854.8569     10.2495    100.7493
   416.7500      0.0000    832.6600     10.5023    103.5665
   417.0000      0.0000    760.0138     10.8989    104.8045
   417.2500      0.0000    662.3024     11.6225    102.3202
   417.5000      0.0000    589.8235     12.8169     96.4843
   417.7500      0.0000    578.6647     13.9698     89.9464
   418.0000      0.0000    620.8604     14.3739     85.5691
   418.2500      0.0000    674.8929     14.2022     84.6886
   418.5000      0.0000    708.5710     14.0039     86.6685
   418.7500      0.0000    720.8566     13.8881     89.6638
   419.0000      0.0000    723.4452     13.7710     92.0411
   419.2500      0.0000    723.4445     13.6536     93.3452
   419.5000      0.0000    722.9802     13.5622     94.0925
   419.7500      0.0000    722.4953     13.4911     94.9719
   420.0000      0.0000    722.0732     13.4107     96.4543
   420.2500      0.0000    721.7471     13.3099     98.9171
   420.5000      0.0000    721.5586     13.2146    102.5439
   420.7500      0.0000    721.4919     13.1527    106.7837
   421.0000      0.0000    721.4851     13.1227    110.2853
   421.2500      0.0000    721.4995     13.1091    111.9040
   421.5000      0.0000    721.5524     13.0992    111.8883
   421.7500      0.0000    721.6770     13.0693    111.8213
   422.0000      0.0000    721.8610     12.9763    113.1760
   422.2500      0.0000    722.0349     12.7895    115.8951
   422.5000      0.0000    722.1346     12.5304    118.4557
   422.7500      0.0000    722.1741     12.2582    119.2869
   423.0000      0.0000    722.2280     12.0034    117.9440
   423.2500      0.0000    722.3488     11.7497    114.9441
   423.5000      0.0000    722.5319     11.5072    110.9440
   423.7500      0.0000    722.7393     11.3503    106.4329
   424.0000      0.0000    722.9053     11.3355    101.9725
   424.2500      0.0000    722.9559     11.4233     98.2462
   424.5000      0.0000    722.9104     11.5318     95.5981
   424.7500      0.0000    722.9186     11.6241     93.6485
   425.0000      0.0000    723.0987     11.7140     91.7577
   425.2500      0.0000    723.3972     11.8435     89.9728
   425.5000      0.0000    723.7007     12.0446     89.1448
   425.7500      0.0000    723.9842     12.2804     89.8592
   426.0000      0.0000    724.2580     12.4619     91.5514
   426.2500      0.0000    724.4932     12.5297     93.1010
   426.5000      0.0000    724.6554     12.4974     94.2426
   426.7500      0.0000    724.7346     12.4260     95.8990
   427.0000      0.0000    724.7548     12.3552     98.9780
   427.2500      0.0000    724.7567     12.2654    103.1790
   427.5000      0.0000    724.7499     12.1261    107.2016
   427.7500      0.0000    724.7209     11.9435    109.8975
   428.0000      0.0000    724.6578     11.7407    111.0500
   428.2500      0.0000    724.5427     11.5388    111.2588
   428.5000      0.0000    724.3793     11.3626    111.2891
   428.7500      0.0000    724.2158     11.2338    111.4500
   429.0000      0.0000    724.1029     11.1690    111.4722
   429.2500      0.0000    724.0535     11.1768    110.8914
   429.5000      0.0000    724.0342     11.2399    109.4491
   429.7500      0.0000    724.0082     11.3227    107.1630
   430.0000      0.0000    723.9941     11.4035    104.2848
   430.2500      0.0000    724.0239     11.4818    101.4114
   430.5000      0.0000    724.0574     11.5615     99.4557
   430.7500      0.0000    724.0527     11.6503     99.0617
   431.0000      0.0000    724.0604     11.7506    100.0028
   431.2500      0.0000    724.1373     11.8141    101.4135
   431.5000      0.0000    724.2239     11.7617    102.6239
   431.7500      0.0000    723.9880     11.5938    103.5126
   432.0000      0.0000    722.3998     11.4107    103.9505
   432.2500      0.0000    717.3394     11.3047    103.1836
   432.5000      0.0000    706.9421     11.2709    100.2960
   432.7500      0.0000    693.1537     11.2272     95.4136
   433.0000      0.0000    683.2373     11.1300     90.0214
   433.2500      0.0000    684.5681     11.0247     85.9368
   433.5000      0.0000    695.1266     10.9735     84.2309
   433.7500      0.0000    700.6418     10.9961     84.9763
   434.0000      0.0000    683.5335     11.0535     87.4434
   434.2500      0.0000    637.9810     11.0739     90.3111
   434.5000      0.0000    583.8930     11.0430     92.0906
   434.7500      0.0000    558.8959     11.0195     91.9211
   435.0000      0.0000    583.0500     11.0320     90.2375
   435.2500      0.0000    637.4407     11.0434     88.4667
