~Version Information
VERS.                      2.0: CWLS Log ASCII Standard - VERSION 2.0
WRAP.                       NO: One line per depth step
~Well Information Block
STRT.FT               460.0000: 
STOP.FT              2824.0000: 
STEP.FT                 0.2500: 
NULL.                -999.2500: 
COMP.          Pioneer Natural Resources: COMPANY
WELL.           Dolzanie 34-12: WELL
FLD.           Purgatoire River: FIELD
LOC.           1001' FSL & 1750' FEL--: LOCATION
PROV.                 Colorado: PROVINCE
CNTY.               Las Animas: COUNTRY
SRVC.                Patterson: SERVICE COMPANY
DATE.          Wed Jul 20 07:51:58 2005: LOG DATE
UWI.           05 071 08439 00: UNIQUE WELL ID
~Curve Information Block
DEPT.FT            0 000 00 00: Depth
DIR.Ohm-m                     : IEL Induction Resistivity
SN.Ohm-m                      : IEL Short Normal
SP.mV                         : IEL Spontaneous Potential
GR.GAPI                       : Gamma Ray
~Parameter Information Block
~A  Depth       DIR          SN          SP          GR     
# ...
  1867.0000     16.4404     24.7809     21.1536     87.9418
  1867.2500     17.3342     26.4885     22.5535     87.0124
  1867.5000     18.1838     28.2217     23.9146     92.7165
  1867.7500     19.0324     30.1944     25.2360     99.3108
  1868.0000     19.9653     32.5666     26.5268    107.9969
  1868.2500     21.0836     35.3549     27.7979    110.1587
  1868.5000     22.4701     38.3991     29.0564    106.1606
  1868.7500     24.1562     41.4213     30.3014     99.6477
  1869.0000     26.0924     44.1350     31.5247     87.5745
  1869.2500     28.1266     46.3137     32.7139     79.7858
  1869.5000     30.0076     47.7946     33.8566     69.9701
  1869.7500     31.4377     48.4661     34.9448     64.8684
  1870.0000     32.1757     48.2836     35.9762     59.7062
  1870.2500     32.1423     47.2956     36.9545     58.2631
  1870.5000     31.4446     45.6477     37.8873     59.1940
  1870.7500     30.2965     43.5474     38.7834     61.3374
  1871.0000     28.9023     41.2063     39.6507     65.3642
  1871.2500     27.3868     38.7866     40.4936     67.9969
  1871.5000     25.7965     36.3783     41.3115     71.9534
  1871.7500     24.1432     34.0143     42.0970     75.0823
  1872.0000     22.4487     31.7095     42.8358     81.0970
  1872.2500     20.7633     29.5026     43.5062     85.8196
  1872.5000     19.1579     27.4724     44.0823     92.8485
  1872.7500     17.7047     25.7138     44.5371     96.6429
  1873.0000     16.4611     24.2874     44.8488    100.0874
  1873.2500     15.4607     23.1838     45.0060    101.2790
  1873.5000     14.7120     22.3316     45.0125    103.8275
  1873.7500     14.2020     21.6305     44.8906    107.5567
  1874.0000     13.9013     20.9804     44.6805    116.7248
  1874.2500     13.7688     20.2970     44.4376    124.0048
  1874.5000     13.7560     19.5249     44.2265    133.4623
  1874.7500     13.8121     18.6581     44.1123    137.2386
  1875.0000     13.8889     17.7563     44.1517    137.9175
  1875.2500     13.9479     16.9330     44.3831    135.2838
  1875.5000     13.9664     16.3022     44.8200    128.1725
  1875.7500     13.9391     15.9136     45.4482    122.2076
  1876.0000     13.8720     15.7239     46.2280    112.3679
  1876.2500     13.7732     15.6243     47.1021    105.7806
  1876.5000     13.6447     15.5000     48.0062     97.7766
  1876.7500     13.4819     15.2912     48.8812     95.2034
  1877.0000     13.2763     15.0262     49.6825     97.3451
  1877.2500     13.0198     14.7979     50.3866    102.8175
  1877.5000     12.7071     14.6871     50.9915    115.3015
  1877.7500     12.3374     14.6913     51.5135    124.6973
  1878.0000     11.9184     14.7217     51.9804    137.1772
  1878.2500     11.4688     14.6654     52.4244    143.1374
  1878.5000     11.0163     14.4492     52.8756    148.1937
  1878.7500     10.5914     14.0623     53.3578    149.6897
  1879.0000     10.2199     13.5446     53.8879    150.8348
  1879.2500      9.9168     12.9653     54.4764    151.5894
  1879.5000      9.6845     12.4005     55.1308    152.9691
  1879.7500      9.5141     11.9144     55.8583    153.7210
  1880.0000      9.3878     11.5460     56.6667    153.9351
  1880.2500      9.2836     11.3041     57.5634    153.4271
  1880.5000      9.1801     11.1738     58.5526    152.2672
  1880.7500      9.0630     11.1381     59.6298    151.6674
  1881.0000      8.9300     11.1909     60.7777    151.4004
  1881.2500      8.7921     11.3218     61.9645    151.3199
  1881.5000      8.6679     11.4889     63.1449    149.4684
  1881.7500      8.5753     11.6155     64.2656    145.5498
  1882.0000      8.5230     11.6184     65.2726    134.2149
  1882.2500      8.5068     11.4452     66.1188    123.9092
  1882.5000      8.5091     11.0961     66.7697    108.9426
  1882.7500      8.5047     10.6280     67.2056    102.7172
  1883.0000      8.4717     10.1505     67.4208    103.0929
  1883.2500      8.4044      9.8124     67.4201    109.8609
  1883.5000      8.3186      9.7623     67.2144    125.5858
  1883.7500      8.2466     10.0819     66.8175    136.0639
  1884.0000      8.2246     10.7282     66.2440    146.6994
  1884.2500      8.2824     11.5417     65.5089    149.4912
  1884.5000      8.4390     12.3281     64.6278    148.8990
  1884.7500      8.7039     12.9554     63.6180    147.0375
  1885.0000      9.0788     13.4012     62.4983    144.6195
  1885.2500      9.5593     13.7394     61.2882    144.2378
  1885.5000     10.1378     14.0918     60.0071    145.7380
  1885.7500     10.8072     14.5849     58.6717    147.1727
  1886.0000     11.5668     15.3422     57.2946    147.5573
  1886.2500     12.4252     16.4993     55.8822    145.8534
  1886.5000     13.3991     18.1867     54.4344    140.7091
  1886.7500     14.5074     20.4514     52.9450    136.0577
  1887.0000     15.7598     23.1801     51.4047    127.4995
  1887.2500     17.1434     26.1143     49.8042    120.7373
  1887.5000     18.6135     28.9580     48.1391    109.7183
  1887.7500     20.0974     31.4895     46.4132    102.7760
  1888.0000     21.5153     33.6023     44.6400     95.1037
  1888.2500     22.8096     35.2833     42.8431     92.7952
  1888.5000     23.9637     36.5833     41.0524     93.7897
  1888.7500     25.0028     37.6021     39.3011     96.5148
  1889.0000     25.9796     38.4733     37.6199    101.0078
  1889.2500     26.9563     39.3261     36.0336    102.7973
  1889.5000     27.9843     40.2323     34.5584    102.5784
  1889.7500     29.0871     41.1720     33.2012    100.9254
  1890.0000     30.2464     42.0493     31.9617     98.0045
  1890.2500     31.3964     42.7524     30.8354     96.6172
  1890.5000     32.4363     43.2146     29.8181     95.4588
  1890.7500     33.2642     43.4321     28.9097     94.7785
  1891.0000     33.8202     43.4255     28.1164     93.1809
  1891.2500     34.1013     43.1805     27.4510     91.6896
  1891.5000     34.1326     42.6280     26.9317     89.1626
  1891.7500     33.9207     41.6923     26.5791     87.6819
  1892.0000     33.4392     40.3698     26.4132     86.7671
  1892.2500     32.6583     38.7648     26.4505     87.4534
  1892.5000     31.5920     37.0528     26.7023     90.1120
  1892.7500     30.3200     35.4120     27.1740     92.2804
  1893.0000     28.9715     33.9790     27.8645     95.0102
  1893.2500     27.6879     32.8381     28.7675     96.1705
  1893.5000     26.5886     32.0179     29.8723     96.8820
  1893.7500     25.7489     31.4811     31.1652     96.8088
  1894.0000     25.1905     31.1267     32.6316     96.3055
  1894.2500     24.8797     30.8225     34.2559     96.1091
  1894.5000     24.7343     30.4525     36.0226     96.9611
  1894.7500     24.6436     29.9489     37.9146     98.7482
  1895.0000     24.5023     29.3014     39.9117    103.1904
  1895.2500     24.2477     28.5540     41.9888    106.6430
  1895.5000     23.8748     27.7913     44.1148    110.7145
  1895.7500     23.4163     27.0992     46.2533    111.6661
  1896.0000     22.9003     26.5113     48.3643    109.5848
  1896.2500     22.3187     25.9797     50.4076    106.1285
  1896.5000     21.6280     25.4009     52.3474     99.5336
  1896.7500     20.7794     24.6781     54.1548     95.4943
  1897.0000     19.7563     23.7684     55.8107     91.6826
  1897.2500     18.5922     22.6867     57.3055     90.9896
  1897.5000     17.3591     21.4801     58.6382     92.5792
  1897.7500     16.1394     20.2042     59.8138     95.3622
  1898.0000     15.0034     18.9142     60.8409    102.3300
  1898.2500     14.0001     17.6632     61.7295    108.6775
  1898.5000     13.1559     16.4948     62.4888    119.5179
  1898.7500     12.4755     15.4364     63.1271    126.6891
  1899.0000     11.9457     14.5022     63.6516    136.3522
  1899.2500     11.5415     13.7059     64.0686    141.9394
  1899.5000     11.2357     13.0708     64.3845    149.1374
  1899.7500     11.0069     12.6256     64.6058    153.1066
  1900.0000     10.8424     12.3893     64.7395    157.4025
  1900.2500     10.7368     12.3569     64.7926    158.7802
