~Version Information
 VERS.                                  2.0 : CWLS LAS VERSION
 WRAP.                                   NO : WRAPING MODE
 SWARE .                 MController 2.5.0N : SOFTWARE VERSION
~Well Information
 WELL.                        Cleaver 24-12 : WELL
 COMP.    Pioneer Natural Resources USA Inc : COMPANY
 FLD.                      Purgatoire River : FIELD
 LOC.                SE/SW Sec 12 T32S R67W : LOCATION
 DATE.                         1/05-06/2006 : DATE(S) LOGGED
 SRVC.       BLANCO Geological Services LLC : SERVICE COMPANY
 STAT.                                   CO : STATE
 CNTY.                           Las Animas : COUNTY
 CTRY.                                  USA : COUNTRY
 API.                       05-071-08634-00 : API NUMBER
 STRT.FT                             461.00 : START DEPTH
 STOP.FT                            3055.00 : STOP DEPTH
 STEP.FT                               1.00 : DEPTH INCREMENT
 NULL.                                -9999 : NULL VALUE
~Curve information
 DEPTH.FT                                   :
 ROP.MIN/FT                                 :
 GAS.UNITS                                  :
~ASCII Log data
# ...
      1861.0         0.62         12.8 
      1862.0         0.53         10.3 
      1863.0         0.57         13.3 
      1864.0         0.43         13.8 
      1865.0         0.40         13.0 
      1866.0         0.27         11.2 
      1867.0         0.43          9.2 
      1868.0         0.33          9.4 
      1869.0         0.78         18.4 
      1870.0         0.90         21.9 
      1871.0         0.73         21.4 
      1872.0         0.27         19.5 
      1873.0         0.40         22.4 
      1874.0         0.38         29.1 
      1875.0         0.40         37.5 
      1876.0         0.27         42.8 
      1877.0         0.37         47.4 
      1878.0         0.33         49.1 
      1879.0         0.27         49.3 
      1880.0         0.17         49.2 
      1881.0         0.23         49.0 
      1882.0         0.23         48.5 
      1883.0         0.30         47.8 
      1884.0         0.47         47.0 
      1885.0         0.55         43.6 
      1886.0         5.82         53.8 
      1887.0         0.57         13.2 
      1888.0         0.52         10.6 
      1889.0         0.40         14.9 
      1890.0         0.33         18.6 
      1891.0         0.40         20.3 
      1892.0         0.37         20.4 
      1893.0         0.47         20.9 
      1894.0         0.37         24.3 
      1895.0         0.47         29.3 
      1896.0         0.45         34.1 
      1897.0         0.53         34.9 
      1898.0         0.50         30.5 
      1899.0         0.40         20.2 
      1900.0         0.30         13.8 
      1901.0         0.30         11.2 
      1902.0         0.30          9.3 
      1903.0         0.40          9.5 
      1904.0         0.52         10.2 
      1905.0         0.53         11.1 
      1906.0         0.57         12.3 
      1907.0         0.57         12.5 
      1908.0         0.57         12.4 
      1909.0         0.63         12.2 
      1910.0         0.58         11.8 
      1911.0         0.50         11.0 
      1912.0         0.60          9.8 
      1913.0         0.57          6.8 
      1914.0         0.67          3.9 
      1915.0         0.78          7.3 
      1916.0         4.32         76.8 
      1917.0         0.87         76.2 
      1918.0         0.63         35.1 
      1919.0         0.60         16.3 
      1920.0         0.38         10.1 
      1921.0         0.83         14.6 
      1922.0         0.67         22.9 
      1923.0         0.53         27.6 
      1924.0         0.60         36.7 
      1925.0         0.65         48.6 
      1926.0         0.47         54.5 
      1927.0         0.17         55.4 
      1928.0         0.33         55.6 
      1929.0         0.30         53.5 
      1930.0         0.23         47.3 
      1931.0         0.23         41.7 
      1932.0         0.37         36.6 
      1933.0         0.73         29.8 
      1934.0         0.58         16.5 
      1935.0         0.43         11.6 
      1936.0         0.60         15.1 
      1937.0         0.37         18.2 
      1938.0         0.23         20.7 
      1939.0         0.40         25.6 
      1940.0         0.40         30.5 
      1941.0         0.75         39.8 
      1942.0         0.40         46.3 
      1943.0         0.30         51.3 
      1944.0         0.67         59.2 
      1945.0         0.30         59.3 
      1946.0         7.57        104.6 
      1947.0         0.50         11.5 
      1948.0         0.28         12.5 
      1949.0         0.23         12.2 
      1950.0         0.47         12.3 
      1951.0         1.60         33.6 
      1952.0         1.98         58.2 
      1953.0         1.47         62.6 
      1954.0         1.92         58.7 
      1955.0         0.93         42.4 
      1956.0         0.20         29.8 
      1957.0         0.17         29.0 
      1958.0         0.23         28.6 
      1959.0         0.43         29.8 
      1960.0         0.52         31.8 
      1961.0         0.47         32.7 
      1962.0         0.50         32.4 
      1963.0         0.43         30.8 
      1964.0         0.47         28.5 
      1965.0         0.43         26.3 
      1966.0         0.43         24.8 
      1967.0         0.48         23.1 
      1968.0         0.53         22.8 
      1969.0         0.47         23.1 
      1970.0         0.47         23.1 
      1971.0         0.53         23.7 
      1972.0         0.43         24.5 
      1973.0         0.98         26.8 
      1974.0         2.07         49.9 
      1975.0         1.07         61.6 
      1976.0         4.20         61.3 
      1977.0         0.60         21.6 
      1978.0         0.53         29.0 
      1979.0         0.40         29.1 
      1980.0         0.23         27.2 
      1981.0         0.23         23.9 
      1982.0         0.57         22.0 
      1983.0         0.22         20.2 
      1984.0         0.27         20.4 
      1985.0         0.23         20.2 
      1986.0         0.33         20.4 
      1987.0         0.33         19.1 
      1988.0         0.20         17.6 
      1989.0         0.27         16.3 
      1990.0         0.23         14.1 
      1991.0         0.30         19.3 
      1992.0         0.57         42.2 
      1993.0         0.23         51.1 
      1994.0         0.32         56.8 
      1995.0         0.27         57.3 
      1996.0         0.30         56.8 
      1997.0         0.20         54.0 
      1998.0         0.17         51.3 
      1999.0         0.20         48.9 
      2000.0         0.20         45.6 
      2001.0         0.40         41.7 
      2002.0         1.07         34.4 
      2003.0         0.33         26.6 
      2004.0         1.52         31.0 
      2005.0         1.13         31.8 
      2006.0         3.95         29.0 
      2007.0         0.38          9.6 
      2008.0         0.60          5.0 
      2009.0         0.50          7.7 
      2010.0         0.50         12.3 
      2011.0         0.60         17.4 
      2012.0         0.63         20.2 
      2013.0         0.82         22.3 
      2014.0         0.30         23.6 
      2015.0         0.33         26.8 
      2016.0         0.23         29.0 
      2017.0         0.33         29.9 
      2018.0         0.30         29.4 
      2019.0         0.27         27.9 
      2020.0         0.33         25.7 
      2021.0         0.37         21.8 
      2022.0         0.33         18.5 
      2023.0         0.35         15.0 
      2024.0         0.37         11.7 
      2025.0         0.40          9.9 
      2026.0         0.57         15.8 
      2027.0         1.00         23.1 
      2028.0         0.88         23.1 
      2029.0         0.30         21.5 
      2030.0         0.37         21.6 
      2031.0         0.57         21.8 
      2032.0         0.67         22.6 
      2033.0         0.57         23.6 
      2034.0         0.53         24.1 
      2035.0         0.78         25.0 
      2036.0         6.43         38.3 
      2037.0         0.40         28.8 
      2038.0         0.40         16.9 
      2039.0         0.30          7.5 
      2040.0         0.40          3.9 
      2041.0         0.53          2.9 
      2042.0         0.50          4.8 
      2043.0         0.52          8.1 
      2044.0         0.53         10.0 
      2045.0         0.57         31.9 
      2046.0         0.60         22.6 
      2047.0         0.50         15.2 
      2048.0         0.43         14.1 
      2049.0         0.47         14.2 
      2050.0         0.48         27.7 
      2051.0         0.47         24.7 
      2052.0         0.43         35.8 
      2053.0         0.40         22.7 
      2054.0         0.40         21.5 
      2055.0         0.50         20.3 
      2056.0         0.33         18.2 
      2057.0         0.68         17.7 
      2058.0         0.80         17.9 
      2059.0         0.73         18.0 
      2060.0         0.70         17.4 
