~Version Information
VERS.                      2.0: CWLS Log ASCII Standard - VERSION 2.0
WRAP.                       NO: One line per depth step
~Well Information Block
STRT.FT               360.0000: 
STOP.FT              2475.0000: 
STEP.FT                 0.1000: 
NULL.                -999.2500: 
COMP.          Pioneer Natural Resources: COMPANY
WELL.          Hellzonfire 32-31: WELL
FLD.           Purgatoire River: FIELD
LOC.           1993' FNL & 2265' FEL: LOCATION
STAT.                 Colorado: State
CNTY.               Las Animas: COUNTY
CTRY. USA : Country
SECT. 31 : Section
TOWN. 32S : Township
RANG. 66W : Range
SRVC.                Patterson: SERVICE COMPANY
DATE.          Fri Sep 02 07:26:13 2005: LOG DATE
API.           05 071 08483 00: UNIQUE WELL ID
~Curve Information Block
DEPT.FT            0 000 00 00: Depth
DCAL.in                       : CDL Caliper
RHOB.g/cc                     : CDL Bulk Density
RHOC.g/cc                     : CDL Density Correction
DPOR.pu                       : CDL Density Porosity
GR.GAPI                       : Gamma Ray
NPOR.pu                       : Neutron Porosity
~Parameter Information Block
~A  Depth       DCAL        RHOB        RHOC        DPOR         GR         NPOR    
# ...
   916.8000      8.4095      2.5076      0.0123      8.6300    111.8014     22.1993
   916.9000      8.4095      2.5135      0.0293      8.2757    115.3103     22.8902
   917.0000      8.3594      2.5179     -0.0037      8.0041    115.2822     23.4783
   917.1000      8.3594      2.5208      0.0350      7.8278    108.3684     23.0825
   917.2000      8.3594      2.5199     -0.0126      7.8859    102.8110     22.0296
   917.3000      8.2960      2.5214      0.0471      7.7923    103.6805     21.8058
   917.4000      8.2960      2.5314     -0.0100      7.1871    105.1880     22.1433
   917.5000      8.2980      2.5488      0.0018      6.1347    103.8093     22.0056
   917.6000      8.2980      2.5563      0.0805      5.6813    101.9665     21.4218
   917.7000      8.2980      2.5400      0.0352      6.6672    101.3783     20.8400
   917.8000      8.2989      2.5134      0.0265      8.2772    102.9148     20.6913
   917.9000      8.2989      2.4914      0.0075      9.6116    106.3691     21.1342
   918.0000      8.2980      2.4804     -0.0188     10.2785    110.9263     22.2274
   918.1000      8.2980      2.4825      0.0136     10.1503    117.5729     23.4985
   918.2000      8.2980      2.4894      0.0133      9.7358    125.9535     23.8333
   918.3000      8.3669      2.4980     -0.0224      9.2139    130.5708     23.3968
   918.4000      8.3669      2.5052      0.0026      8.7750    129.2816     23.6896
   918.5000      8.4152      2.4933     -0.0125      9.4991    130.0069     24.6776
   918.6000      8.4152      2.4621     -0.0283     11.3860    136.1094     24.7700
   918.7000      8.4152      2.4363     -0.0153     12.9533    142.3664     23.8004
   918.8000      8.4151      2.4280     -0.0447     13.4539    147.8361     23.2220
   918.9000      8.4151      2.4299      0.0041     13.3412    157.3239     23.5291
   919.0000      8.4421      2.4297     -0.0277     13.3526    168.2580     23.9102
   919.1000      8.4421      2.4257     -0.0409     13.5958    172.4650     22.9983
   919.2000      8.4421      2.4200     -0.0133     13.9387    167.1802     20.6163
   919.3000      8.4579      2.4135     -0.0800     14.3362    157.4594     18.4790
   919.4000      8.4579      2.4086      0.0072     14.6274    148.6290     18.0952
   919.5000      8.5014      2.4020     -0.0229     15.0291    141.1898     19.7110
   919.6000      8.5014      2.3950     -0.0305     15.4523    135.8901     22.2887
   919.7000      8.5014      2.3857      0.0108     16.0199    131.0937     23.5012
   919.8000      8.5796      2.3530      0.0106     17.9982    123.3119     21.8022
   919.9000      8.5796      2.2802     -0.0307     22.4129    117.3559     18.7967
   920.0000      8.6634      2.1660     -0.0406     29.3322    121.1805     17.5569
   920.1000      8.6634      2.0254     -0.1233     37.8552    129.9072     19.4595
   920.2000      8.6634      1.8935     -0.1387     45.8456    131.2129     22.5718
   920.3000      8.7204      1.8094     -0.1647     50.9470    121.6451     22.8100
   920.4000      8.7204      1.7803     -0.0761     52.7105    108.2400     20.9348
   920.5000      8.7477      1.7838     -0.0702     52.4960    103.0154     20.7419
   920.6000      8.7477      1.8036     -0.0049     51.2983    109.9252     21.2616
   920.7000      8.7477      1.8375      0.0101     49.2453    121.8985     20.4158
   920.8000      8.7955      1.8823      0.0952     46.5280    135.3833     20.2885
   920.9000      8.7955      1.9365      0.1138     43.2432    144.9469     22.4403
   921.0000      8.7842      2.0139      0.0738     38.5507    142.9902     24.6562
   921.1000      8.7842      2.1104      0.1643     32.7008    133.7518     24.7497
   921.2000      8.7842      2.1854      0.1434     28.1586    130.3911     24.0206
   921.3000      8.6409      2.2191     -0.0081     26.1158    141.7661     23.7880
   921.4000      8.6409      2.2359      0.0145     25.0943    158.2417     23.8275
   921.5000      8.6147      2.2765     -0.0021     22.6390    163.2928     24.1055
   921.6000      8.6147      2.3752      0.1099     16.6572    156.6706     24.2755
   921.7000      8.6147      2.5165      0.3826      8.0895    148.8547     24.4786
   921.8000      8.6157      2.6254      0.5357      1.4886    146.2461     25.4433
   921.9000      8.6157      2.6528      0.4552     -0.1715    148.3399     26.7753
   922.0000      8.6096      2.6331      0.2405      1.0237    149.3392     27.7297
   922.1000      8.6096      2.6119      0.2567      2.3062    144.0478     28.0580
   922.2000      8.6096      2.5894      0.1771      3.6699    134.2815     27.4702
   922.3000      8.5329      2.5734      0.0925      4.6399    128.3431     26.8226
   922.4000      8.5329      2.5797      0.1233      4.2609    127.1951     27.6541
   922.5000      8.5185      2.5854      0.1369      3.9135    122.8493     29.2234
   922.6000      8.5185      2.5675     -0.0075      5.0028    114.9778     29.1557
   922.7000      8.5185      2.5444      0.0246      6.3991    109.9940     26.9760
   922.8000      8.4747      2.5438     -0.0450      6.4383    109.5793     24.4248
   922.9000      8.4747      2.5582      0.0265      5.5646    108.3896     22.8669
   923.0000      8.3973      2.5427      0.0439      6.5009    106.9067     21.9487
   923.1000      8.3973      2.4836     -0.0798     10.0873    112.9406     21.2270
   923.2000      8.3973      2.4287     -0.0762     13.4131    128.0463     21.1254
   923.3000      8.2956      2.4144     -0.0358     14.2764    142.5652     21.2883
   923.4000      8.2956      2.4258     -0.0387     13.5877    145.8991     21.1495
   923.5000      8.2529      2.4270      0.0432     13.5180    143.5504     21.1969
   923.6000      8.2529      2.3987      0.0528     15.2296    144.7063     21.6857
   923.7000      8.2529      2.3583     -0.0250     17.6817    146.6933     22.1543
   923.8000      8.2619      2.3319      0.0165     19.2798    148.0882     22.2371
   923.9000      8.2619      2.3277     -0.0147     19.5331    151.7129     21.8083
   924.0000      8.3007      2.3383      0.0460     18.8903    155.1109     21.0935
   924.1000      8.3007      2.3449      0.0997     18.4886    156.2963     20.5928
   924.2000      8.3007      2.3478     -0.0125     18.3152    156.3316     20.6545
   924.3000      8.3768      2.3615      0.0659     17.4874    152.8039     21.0818
   924.4000      8.3768      2.3726     -0.0127     16.8102    147.9508     21.5795
   924.5000      8.4357      2.3629      0.0636     17.4001    150.3662     22.2438
   924.6000      8.4357      2.3344      0.0537     19.1295    158.6025     22.9616
   924.7000      8.4357      2.2984      0.0572     21.3075    161.1414     23.2262
   924.8000      8.4910      2.2482      0.1004     24.3534    157.3448     23.7034
   924.9000      8.4910      2.1703      0.0477     29.0710    156.6006     25.3819
   925.0000      8.5813      2.0791     -0.0174     34.6020    158.6855     26.7178
   925.1000      8.5813      2.0001      0.0128     39.3876    158.1102     26.0849
   925.2000      8.5813      1.9408      0.0409     42.9802    155.2247     24.5786
   925.3000      8.6830      1.8987      0.1117     45.5316    153.5051     23.1889
   925.4000      8.6830      1.8834      0.1181     46.4625    154.8828     22.1196
   925.5000      8.7073      1.9201      0.1493     44.2365    157.1540     21.6888
   925.6000      8.7073      2.0300      0.2115     37.5750    157.7674     21.7582
   925.7000      8.7073      2.1932      0.4404     27.6840    156.2153     22.6634
   925.8000      8.9461      2.3471      0.5634     18.3558    151.6890     24.1745
   925.9000      8.9461      2.4472      0.5596     12.2929    144.9967     24.9652
   926.0000      9.1360      2.4868      0.5721      9.8920    135.6225     25.0304
   926.1000      9.1360      2.4683      0.4931     11.0108    125.1963     25.2820
   926.2000      9.1360      2.4074      0.3114     14.7039    122.5732     25.7350
   926.3000      9.3987      2.3399      0.2413     18.7952    128.3120     25.9523
