~Version Information
VERS.                      2.0: CWLS Log ASCII Standard - VERSION 2.0
WRAP.                       NO: One line per depth step
~Well Information Block
STRT.FT               660.0000: 
STOP.FT              2488.5000: 
STEP.FT                 0.1000: 
NULL.                -999.2500: 
COMP.          Petrogulf Corporation: COMPANY
WELL.          Montoya 18-11V-B: WELL
FLD.           Purgatorie River: FIELD
LOC.           848' FNL & 619' FWL: LOCATION
PROV.                 Colorado: PROVINCE
CNTY.               Las Animas: COUNTRY
SRVC.                Patterson: SERVICE COMPANY
DATE.          Wed Oct 05 07:28:13 2005: LOG DATE
UWI.                          : UNIQUE WELL ID
~Curve Information Block
DEPT.FT            0 000 00 00: Depth
DCAL.in                       : CDL Caliper
RHOB.g/cc                     : CDL Bulk Density
RHOC.g/cc                     : CDL Density Correction
DPOR.pu                       : CDL Density Porosity
GR.GAPI                       : Gamma Ray
NPOR.pu                       : Neutron Porosity
~Parameter Information Block
~A  Depth       DCAL        RHOB        RHOC        DPOR         GR         NPOR    
# ...
  1629.6000      7.8652      2.6192      0.0987      1.8642    117.6629     23.6404
  1629.7000      7.8652      2.6171      0.0834      1.9931    113.6811     23.1725
  1629.8000      7.8314      2.6133      0.0691      2.2213    113.5561     22.6246
  1629.9000      7.8314      2.6161      0.0745      2.0570    118.9383     22.5758
  1630.0000      7.8303      2.6246      0.1197      1.5415    123.3783     23.0314
  1630.1000      7.8303      2.6353      0.0930      0.8883    121.6827     23.4302
  1630.2000      7.8303      2.6441      0.1023      0.3595    118.2879     23.7001
  1630.3000      7.8381      2.6447      0.0884      0.3201    118.3955     24.0666
  1630.4000      7.8381      2.6347      0.0709      0.9257    122.0217     24.3884
  1630.5000      7.8571      2.6102      0.1049      2.4117    124.6008     24.4778
  1630.6000      7.8571      2.5730     -0.0017      4.6653    123.1451     24.2986
  1630.7000      7.8571      2.5477     -0.0433      6.2001    121.1764     23.9684
  1630.8000      7.8805      2.5502     -0.0091      6.0470    124.0952     23.9036
  1630.9000      7.8805      2.5606      0.0467      5.4199    131.4109     24.4069
  1631.0000      7.9475      2.5586     -0.0103      5.5369    137.1103     25.1905
  1631.1000      7.9475      2.5510      0.0170      6.0023    136.9016     25.6840
  1631.2000      7.9475      2.5464      0.0222      6.2816    131.9767     25.7590
  1631.3000      7.9577      2.5413      0.0507      6.5894    126.2328     25.8046
  1631.4000      7.9577      2.5387      0.0061      6.7454    122.4649     25.8476
  1631.5000      7.9605      2.5552      0.0093      5.7445    121.8948     25.6668
  1631.6000      7.9605      2.5892      0.0447      3.6877    122.6317     25.4821
  1631.7000      7.9605      2.6101      0.0888      2.4195    121.6120     25.3868
  1631.8000      7.9633      2.6015      0.0494      2.9408    120.5325     25.1665
  1631.9000      7.9633      2.5818      0.0628      4.1326    119.4770     24.7490
  1632.0000      7.9462      2.5769     -0.0082      4.4312    114.6854     24.2984
  1632.1000      7.9462      2.5963      0.0466      3.2545    107.5621     23.9696
  1632.2000      7.9462      2.6288      0.0463      1.2852    103.2004     23.7354
  1632.3000      7.8928      2.6582      0.0913     -0.4985    102.3532     23.4379
  1632.4000      7.8928      2.6722      0.1145     -1.3433    100.7846     22.8825
  1632.5000      7.8452      2.6676      0.0667     -1.0672     95.3867     22.0521
  1632.6000      7.8452      2.6568      0.0594     -0.4136     89.1545     20.9658
  1632.7000      7.8452      2.6524      0.0648     -0.1474     86.1164     19.7872
  1632.8000      7.8285      2.6509      0.1141     -0.0566     86.7456     18.9541
  1632.9000      7.8285      2.6449      0.0581      0.3117     88.5905     18.8419
  1633.0000      7.8507      2.6394      0.0613      0.6444     89.4622     19.4462
  1633.1000      7.8507      2.6398      0.0537      0.6185     90.4552     20.2637
  1633.2000      7.8507      2.6455      0.0699      0.2755     93.0561     20.8883
  1633.3000      7.8628      2.6504      0.1238     -0.0222     96.7106     21.3540
  1633.4000      7.8628      2.6465      0.1066      0.2126    100.0836     21.6387
  1633.5000      7.8537      2.6418      0.0897      0.4991    101.0933     21.7574
  1633.6000      7.8537      2.6471      0.1167      0.1741     99.1029     22.0946
  1633.7000      7.8537      2.6554      0.0722     -0.3290     97.2777     22.8028
  1633.8000      7.8483      2.6477      0.1184      0.1389     98.0071     23.3479
  1633.9000      7.8483      2.6166      0.0735      2.0225    101.4331     23.3595
  1634.0000      7.8815      2.5841      0.0184      3.9932    105.7796     23.0646
  1634.1000      7.8815      2.5699      0.0245      4.8544    109.1307     22.7544
  1634.2000      7.8815      2.5675      0.0200      4.9982    112.1689     22.5357
  1634.3000      7.8561      2.5676      0.0615      4.9931    115.2116     22.3324
  1634.4000      7.8561      2.5705      0.0688      4.8201    116.6897     22.3734
  1634.5000      7.8363      2.5759      0.0592      4.4922    116.1375     23.0031
  1634.6000      7.8363      2.5745      0.0350      4.5780    117.5523     23.8660
  1634.7000      7.8363      2.5544      0.0635      5.7935    125.8781     24.4953
  1634.8000      7.8565      2.5232      0.0011      7.6837    139.0209     24.9577
  1634.9000      7.8565      2.5070     -0.0135      8.6681    149.4609     25.3955
  1635.0000      7.8425      2.5109      0.0260      8.4277    153.9919     25.6105
  1635.1000      7.8425      2.5134      0.0515      8.2813    156.4649     25.3228
  1635.2000      7.8425      2.5036      0.0223      8.8734    158.5361     24.8528
  1635.3000      7.9306      2.4929     -0.0191      9.5222    158.8610     24.7601
  1635.4000      7.9306      2.4945      0.0228      9.4216    161.3703     25.0706
  1635.5000      7.9504      2.5115      0.0117      8.3955    166.3993     25.6840
  1635.6000      7.9504      2.5333      0.0529      7.0719    166.0565     26.6378
  1635.7000      7.9504      2.5467      0.0387      6.2624    158.8727     27.5973
  1635.8000      7.9494      2.5500      0.1055      6.0622    152.8753     28.0264
  1635.9000      7.9494      2.5480      0.1004      6.1816    153.4925     27.9918
  1636.0000      7.9663      2.5497      0.0690      6.0812    158.4301     27.9297
  1636.1000      7.9663      2.5596      0.0801      5.4779    163.5817     28.1619
  1636.2000      7.9663      2.5648      0.0958      5.1655    166.3998     28.6184
  1636.3000      7.9380      2.5595      0.0712      5.4838    166.6884     28.8013
  1636.4000      7.9380      2.5614      0.0358      5.3709    165.8056     28.5673
  1636.5000      7.9234      2.5734      0.0747      4.6422    162.6046     28.3620
  1636.6000      7.9234      2.5713      0.0757      4.7670    155.9251     28.2364
  1636.7000      7.9234      2.5448      0.0726      6.3737    151.1107     27.9299
  1636.8000      7.9132      2.5160      0.0125      8.1218    153.5557     27.6294
  1636.9000      7.9132      2.5100      0.0085      8.4840    158.4440     27.4243
  1637.0000      7.9114      2.5240      0.0220      7.6362    158.0338     27.2793
  1637.1000      7.9114      2.5397      0.0622      6.6865    152.5600     27.3038
  1637.2000      7.9114      2.5535      0.0292      5.8504    145.8781     27.3117
  1637.3000      7.8863      2.5726      0.0507      4.6930    141.3982     27.0814
  1637.4000      7.8863      2.5931      0.0941      3.4460    140.5645     26.8173
  1637.5000      7.8908      2.6090      0.0700      2.4822    138.5207     26.4984
  1637.6000      7.8908      2.6227      0.0980      1.6536    131.6355     25.8065
  1637.7000      7.8908      2.6350      0.0656      0.9062    124.3762     24.9389
  1637.8000      7.8791      2.6457      0.0844      0.2600    119.3466     24.3883
  1637.9000      7.8791      2.6554      0.0753     -0.3248    113.9241     24.2261
  1638.0000      7.8939      2.6608      0.0712     -0.6556    104.8707     24.1654
  1638.1000      7.8939      2.6607      0.0399     -0.6458     91.5216     23.8810
  1638.2000      7.8939      2.6537      0.0788     -0.2250     80.0127     23.4046
  1638.3000      7.8327      2.6288      0.0235      1.2844     75.7389     22.8502
  1638.4000      7.8327      2.5831      0.0170      4.0557     75.7871     22.1405
  1638.5000      7.8371      2.5287      0.0059      7.3497     75.7919     21.4571
  1638.6000      7.8371      2.4859     -0.0734      9.9481     74.3715     20.9882
  1638.7000      7.8371      2.4729     -0.0550     10.7350     71.4454     20.4842
  1638.8000      7.9133      2.4908     -0.0533      9.6465     68.8656     19.7357
  1638.9000      7.9133      2.5224      0.0144      7.7359     66.8249     19.0907
  1639.0000      7.9304      2.5469      0.0139      6.2514     64.5335     19.0840
  1639.1000      7.9304      2.5579      0.0122      5.5839     63.3374     19.5696
