~Version Information
VERS.                      2.0: CWLS Log ASCII Standard - VERSION 2.0
WRAP.                       NO: One line per depth step
~Well Information Block
STRT.FT                 0.0000: 
STOP.FT              1871.2500: 
STEP.FT                 0.2500: 
NULL.                -999.2500: 
COMP.          Petrogulf Corporation: COMPANY
WELL.             Norton 9-14R: WELL
FLD.           Purgatorie River: FIELD
LOC.           725' FSL & 1103' FWL: LOCATION
STAT.                 Colorado: State
CNTY.               Las Animas: COUNTY
CTRY. USA : Country
SECT. 9 : Section
TOWN. 33S : Township
RANG. 67W : Range
SRVC.                Patterson: SERVICE COMPANY
DATE.          Thu Nov 10 13:05:53 2005: LOG DATE
API. 05-071-08444                         : UNIQUE WELL ID
~Curve Information Block
DEPT.FT            0 000 00 00: Depth
CCL.                          : Casing Collar Locator
TT3.usec                      : CBL 3' Travel Time
AMP3.mV                       : CBL 3' Amplitude
GR.GAPI                       : Gamma Ray
~Parameter Information Block
~A  Depth       CCL         TT3         AMP3         GR     
# ...
  1842.5000      0.0000    691.7246      3.4572    109.8741
  1842.7500      0.0000    689.1622      3.7523    109.3889
  1843.0000      0.0000    685.2571      3.8818    109.4494
  1843.2500      0.0000    687.3721      3.8823    109.5471
  1843.5000      0.0000    690.0707      3.8569    109.0998
  1843.7500      0.0000    687.2030      3.8389    107.7739
  1844.0000      0.0000    679.9471      3.7509    105.5109
  1844.2500      0.0000    671.6107      3.5060    102.5687
  1844.5000      0.0000    663.8162      3.1169     99.4492
  1844.7500      0.0000    659.2537      2.6992     96.6623
  1845.0000      0.0000    661.8104      2.3739     94.6666
  1845.2500      0.0000    672.0164      2.1725     93.8616
  1845.5000      0.0000    683.9052      2.0505     94.2967
  1845.7500      0.0000    689.7639      1.9590     95.4123
  1846.0000      0.0000    687.2747      1.8818     96.2133
  1846.2500      0.0000    676.7472      1.8328     95.6715
  1846.5000      0.0000    659.2955      1.8354     93.0984
  1846.7500      0.0000    642.6453      1.8943     88.4737
  1847.0000      0.0000    637.0587      1.9813     82.5574
  1847.2500      0.0000    643.5873      2.0597     76.4243
  1847.5000      0.0000    651.9797      2.1233     70.6586
  1847.7500      0.0000    651.2256      2.1986     65.1548
  1848.0000      0.0000    640.4172      2.3011     59.7409
  1848.2500      0.0000    627.7023      2.4040     54.6867
  1848.5000      0.0000    622.0115      2.4766     50.4994
  1848.7500      0.0000    626.3909      2.5196     47.3831
  1849.0000      0.0000    636.2938      2.5362     45.0469
  1849.2500      0.0000    644.4408      2.5031     43.1331
  1849.5000      0.0000    647.5292      2.3763     41.7559
  1849.7500      0.0000    647.0171      2.1359     41.3019
  1850.0000      0.0000    645.2413      1.8311     41.6999
  1850.2500      0.0000    642.9340      1.5533     42.2604
  1850.5000      0.0000    639.4791      1.3595     42.2929
  1850.7500      0.0000    634.6315      1.2421     41.5979
  1851.0000      0.0000    629.4483      1.1779     40.3970
  1851.2500      0.0000    624.6204      1.1597     39.0925
  1851.5000      0.0000    619.8480      1.1635     38.0728
  1851.7500      0.0000    615.6391      1.1431     37.4559
  1852.0000      0.0000    612.8512      1.0808     36.9190
  1852.2500      0.0000    611.2979      1.0126     35.9968
  1852.5000      0.0000    610.3673      0.9879     34.6805
  1852.7500      0.0000    609.7261      1.0105     33.6379
  1853.0000      0.0000    609.2639      1.0561     33.7067
  1853.2500      0.0000    608.9575      1.1237     35.1167
  1853.5000      0.0000    608.7663      1.1958     37.3204
  1853.7500      0.0000    608.6097      1.2055     39.7190
  1854.0000      0.0000    608.4389      1.1223     42.3844
  1854.2500      0.0000    608.2699      1.0098     45.6787
  1854.5000      0.0000    608.1331      0.9591     49.1578
  1854.7500      0.0000    608.0419      0.9951     51.2179
  1855.0000      0.0000    608.0162      1.0750     49.9126
  1855.2500      0.0000    608.0886      1.1557     44.1031
  1855.5000      0.0000    608.2803      1.2128     34.3121
  1855.7500      0.0000    608.6083      1.2131     22.8570
  1856.0000      0.0000    609.0075      1.1469     12.7247
  1856.2500      0.0000    608.9599      1.0702      5.8092
  1856.5000      0.0000    607.2234      1.0662      2.1449
  1856.7500      0.0000    602.8412      1.1759      0.6338
  1857.0000      0.0000    596.9579      1.3597      0.1487
  1857.2500      0.0000    592.2723      1.5130      0.0274
  1857.5000      0.0000    590.3600      1.5405      0.0035
  1857.7500      0.0000    591.3317      1.4303      0.0000
  1858.0000      0.0000    596.0267      1.2692   -999.2500
  1858.2500      0.0000    606.9482      1.1951   -999.2500
  1858.5000      0.0000    626.1781      1.2923   -999.2500
  1858.7500      0.0000    651.9830      1.5269   -999.2500
  1859.0000      0.0000    677.6435      1.7972   -999.2500
  1859.2500      0.0000    693.5041      2.0336   -999.2500
  1859.5000      0.0000    691.5629      2.2394   -999.2500
  1859.7500      0.0000    672.5114      2.4568   -999.2500
  1860.0000      0.0000    645.4554      2.7118   -999.2500
  1860.2500      0.0000    611.0371      2.9372   -999.2500
  1860.5000      0.0000    544.6006      2.9071   -999.2500
  1860.7500      0.0000    416.6841      2.3955   -999.2500
  1861.0000      0.0000    247.8564      1.5295   -999.2500
  1861.2500      0.0000    106.3182      0.7515   -999.2500
  1861.5000      0.0000     31.3585      0.3297   -999.2500
  1861.7500      0.0000      6.1817      0.1868   -999.2500
  1862.0000      0.0000      0.7991      0.1561   -999.2500
  1862.2500      0.0000      0.0647      0.1519   -999.2500
  1862.5000      0.0000   -999.2500   -999.2500   -999.2500
  1862.7500      0.0000   -999.2500   -999.2500   -999.2500
  1863.0000      0.0000   -999.2500   -999.2500   -999.2500
  1863.2500      0.0000   -999.2500   -999.2500   -999.2500
  1863.5000      0.0000   -999.2500   -999.2500   -999.2500
  1863.7500      0.0000   -999.2500   -999.2500   -999.2500
  1864.0000      0.0000   -999.2500   -999.2500   -999.2500
  1864.2500      0.0000   -999.2500   -999.2500   -999.2500
  1864.5000      0.0000   -999.2500   -999.2500   -999.2500
  1864.7500      0.0000   -999.2500   -999.2500   -999.2500
  1865.0000      0.0000   -999.2500   -999.2500   -999.2500
  1865.2500      0.0000   -999.2500   -999.2500   -999.2500
  1865.5000      0.0000   -999.2500   -999.2500   -999.2500
  1865.7500      0.0000   -999.2500   -999.2500   -999.2500
  1866.0000      0.0000   -999.2500   -999.2500   -999.2500
  1866.2500      0.0000   -999.2500   -999.2500   -999.2500
  1866.5000      0.0000   -999.2500   -999.2500   -999.2500
  1866.7500      0.0000   -999.2500   -999.2500   -999.2500
  1867.0000      0.0000   -999.2500   -999.2500   -999.2500
  1867.2500      0.0000   -999.2500   -999.2500   -999.2500
  1867.5000      0.0000   -999.2500   -999.2500   -999.2500
  1867.7500      0.0000   -999.2500   -999.2500   -999.2500
  1868.0000      0.0000   -999.2500   -999.2500   -999.2500
  1868.2500      0.0000   -999.2500   -999.2500   -999.2500
  1868.5000      0.0000   -999.2500   -999.2500   -999.2500
  1868.7500   -999.2500   -999.2500   -999.2500   -999.2500
  1869.0000   -999.2500   -999.2500   -999.2500   -999.2500
  1869.2500   -999.2500   -999.2500   -999.2500   -999.2500
  1869.5000   -999.2500   -999.2500   -999.2500   -999.2500
  1869.7500   -999.2500   -999.2500   -999.2500   -999.2500
  1870.0000   -999.2500   -999.2500   -999.2500   -999.2500
  1870.2500   -999.2500   -999.2500   -999.2500   -999.2500
  1870.5000   -999.2500   -999.2500   -999.2500   -999.2500
  1870.7500   -999.2500   -999.2500   -999.2500   -999.2500
  1871.0000   -999.2500   -999.2500   -999.2500   -999.2500
  1871.2500   -999.2500   -999.2500   -999.2500   -999.2500
