~Version Information
VERS.                      2.0: CWLS Log ASCII Standard - VERSION 2.0
WRAP.                       NO: One line per depth step
~Well Information Block
STRT.FT               390.0000: 
STOP.FT               825.0000: 
STEP.FT                 0.1000: 
NULL.                -999.2500: 
COMP.          Pioneer Natural Resources: COMPANY
WELL.             Veedol 34-28: WELL
FLD.           Purgatoire River: FIELD
LOC.           357' FSL & 2520' FEL: LOCATION
PROV.                 Colorado: PROVINCE
CNTY.               Las Animas: COUNTRY
SRVC.                Patterson: SERVICE COMPANY
DATE.          Thu Dec 22 14:38:20 2005: LOG DATE
UWI.           05 071 08628 00: UNIQUE WELL ID
~Curve Information Block
DEPT.FT            0 000 00 00: Depth
DCAL.in                       : CDL Caliper
RHOB.g/cc                     : CDL Bulk Density
RHOC.g/cc                     : CDL Density Correction
DPOR.pu                       : CDL Density Porosity
GR.GAPI                       : Gamma Ray
NPOR.pu                       : Neutron Porosity
~Parameter Information Block
~A  Depth       DCAL        RHOB        RHOC        DPOR         GR         NPOR    
# ...
   447.6000      7.9029      2.4256      0.0049     13.5981     49.7906     17.1699
   447.7000      7.9029      2.4093     -0.0271     14.5865     48.5011     17.4580
   447.8000      7.9034      2.4005      0.0051     15.1213     47.1630     17.6895
   447.9000      7.9034      2.4020     -0.0037     15.0283     47.5059     17.9821
   448.0000      7.9042      2.4159      0.0078     14.1853     47.1640     18.2316
   448.1000      7.9042      2.4371      0.0581     12.9045     45.0282     18.1976
   448.2000      7.9042      2.4461      0.0699     12.3568     42.5550     18.2384
   448.3000      7.9055      2.4331      0.0504     13.1477     40.1720     18.7768
   448.4000      7.9055      2.4160      0.0381     14.1799     38.0867     19.0556
   448.5000      7.9060      2.4139      0.0613     14.3108     37.6266     18.3979
   448.6000      7.9060      2.4297      0.0485     13.3523     39.4927     17.5215
   448.7000      7.9060      2.4646      0.0680     11.2352     42.7663     17.2227
   448.8000      7.9050      2.5127      0.1069      8.3230     46.1835     17.3991
   448.9000      7.9050      2.5592      0.1250      5.5059     49.9795     17.3884
   449.0000      7.9040      2.5892      0.1738      3.6867     52.6527     17.1840
   449.1000      7.9040      2.5899      0.1805      3.6416     50.6925     17.3113
   449.2000      7.9040      2.5607      0.1307      5.4102     45.1668     17.6467
   449.3000      7.9042      2.5206      0.0933      7.8451     41.5184     17.6608
   449.4000      7.9042      2.4910      0.0611      9.6356     41.8311     17.2986
   449.5000      7.9044      2.4789      0.0508     10.3679     43.6039     16.7238
   449.6000      7.9044      2.4809      0.0267     10.2459     45.0545     16.0401
   449.7000      7.9044      2.4933      0.0336      9.4952     44.7702     15.6835
   449.8000      7.9046      2.5105      0.0595      8.4556     42.2731     15.9527
   449.9000      7.9046      2.5292      0.0804      7.3204     39.2138     16.6315
   450.0000      7.9047      2.5500      0.0850      6.0635     36.0200     17.0308
   450.1000      7.9047      2.5673      0.1259      5.0127     34.5550     16.9520
   450.2000      7.9047      2.5753      0.1274      4.5275     36.5377     16.9288
   450.3000      7.9042      2.5811      0.1150      4.1771     39.8662     17.2283
   450.4000      7.9042      2.5913      0.1429      3.5566     42.9842     17.6045
   450.5000      7.9040      2.5965      0.1405      3.2418     46.2046     17.7036
   450.6000      7.9040      2.5886      0.0937      3.7237     49.5647     17.7255
   450.7000      7.9040      2.5707      0.1000      4.8077     53.5039     18.1688
   450.8000      7.9042      2.5506      0.0768      6.0255     57.1784     18.9335
   450.9000      7.9042      2.5350      0.0877      6.9714     58.1840     19.4453
   451.0000      7.9036      2.5281      0.0429      7.3906     55.5932     19.9033
   451.1000      7.9036      2.5365      0.0192      6.8815     52.5940     20.6161
   451.2000      7.9036      2.5644      0.0294      5.1891     53.3540     21.0144
   451.3000      7.9025      2.6068      0.0432      2.6190     56.4558     20.9714
   451.4000      7.9025      2.6483      0.0687      0.1050     56.2568     20.8877
   451.5000      7.9023      2.6713      0.1029     -1.2919     52.8565     20.4595
   451.6000      7.9023      2.6685      0.0764     -1.1203     49.7035     19.4242
   451.7000      7.9023      2.6445      0.1027      0.3342     48.9837     18.2406
   451.8000      7.9030      2.6100      0.0512      2.4244     51.0397     17.3295
   451.9000      7.9030      2.5772      0.0334      4.4143     53.2071     16.6459
   452.0000      7.9028      2.5532      0.0208      5.8667     53.0844     16.2420
   452.1000      7.9028      2.5390     -0.0259      6.7296     51.5954     16.4143
   452.2000      7.9028      2.5341     -0.0427      7.0231     51.0864     17.1316
   452.3000      7.9019      2.5329     -0.0111      7.0997     53.2944     17.6777
   452.4000      7.9019      2.5286      0.0054      7.3571     60.2943     17.6450
   452.5000      7.9018      2.5316     -0.0476      7.1776     69.2335     17.7772
   452.6000      7.9018      2.5487      0.0141      6.1412     73.1427     18.5160
   452.7000      7.9018      2.5592      0.0545      5.5057     71.4255     19.2121
   452.8000      7.9024      2.5472      0.0506      6.2296     70.0005     19.4573
   452.9000      7.9024      2.5261      0.0143      7.5068     72.0476     19.6354
   453.0000      7.9026      2.5148     -0.0229      8.1918     76.7084     19.8411
   453.1000      7.9026      2.5126      0.0256      8.3249     83.2144     19.9595
   453.2000      7.9026      2.5102      0.0050      8.4729     88.6765     20.0527
   453.3000      7.9022      2.5138      0.0090      8.2552     89.1418     20.3397
   453.4000      7.9022      2.5327      0.0073      7.1069     85.5865     21.2312
   453.5000      7.9021      2.5599      0.0466      5.4614     81.5762     22.3498
   453.6000      7.9021      2.5801      0.0607      4.2393     78.2804     22.6445
   453.7000      7.9021      2.5865      0.0647      3.8471     76.6988     22.0755
   453.8000      7.9029      2.5854      0.0758      3.9128     77.6807     21.2791
   453.9000      7.9029      2.5899      0.0626      3.6419     80.0432     20.5987
   454.0000      7.9036      2.5974      0.0892      3.1900     83.4213     20.4972
   454.1000      7.9036      2.5868      0.0808      3.8292     85.7313     20.9129
   454.2000      7.9036      2.5569      0.0767      5.6411     84.7305     21.0552
   454.3000      7.9033      2.5366      0.0268      6.8704     83.1688     21.0431
   454.4000      7.9033      2.5421      0.0429      6.5422     86.4748     21.3561
   454.5000      7.9027      2.5520      0.0677      5.9422     93.7216     21.7246
   454.6000      7.9027      2.5452      0.0299      6.3506     96.9363     21.7085
   454.7000      7.9027      2.5316      0.0414      7.1754     92.8522     21.3986
   454.8000      7.9021      2.5270      0.0777      7.4521     86.8476     21.2056
   454.9000      7.9021      2.5268      0.0857      7.4694     86.0095     21.1997
   455.0000      7.9012      2.5194      0.0555      7.9147     92.0518     21.0973
   455.1000      7.9012      2.5092      0.0467      8.5306     98.9981     21.0567
   455.2000      7.9012      2.5046      0.0531      8.8096     99.5910     21.4404
   455.3000      7.9003      2.5012      0.0695      9.0209     94.2522     22.0134
   455.4000      7.9003      2.4956      0.0383      9.3602     89.7059     22.3103
   455.5000      7.9003      2.4992      0.0214      9.1412     88.3881     22.2333
   455.6000      7.9003      2.5195      0.0788      7.9091     86.3894     22.3838
   455.7000      7.9003      2.5460      0.0820      6.3012     82.4278     23.0252
   455.8000      7.9017      2.5585      0.1371      5.5425     81.7481     23.3565
   455.9000      7.9017      2.5502      0.0739      6.0458     85.2417     22.9993
   456.0000      7.9022      2.5399      0.0635      6.6710     88.1871     22.2415
   456.1000      7.9022      2.5385      0.1063      6.7589     90.2579     21.3775
   456.2000      7.9022      2.5389      0.0632      6.7356     94.3841     21.1678
   456.3000      7.9016      2.5403      0.0858      6.6508     99.7858     21.9546
   456.4000      7.9016      2.5440      0.0886      6.4241    101.7543     22.9347
   456.5000      7.9009      2.5506      0.0657      6.0235     98.6640     23.5472
   456.6000      7.9009      2.5608      0.0580      5.4063     93.9033     23.8843
   456.7000      7.9009      2.5610      0.1155      5.3935     90.2122     23.9960
   456.8000      7.9009      2.5397      0.0544      6.6819     87.6715     23.9685
   456.9000      7.9009      2.5142      0.0020      8.2332     86.7050     24.1782
   457.0000      7.9012      2.5080      0.0094      8.6062     87.7652     24.6013
   457.1000      7.9012      2.5277      0.0085      7.4096     88.7587     24.5364
