~Version Information
VERS.                      2.0: CWLS Log ASCII Standard - VERSION 2.0
WRAP.                       NO: One line per depth step
~Well Information Block
STRT.FT               -10.0000: 
STOP.FT              1703.5000: 
STEP.FT                 0.2500: 
NULL.                -999.2500: 
COMP.          Pioneer Natural Resources: COMPANY
WELL.          Parrothead 31-31 Tr: WELL
FLD.           Purgatoire River: FIELD
LOC.           496' FNL & 1546' FEL--: LOCATION
PROV.                       CO: PROVINCE
CNTY.               Las Animas: COUNTRY
SRVC.          Patterson Wireline: SERVICE COMPANY
DATE.          Mon Nov 14 09:44:02 2005: LOG DATE
UWI.           05 071 08610 00: UNIQUE WELL ID
~Curve Information Block
DEPT.FT            0 000 00 00: Depth
CCL.                          : Casing Collar Locator
TT3.usec                      : CBL 3' Travel Time
AMP3.mV                       : CBL 3' Amplitude
GR.GAPI                       : Gamma Ray
~Parameter Information Block
~A  Depth       CCL         TT3         AMP3         GR     
# ...
   660.0000      0.0000    750.5859      9.0636     99.7339
   660.2500      0.0000    750.4235      8.7625    110.0539
   660.5000      0.0000    750.2108      8.5181    118.0257
   660.7500      0.0000    749.9676      8.3774    122.7232
   661.0000      0.0000    749.7109      8.3547    125.3561
   661.2500      0.0000    749.4616      8.4373    127.5171
   661.5000      0.0000    749.2668      8.5922    129.7835
   661.7500      0.0000    749.1990      8.7825    131.3152
   662.0000      0.0000    749.3085      8.9844    130.3471
   662.2500      0.0000    749.5730      9.1859    125.3483
   662.5000      0.0000    749.9097      9.3762    116.4134
   662.7500      0.0000    750.2422      9.5427    105.7427
   663.0000      0.0000    750.5397      9.6763     96.3967
   663.2500      0.0000    750.7894      9.7726     90.3152
   663.5000      0.0000    750.9609      9.8307     87.4344
   663.7500      0.0000    751.0256      9.8578     86.2950
   664.0000      0.0000    751.0010      9.8745     85.2759
   664.2500      0.0000    750.9440      9.9033     83.6787
   664.5000      0.0000    750.8908      9.9417     81.9554
   664.7500      0.0000    750.8169      9.9526     81.0133
   665.0000      0.0000    750.6682      9.8920     81.6918
   665.2500      0.0000    750.4254      9.7514     84.8584
   665.5000      0.0000    750.1308      9.5674     91.1351
   665.7500      0.0000    749.8578      9.3889     99.9235
   666.0000      0.0000    749.6655      9.2423    109.2528
   666.2500      0.0000    749.5751      9.1304    117.1527
   666.5000      0.0000    749.5733      9.0536    122.7802
   666.7500      0.0000    749.6301      9.0128    125.9325
   667.0000      0.0000    749.7139      8.9967    126.2109
   667.2500      0.0000    749.8029      8.9832    123.2700
   667.5000      0.0000    749.8896      8.9654    117.7224
   667.7500      0.0000    749.9766      8.9637    111.3717
   668.0000      0.0000    750.0579      9.0032    106.1738
   668.2500      0.0000    750.1124      9.0836    102.8351
   668.5000      0.0000    750.1245      9.1772    100.6059
   668.7500      0.0000    750.1056      9.2526     98.4749
   669.0000      0.0000    750.0853      9.2950     96.1807
   669.2500      0.0000    750.0900      9.3013     94.1308
   669.5000      0.0000    750.1289      9.2637     92.9922
   669.7500      0.0000    750.1865      9.1702     93.3159
   670.0000      0.0000    750.2254      9.0237     94.8967
   670.2500      0.0000    750.2067      8.8529     96.5008
   670.5000      0.0000    750.1199      8.6967     96.7343
   670.7500      0.0000    749.9974      8.5808     95.0939
   671.0000      0.0000    749.8975      8.5117     92.0413
   671.2500      0.0000    749.8600      8.4840     88.5833
   671.5000      0.0000    749.8703      8.4883     85.9162
   671.7500      0.0000    749.8653      8.5137     84.7403
   672.0000      0.0000    749.7797      8.5525     84.5697
   672.2500      0.0000    749.5955      8.6016     84.0521
   672.5000      0.0000    749.3563      8.6571     82.1192
   672.7500      0.0000    749.1369      8.7071     78.8364
   673.0000      0.0000    748.9962      8.7371     75.3670
   673.2500      0.0000    748.9520      8.7425     73.3871
   673.5000      0.0000    748.9899      8.7323     74.3726
   673.7500      0.0000    749.0878      8.7192     79.0194
   674.0000      0.0000    749.2301      8.7082     86.9759
   674.2500      0.0000    749.4026      8.6937     96.9416
   674.5000      0.0000    749.5845      8.6660    106.9802
   674.7500      0.0000    749.7562      8.6239    114.9311
   675.0000      0.0000    749.9131      8.5845    119.1284
   675.2500      0.0000    750.0603      8.5788    119.1804
   675.5000      0.0000    750.1859      8.6282    116.0655
   675.7500      0.0000    750.2502      8.7219    111.5396
   676.0000      0.0000    750.2175      8.8186    107.5913
   676.2500      0.0000    750.0948      8.8749    105.9191
   676.5000      0.0000    749.9303      8.8758    107.1875
   676.7500      0.0000    749.7728      8.8353    110.6609
   677.0000      0.0000    749.6414      8.7733    114.7751
   677.2500      0.0000    749.5300      8.6967    117.9549
   677.5000      0.0000    749.4231      8.6048    119.0750
   677.7500      0.0000    749.3019      8.5071    117.9109
   678.0000      0.0000    749.1475      8.4304    115.3014
   678.2500      0.0000    748.9533      8.4061    112.1953
   678.5000      0.0000    748.7437      8.4460    108.3663
   678.7500      0.0000    748.5744      8.5287    102.6939
   679.0000      0.0000    748.4946      8.6107     94.9457
   679.2500      0.0000    748.4950      8.6545     86.7420
   679.5000      0.0000    748.4987      8.6474     80.4298
   679.7500      0.0000    748.4196      8.5995     77.2660
   680.0000      0.0000    748.2423      8.5324     76.7453
   680.2500      0.0000    748.0402      8.4677     77.2050
   680.5000      0.0000    747.9107      8.4148     76.8528
   680.7500      0.0000    747.8938      8.3676     74.6606
   681.0000      0.0000    747.9548      8.3201     71.0626
   681.2500      0.0000    748.0388      8.2817     68.1026
   681.5000      0.0000    748.1290      8.2684     68.5246
   681.7500      0.0000    748.2512      8.2787     73.8526
   682.0000      0.0000    748.4243      8.2869     82.7619
   682.2500      0.0000    748.6166      8.2651     91.4699
   682.5000      0.0000    748.7644      8.2113     96.2247
   682.7500      0.0000    748.8326      8.1546     95.6397
   683.0000      0.0000    748.8474      8.1325     90.7532
   683.2500      0.0000    748.8636      8.1591     83.4444
   683.5000      0.0000    748.9034      8.2134     75.3032
   683.7500      0.0000    748.9252      8.2483     67.6014
   684.0000      0.0000    748.7817      8.2090     61.4571
   684.2500      0.0000    748.1372      8.0524     57.5216
   684.5000      0.0000    746.4900      7.7768     55.5558
   684.7500      0.0000    743.7097      7.4439     54.7565
   685.0000      0.0000    741.2964      7.1525     54.7945
   685.2500      0.0000    742.9836      6.9675     56.0725
   685.5000      0.0000    752.2265      6.8898     58.5679
   685.7500      0.0000    767.5864      6.9036     61.0373
   686.0000      0.0000    782.0320      7.0125     62.0260
   686.2500      0.0000    788.9633      7.2035     61.3742
   686.5000      0.0000    788.2044      7.4141     60.3076
   686.7500      0.0000    784.7706      7.5672     60.2164
   687.0000     -2.0000    783.0882      7.6226     61.5130
   687.2500      0.0000    783.7014      7.6057     63.6278
   687.5000      0.0000    784.2800      7.6109     66.1418
   687.7500      0.0000    782.2532      7.7534     69.8464
   688.0000      0.0000    776.7400      8.0605     76.3058
   688.2500      0.0000    768.9677      8.4215     86.2859
   688.5000      0.0000    761.2423      8.6908     98.9429
   688.7500      0.0000    755.3915      8.8189    112.5672
   689.0000      0.0000    751.9296      8.8449    125.6658
   689.2500      0.0000    750.3314      8.8157    137.1123
   689.5000      0.0000    749.7756      8.7647    145.7815
   689.7500      0.0000    749.6390      8.7273    150.6226
   690.0000      0.0000    749.5847      8.7247    151.1631
   690.2500      0.0000    749.4789      8.7439    147.8033
   690.5000      0.0000    749.3030      8.7516    141.5954
   690.7500      0.0000    749.0909      8.7231    133.8133
   691.0000      0.0000    748.8836      8.6511    125.8066
   691.2500      0.0000    748.6950      8.5378    119.1060
   691.5000      0.0000    748.5099      8.3899    115.1375
   691.7500      0.0000    748.3136      8.2213    114.4412
   692.0000      0.0000    748.1154      8.0558    116.2437
   692.2500      0.0000    747.9401      7.9204    119.0168
   692.5000      0.0000    747.8153      7.8338    121.4652
   692.7500      0.0000    747.7827      7.8033    123.0900
   693.0000      0.0000    747.9357      7.8305    124.0883
   693.2500      0.0000    748.4431      7.9146    124.8693
