~Version Information
VERS.                      2.0: CWLS Log ASCII Standard - VERSION 2.0
WRAP.                       NO: One line per depth step
~Well Information Block
STRT.FT               555.0000: 
STOP.FT              2322.2000: 
STEP.FT                 0.1000: 
NULL.                -999.2500: 
COMP.          Pioneer Natural Resources: COMPANY
WELL.          Fittipaldi 21-12: WELL
FLD.           Purgatoire River: FIELD
LOC.           207' FNL & 2110' FWL--: LOCATION
CNTY.               Las Animas: COUNTY
SRVC.                Patterson: SERVICE COMPANY
DATE.          Wed Mar 22 07:11:06 2006: LOG DATE
UWI.           05 071 08492 00: UNIQUE WELL ID
STAT.                 Colorado: STATE
~Curve Information Block
DEPT.FT            0 000 00 00: Depth
DCAL.in                       : CDL Caliper
RHOB.g/cc                     : CDL Bulk Density
RHOC.g/cc                     : CDL Density Correction
DPOR.pu                       : CDL Density Porosity
NPOR.pu                       : Neutron Porosity
GR.GAPI                       : Gamma Ray
~Parameter Information Block
~A  Depth       DCAL        RHOB        RHOC        DPOR        NPOR         GR     
   555.0000      8.3288      2.3804     -0.1546     16.3398     38.3671     75.9742
   555.1000      8.3288      2.3737     -0.1519     16.7455     38.6928     82.0058
   555.2000      8.3288      2.3517     -0.2009     18.0806     39.0127     83.1396
   555.3000      8.3323      2.3286     -0.1768     19.4765     39.2257     79.3685
   555.4000      8.3323      2.3053     -0.2276     20.8912     39.1824     75.5425
   555.5000      8.3337      2.2940     -0.2548     21.5774     39.0056     73.1091
   555.6000      8.3337      2.3057     -0.1984     20.8667     38.9137     70.5969
   555.7000      8.3337      2.3207     -0.1424     19.9559     38.9307     69.0614
   555.8000      8.3326      2.3254     -0.1906     19.6752     38.9417     71.3817
   555.9000      8.3326      2.3365     -0.2249     18.9979     38.9570     77.5941
   556.0000      8.3316      2.3613     -0.1480     17.4992     39.1336     84.1723
   556.1000      8.3316      2.3795     -0.1489     16.3942     39.4255     86.2059
   556.2000      8.3316      2.3780     -0.1589     16.4832     39.6396     81.2120
   556.3000      8.3318      2.3584     -0.1646     17.6697     39.7332     74.4650
   556.4000      8.3318      2.3270     -0.1878     19.5729     39.7770     73.8671
   556.5000      8.3315      2.3091     -0.3259     20.6593     39.6195     77.1441
   556.6000      8.3315      2.3225     -0.1978     19.8485     39.2266     75.7843
   556.7000      8.3315      2.3417     -0.2034     18.6849     39.1245     69.0479
   556.8000      8.3307      2.3368     -0.1698     18.9834     39.4895     63.6930
   556.9000      8.3307      2.3089     -0.2249     20.6724     39.7331     64.5282
   557.0000      8.3314      2.2862     -0.3010     22.0514     39.6190     69.7994
   557.1000      8.3314      2.2843     -0.1898     22.1656     39.4366     73.5650
   557.2000      8.3314      2.2913     -0.2315     21.7416     39.3584     73.2092
   557.3000      8.3328      2.3002     -0.2134     21.1983     39.3556     71.6005
   557.4000      8.3328      2.3044     -0.1514     20.9452     39.3334     71.2791
   557.5000      8.3324      2.2916     -0.1695     21.7215     39.2756     73.3932
   557.6000      8.3324      2.2712     -0.2096     22.9571     39.1725     78.2497
   557.7000      8.3324      2.2597     -0.1996     23.6531     39.1181     81.9404
   557.8000      8.3315      2.2566     -0.2329     23.8446     39.2065     82.0063
   557.9000      8.3315      2.2550     -0.2046     23.9390     39.3968     82.0499
   558.0000      8.3314      2.2547     -0.2107     23.9600     39.6178     83.6696
   558.1000      8.3314      2.2646     -0.2406     23.3546     39.8313     83.5417
   558.2000      8.3314      2.2832     -0.1586     22.2282     39.9191     80.7762
   558.3000      8.3320      2.2953     -0.1989     21.4990     39.7865     79.5072
   558.4000      8.3320      2.2995     -0.1724     21.2428     39.6509     81.8450
   558.5000      8.3327      2.3002     -0.1977     21.2009     39.7590     84.4264
   558.6000      8.3327      2.2927     -0.1844     21.6558     40.0657     85.9872
   558.7000      8.3327      2.2728     -0.2478     22.8598     40.3923     89.0916
   558.8000      8.3325      2.2504     -0.2730     24.2168     40.4696     92.2311
   558.9000      8.3325      2.2369     -0.2720     25.0335     40.2829     92.2161
   559.0000      8.3328      2.2267     -0.2114     25.6543     40.0788     89.6157
   559.1000      8.3328      2.2103     -0.2801     26.6515     40.0335     88.6998
   559.2000      8.3328      2.2027     -0.3222     27.1113     40.1354     88.9777
   559.3000      8.3338      2.2242     -0.2788     25.8074     40.2419     84.8298
   559.4000      8.3338      2.2684     -0.2382     23.1285     40.1779     79.0553
   559.5000      8.3349      2.3126     -0.1781     20.4459     39.8581     77.8101
   559.6000      8.3349      2.3393     -0.1679     18.8274     39.5168     79.2766
   559.7000      8.3349      2.3426     -0.1809     18.6323     39.4591     81.0274
   559.8000      8.3374      2.3259     -0.1751     19.6404     39.4960     84.9055
   559.9000      8.3374      2.3053     -0.2746     20.8934     39.2704     90.4414
   560.0000      8.3392      2.2959     -0.2092     21.4577     38.9790     93.5413
   560.1000      8.3392      2.2867     -0.2227     22.0177     38.8621     91.6319
   560.2000      8.3392      2.2677     -0.2425     23.1670     38.8576     87.6540
   560.3000      8.3386      2.2516     -0.2647     24.1438     38.7527     84.5097
   560.4000      8.3386      2.2451     -0.2376     24.5372     38.3914     81.0826
   560.5000      8.3373      2.2423     -0.2318     24.7069     38.0616     75.1954
   560.6000      8.3373      2.2380     -0.2561     24.9690     37.9741     68.1924
   560.7000      8.3373      2.2330     -0.2457     25.2709     38.0296     66.0101
   560.8000      8.3370      2.2414     -0.2932     24.7657     38.2662     71.1823
   560.9000      8.3370      2.2737     -0.2067     22.8050     38.7563     79.8159
   561.0000      8.3386      2.3081     -0.1751     20.7235     39.3022     86.0482
   561.1000      8.3386      2.3109     -0.1413     20.5532     39.4891     86.7332
   561.2000      8.3386      2.2808     -0.2151     22.3770     39.1556     82.6389
   561.3000      8.3403      2.2469     -0.2290     24.4286     38.8588     75.1707
   561.4000      8.3403      2.2303     -0.2516     25.4380     39.0694     67.0890
   561.5000      8.3398      2.2286     -0.2597     25.5388     39.5153     64.0000
   561.6000      8.3398      2.2299     -0.2439     25.4616     39.7429     69.0284
   561.7000      8.3398      2.2264     -0.2422     25.6734     39.5878     75.4303
   561.8000      8.3385      2.2137     -0.2197     26.4428     39.3144     75.8187
   561.9000      8.3385      2.1903     -0.2764     27.8613     39.1698     73.3320
   562.0000      8.3369      2.1654     -0.2512     29.3716     39.0038     72.9725
   562.1000      8.3369      2.1556     -0.3017     29.9652     38.8505     73.7811
   562.2000      8.3369      2.1712     -0.2610     29.0164     38.9234     74.2224
   562.3000      8.3345      2.2022     -0.1932     27.1413     39.0591     76.3871
   562.4000      8.3345      2.2257     -0.2097     25.7174     39.1316     79.4258
   562.5000      8.3329      2.2302     -0.2473     25.4405     39.2402     77.9712
   562.6000      8.3329      2.2225     -0.2238     25.9119     39.2369     71.6416
   562.7000      8.3329      2.2110     -0.2052     26.6087     38.9055     67.2879
   562.8000      8.3314      2.2055     -0.2707     26.9394     38.4375     68.7313
   562.9000      8.3314      2.2168     -0.2315     26.2570     38.2237     73.4918
   563.0000      8.3307      2.2327     -0.1864     25.2905     38.2321     77.9056
   563.1000      8.3307      2.2378     -0.2325     24.9827     38.4088     81.8491
   563.2000      8.3307      2.2412     -0.2394     24.7787     38.9109     87.0676
   563.3000      8.3325      2.2477     -0.1948     24.3848     39.2895     91.0772
   563.4000      8.3325      2.2511     -0.2656     24.1753     39.0666     88.0610
   563.5000      8.3359      2.2603     -0.1845     23.6178     38.6428     80.1569
   563.6000      8.3359      2.2927     -0.2435     21.6569     38.6732     75.3265
   563.7000      8.3359      2.3479     -0.1300     18.3093     39.2428     77.2749
   563.8000      8.3369      2.4155     -0.1605     14.2130     39.8207     83.6999
   563.9000      8.3369      2.4994     -0.1327      9.1255     40.1299     88.9593
   564.0000      8.3352      2.5758     -0.0569      4.4974     40.4114     90.6862
   564.1000      8.3352      2.5891     -0.0616      3.6887     40.8282     92.3440
   564.2000      8.3352      2.5274     -0.1667      7.4319     41.3477     97.1890
   564.3000      8.3328      2.4028     -0.1126     14.9789     41.7801    101.9990
   564.4000      8.3328      2.2096     -0.2566     26.6885     41.8700    103.0704
   564.5000      8.3318      1.9834     -0.4856     40.4020     41.7269    102.3509
