~Version Information
VERS.                      2.0: CWLS Log ASCII Standard - VERSION 2.0
WRAP.                       NO: One line per depth step
~Well Information Block
STRT.FT               240.0000: 
STOP.FT               940.5000: 
STEP.FT                 0.1000: 
NULL.                -999.2500: 
COMP.          Pioneer Natural Resources: COMPANY
WELL.               Ernie 31-6: WELL
FLD.           Purgatoire River: FIELD
LOC.           681' FNL & 2138' FEL: LOCATION
CNTY.               Las Animas: COUNTY
SRVC.                Patterson: SERVICE COMPANY
DATE.          Tue May 30 07:05:10 2006: LOG DATE
UWI.           05 071 08716 00: UNIQUE WELL ID
STAT.                 Colorado: STATE
~Curve Information Block
DEPT.FT            0 000 00 00: Depth
DCAL.in                       : CDL Caliper
RHOB.g/cc                     : CDL Bulk Density
RHOC.g/cc                     : CDL Density Correction
DPOR.pu                       : CDL Density Porosity
GR.GAPI                       : Gamma Ray
NPOR.pu                       : Neutron Porosity
~Parameter Information Block
~A  Depth       DCAL        RHOB        RHOC        DPOR         GR         NPOR    
# ...
   835.2000      7.9361      2.4558      0.0884     11.7714     77.6040     16.8153
   835.3000      7.9334      2.4696      0.0423     10.9344     83.3363     16.9290
   835.4000      7.9334      2.4563      0.0882     11.7409     87.5427     17.1680
   835.5000      7.9333      2.4232      0.0587     13.7484     85.9704     17.2886
   835.6000      7.9333      2.3957      0.0048     15.4121     84.1683     17.4124
   835.7000      7.9333      2.3911      0.0415     15.6883     87.7018     17.5315
   835.8000      7.9344      2.4002      0.0221     15.1388     89.2728     17.4800
   835.9000      7.9344      2.4064      0.0388     14.7648     83.9387     17.4472
   836.0000      7.9280      2.4010      0.0592     15.0905     79.0304     17.4070
   836.1000      7.9280      2.3883      0.0477     15.8630     76.6389     16.9863
   836.2000      7.9280      2.3822      0.0317     16.2285     73.9637     16.3232
   836.3000      7.9328      2.3936      0.0239     15.5368     72.4516     15.9899
   836.4000      7.9328      2.4163      0.0736     14.1643     72.9840     16.1909
   836.5000      7.9368      2.4348      0.0626     13.0397     73.5039     16.6020
   836.6000      7.9368      2.4446      0.0711     12.4489     74.8521     17.0046
   836.7000      7.9368      2.4475      0.0698     12.2713     78.5881     17.2902
   836.8000      7.9381      2.4439      0.0730     12.4911     78.6893     17.3985
   836.9000      7.9381      2.4372      0.0214     12.8966     74.0695     17.6303
   837.0000      7.9362      2.4325      0.0447     13.1808     73.9470     18.3314
   837.1000      7.9362      2.4256      0.0587     13.5984     80.2591     19.1021
   837.2000      7.9362      2.4136      0.0262     14.3257     86.2167     19.0371
   837.3000      7.9340      2.4011      0.0386     15.0842     89.5434     17.9634
   837.4000      7.9340      2.3884      0.0431     15.8526     92.5555     16.8621
   837.5000      7.9326      2.3782      0.0026     16.4736     94.8771     16.5514
   837.6000      7.9326      2.3762      0.0310     16.5915     94.1942     16.8303
   837.7000      7.9326      2.3858      0.0213     16.0128     88.0512     17.1076
   837.8000      7.9340      2.4065      0.0363     14.7580     79.3971     17.1757
   837.9000      7.9340      2.4254      0.0653     13.6122     78.6221     17.3308
   838.0000      7.9334      2.4311      0.0466     13.2659     88.4774     17.6570
   838.1000      7.9334      2.4332      0.0416     13.1383    100.4849     18.0766
   838.2000      7.9334      2.4439      0.0442     12.4890    105.2026     18.4759
   838.3000      7.9347      2.4569      0.0731     11.7022    101.9435     18.4186
   838.4000      7.9347      2.4602      0.0137     11.5058     97.7500     18.1960
   838.5000      7.9352      2.4530      0.0666     11.9420     99.3650     18.6043
   838.6000      7.9352      2.4417      0.0215     12.6248    105.6414     19.5084
   838.7000      7.9352      2.4339      0.0160     13.0969    108.7348     20.2877
   838.8000      7.9347      2.4292      0.0553     13.3804    105.7446     20.5707
   838.9000      7.9347      2.4255      0.0211     13.6041    100.2405     20.1547
   839.0000      7.9310      2.4285      0.0347     13.4264     93.8253     19.3176
   839.1000      7.9310      2.4356      0.0966     12.9964     90.2319     18.4867
   839.2000      7.9310      2.4342      0.0899     13.0770     91.3782     17.6561
   839.3000      7.9347      2.4247      0.0813     13.6540     92.0624     16.8360
   839.4000      7.9347      2.4205      0.0446     13.9089     90.0665     16.3553
   839.5000      7.9351      2.4235      0.0711     13.7251     88.9651     16.4129
   839.6000      7.9351      2.4231      0.0621     13.7496     91.2519     17.0606
   839.7000      7.9351      2.4205      0.0341     13.9103     95.2919     18.1174
   839.8000      7.9364      2.4197      0.0580     13.9561     98.0246     18.9356
   839.9000      7.9364      2.4138      0.0532     14.3130     97.0711     19.1616
   840.0000      7.9345      2.4042      0.0411     14.8942     93.5583     18.7992
   840.1000      7.9345      2.4028      0.0670     14.9831     90.8284     17.8988
   840.2000      7.9345      2.4136      0.0653     14.3281     89.0778     17.1084
   840.3000      7.9260      2.4260      0.0924     13.5774     87.4545     17.1388
   840.4000      7.9260      2.4260      0.0670     13.5770     86.4890     17.8767
   840.5000      7.9359      2.4237      0.0265     13.7161     86.3840     18.5618
   840.6000      7.9359      2.4380      0.0617     12.8456     86.2431     18.7560
   840.7000      7.9359      2.4593      0.0817     11.5596     84.1534     18.8460
   840.8000      7.9363      2.4668      0.0943     11.1011     82.9065     18.9880
   840.9000      7.9363      2.4579      0.0884     11.6442     85.7668     18.6667
   841.0000      7.9334      2.4428      0.0600     12.5552     87.5584     18.0173
   841.1000      7.9334      2.4334      0.0422     13.1273     85.2313     17.8536
   841.2000      7.9334      2.4321      0.0441     13.2086     82.5031     18.2220
   841.3000      7.9358      2.4297      0.0438     13.3501     80.3030     18.8559
   841.4000      7.9358      2.4189      0.0229     14.0038     79.4105     19.6543
   841.5000      7.9388      2.4076      0.0343     14.6899     81.9718     20.2341
   841.6000      7.9388      2.4112      0.0287     14.4710     87.4804     20.0822
   841.7000      7.9388      2.4324      0.0755     13.1886     93.8697     19.0744
   841.8000      7.9353      2.4573      0.0645     11.6772     97.6549     17.9109
   841.9000      7.9353      2.4721      0.0856     10.7843     95.3866     17.3817
   842.0000      7.9342      2.4676      0.0749     11.0555     89.6874     17.5537
   842.1000      7.9342      2.4478      0.0239     12.2533     85.7002     17.7663
   842.2000      7.9342      2.4277      0.0359     13.4705     83.3400     17.2392
   842.3000      7.9324      2.4137      0.0529     14.3207     80.3045     16.3742
   842.4000      7.9324      2.4041      0.0210     14.9020     75.6768     16.3538
   842.5000      7.9321      2.4038      0.0121     14.9235     71.4517     17.3712
   842.6000      7.9321      2.4157      0.0348     14.2022     70.1909     18.5148
   842.7000      7.9321      2.4376      0.0034     12.8701     72.0403     19.1024
   842.8000      7.9323      2.4643      0.0458     11.2545     73.9064     19.3250
   842.9000      7.9323      2.4779      0.0600     10.4310     72.3835     19.3039
   843.0000      7.9359      2.4709      0.0307     10.8541     70.1152     18.7806
   843.1000      7.9359      2.4642      0.0161     11.2615     71.0415     18.0054
   843.2000      7.9359      2.4694      0.0661     10.9453     72.1338     17.5786
   843.3000      7.9348      2.4703      0.0624     10.8900     70.5016     17.7696
   843.4000      7.9348      2.4563      0.0242     11.7395     71.3410     18.5231
   843.5000      7.9354      2.4332      0.0068     13.1401     76.0348     19.1540
   843.6000      7.9354      2.4115     -0.0198     14.4571     77.3217     18.9755
   843.7000      7.9354      2.4027     -0.0165     14.9853     74.6309     18.2903
   843.8000      7.9346      2.4115      0.0175     14.4554     74.7886     17.7152
   843.9000      7.9346      2.4353     -0.0100     13.0123     79.4977     17.2294
   844.0000      7.9376      2.4679      0.0508     11.0370     85.8570     16.8641
   844.1000      7.9376      2.4899      0.1096      9.7021     91.2799     16.9834
   844.2000      7.9376      2.4910      0.0551      9.6368     90.4431     17.6688
   844.3000      7.9352      2.4936      0.0635      9.4769     82.8933     18.5634
   844.4000      7.9352      2.5132      0.1013      8.2929     79.4867     19.1270
   844.5000      7.9321      2.5307      0.1431      7.2299     87.0869     19.1387
   844.6000      7.9321      2.5285      0.1290      7.3654     96.7607     19.0667
   844.7000      7.9321      2.5121      0.0802      8.3554     98.5304     19.5621
