~Version Information
VERS.                      2.0: CWLS Log ASCII Standard - VERSION 2.0
WRAP.                       NO: One line per depth step
~Well Information Block
STRT.FT                 0.0000: 
STOP.FT              1426.7500: 
STEP.FT                 0.2500: 
NULL.                -999.2500: 
COMP.          Pioneer Natural Resources: COMPANY
WELL.            Bordeaux 42-2: WELL
FLD.           Purgatorie River: FIELD
LOC.           1963' FNL & 1148' FEL: LOCATION
PROV.                 Colorado: PROVINCE
CNTY.               Las Animas: COUNTRY
SRVC.                Patterson: SERVICE COMPANY
DATE.          Fri Dec 02 09:28:20 2005: LOG DATE
UWI.                          : UNIQUE WELL ID
~Curve Information Block
DEPT.FT            0 000 00 00: Depth
CCL.                          : Casing Collar Locator
TT3.usec                      : CBL 3' Travel Time
AMP3.mV                       : CBL 3' Amplitude
GR.GAPI                       : Gamma Ray
~Parameter Information Block
~A  Depth       CCL         TT3         AMP3         GR     
# ...
   100.5000      0.0000    624.8281      9.2755     71.9992
   100.7500      0.0000    652.8401      9.2943     71.0696
   101.0000      0.0000    673.3746      9.3440     70.7393
   101.2500      0.0000    681.2451      9.4133     71.4261
   101.5000      0.0000    681.2589      9.4722     72.7684
   101.7500      0.0000    673.1844      9.5331     73.5641
   102.0000      0.0000    651.9388      9.6467     72.6912
   102.2500      0.0000    622.7158      9.8232     70.1013
   102.5000      0.0000    609.0861      9.9985     66.8738
   102.7500      0.0000    626.5715     10.1120     64.5237
   103.0000      0.0000    660.3145     10.1632     64.0699
   103.2500      0.0000    686.2811     10.1589     65.2477
   103.5000      0.0000    693.6915     10.0946     66.7166
   103.7500      0.0000    687.3143     10.0082     67.5511
   104.0000      0.0000    681.7834      9.9677     68.3687
   104.2500      0.0000    686.6241      9.9932     70.5249
   104.5000      0.0000    697.8582     10.0237     74.4429
   104.7500      0.0000    708.4755      9.9855     79.1906
   105.0000      0.0000    716.9670      9.8810     83.4161
   105.2500      0.0000    723.4005      9.7636     86.2433
   105.5000      0.0000    727.1747      9.6570     87.4727
   105.7500      0.0000    728.7501      9.5581     87.4690
   106.0000      0.0000    729.2584      9.4672     87.0065
   106.2500      0.0000    729.3843      9.3900     86.8980
   106.5000      0.0000    728.8948      9.3410     87.4570
   106.7500      0.0000    725.1923      9.3367     88.2549
   107.0000      0.0000    709.9351      9.3665     88.3282
   107.2500      0.0000    670.0107      9.3930     86.6170
   107.5000      0.0000    606.0025      9.4006     82.5865
   107.7500      0.0000    553.7060      9.4115     76.8668
   108.0000      0.0000    558.0008      9.4232     71.1933
   108.2500      0.0000    614.4761      9.3892     67.3744
   108.5000      0.0000    673.6954      9.3055     66.1564
   108.7500      0.0000    703.1645      9.2339     66.9804
   109.0000      0.0000    708.2437      9.2089     68.5474
   109.2500      0.0000    704.1429      9.2059     69.5832
   109.5000      0.0000    698.8738      9.2148     69.5764
   109.7500      0.0000    697.4913      9.2542     69.1778
   110.0000      0.0000    703.2885      9.3203     69.6610
   110.2500      0.0000    713.7084      9.4202     71.5550
   110.5000      0.0000    722.7221      9.5975     73.8143
   110.7500      0.0000    727.3594      9.8245     74.5805
   111.0000      0.0000    728.8180      9.9691     72.7831
   111.2500      0.0000    728.8698      9.9667     68.9375
   111.5000      0.0000    727.5364      9.9145     64.5799
   111.7500      0.0000    723.3391      9.9284     61.1752
   112.0000      0.0000    714.2954     10.0264     59.4700
   112.2500      0.0000    696.7974     10.1782     59.5024
   112.5000      0.0000    665.6229     10.3671     60.9599
   112.7500      0.0000    626.2371     10.5723     63.5708
   113.0000      0.0000    598.6328     10.7426     67.1500
   113.2500      0.0000    582.8741     10.8299     71.2438
   113.5000      0.0000    548.2863     10.8398     75.0558
   113.7500      0.0000    487.4467     10.8063     78.0626
   114.0000      0.0000    435.4129     10.7473     80.5268
   114.2500      0.0000    421.1978     10.6916     83.1079
   114.5000      0.0000    436.1168     10.6812     86.1558
   114.7500      0.0000    448.6390     10.7177     89.5263
   115.0000      0.0000    444.1877     10.7853     92.7397
   115.2500      0.0000    443.7155     10.8970     95.0898
   115.5000      0.0000    464.2508     11.0407     95.8547
   115.7500      0.0000    488.5228     11.1506     94.6583
   116.0000      0.0000    506.6387     11.1740     91.6527
   116.2500      0.0000    543.5352     11.1018     87.4497
   116.5000      0.0000    606.5416     10.9477     82.9220
   116.7500      0.0000    661.9960     10.7616     78.8751
   117.0000      0.0000    686.2436     10.6330     75.7860
   117.2500      0.0000    688.7424     10.6208     73.7306
   117.5000      0.0000    684.9752     10.7079     72.3534
   117.7500      0.0000    679.4444     10.8478     71.0704
   118.0000      0.0000    671.5457     11.0056     69.7297
   118.2500      0.0000    662.3296     11.1447     69.0171
   118.5000      0.0000    652.9774     11.2278     69.8739
   118.7500      0.0000    643.4700     11.2650     72.4425
   119.0000      0.0000    635.1950     11.3190     75.6181
   119.2500      0.0000    629.4896     11.4187     77.6130
   119.5000      0.0000    625.1782     11.5355     77.1880
   119.7500      0.0000    621.9263     11.6697     74.7095
   120.0000      0.0000    622.1647     11.8684     72.0555
   120.2500      0.0000    623.0272     12.1870     71.1668
   120.5000      0.0000    612.0868     12.6763     72.3918
   120.7500      0.0000    587.8886     13.2933     74.2780
   121.0000      0.0000    577.3282     13.7020     75.2404
   121.2500      0.0000    604.8770     13.3496     75.3048
   121.5000      0.0000    657.2518     12.1466     75.7170
   121.7500      0.0000    704.2961     10.8045     76.8816
   122.0000      0.0000    729.9944     10.0480     77.5226
   122.2500      2.0000    730.4027      9.9400     76.2792
   122.5000     -2.0000    708.7468     10.1492     73.4658
   122.7500     -2.0000    680.5589     10.3842     70.6897
   123.0000      0.0000    665.8420     10.4981     69.0928
   123.2500      0.0000    663.2334     10.5009     68.4626
   123.5000      0.0000    646.2391     10.6159     67.9084
   123.7500      0.0000    599.0665     11.1016     66.9770
   124.0000      0.0000    536.4218     11.8869     66.0554
   124.2500      0.0000    480.5264     12.7273     65.9903
   124.5000      0.0000    446.4078     13.5959     67.4115
   124.7500      0.0000    440.8836     14.4336     70.2134
   125.0000      0.0000    450.8660     14.9826     73.5907
   125.2500      0.0000    459.5414     15.1833     76.6469
   125.5000      0.0000    471.6010     15.2424     78.9543
   125.7500      0.0000    494.8248     15.3141     80.5021
   126.0000      0.0000    526.1600     15.4057     81.1972
   126.2500      0.0000    557.6053     15.5004     80.5895
   126.5000      0.0000    572.3392     15.6142     78.3201
   126.7500      0.0000    560.0558     15.7629     74.8049
   127.0000      0.0000    536.7633     15.9509     71.0519
   127.2500      0.0000    526.4872     16.1741     67.6648
   127.5000      0.0000    534.8898     16.4129     64.4205
   127.7500      0.0000    540.9391     16.6541     60.8870
   128.0000      0.0000    509.8796     16.9182     57.0338
   128.2500      0.0000    438.4397     17.2209     53.1747
   128.5000      0.0000    366.6939     17.5173     49.7519
   128.7500      0.0000    325.8195     17.7415     47.4446
   129.0000      0.0000    311.6285     17.8771     47.2100
   129.2500      0.0000    308.5023     17.9450     49.7743
   129.5000      0.0000    307.9836     17.9736     54.9696
   129.7500      0.0000    307.8472     17.9949     61.7351
   130.0000      0.0000    307.8961     18.0096     68.7187
   130.2500      0.0000    308.5804     17.9766     74.7961
   130.5000      0.0000    311.4531     17.8705     79.2723
   130.7500      0.0000    319.7256     17.7020     81.9253
   131.0000      0.0000    335.6291     17.4950     82.9374
   131.2500      0.0000    355.4494     17.2683     82.7813
   131.5000      0.0000    371.3465     17.0095     82.1830
   131.7500      0.0000    380.4064     16.6821     81.9825
   132.0000      0.0000    389.5426     16.2986     82.6744
   132.2500      0.0000    413.4807     15.9515     83.8903
   132.5000      0.0000    462.4973     15.7328     84.4137
   132.7500      0.0000    520.6350     15.6520     82.9887
   133.0000      0.0000    549.3024     15.6447     79.4225
   133.2500      0.0000    531.5854     15.6285     74.9081
   133.5000      0.0000    501.0842     15.5730     71.1121
   133.7500      0.0000    505.7705     15.5480     68.9537
