~Version Information
VERS.                      2.0: CWLS Log ASCII Standard - VERSION 2.0
WRAP.                       NO: One line per depth step
~Well Information Block
STRT.FT                -6.5000: 
STOP.FT              1317.5000: 
STEP.FT                 0.2500: 
NULL.                -999.2500: 
COMP.          Pioneer Natural Resources: COMPANY
WELL.              Dicks 32-5R: WELL
FLD.           Purgatorie River: FIELD
LOC.           1485' FNL & 1684' FEL--: LOCATION
PROV.                       CO: PROVINCE
CNTY.               Las Animas: COUNTRY
SRVC.          Patterson Wireline: SERVICE COMPANY
DATE.          Tue Dec 13 09:33:22 2005: LOG DATE
UWI.           05 071 08596 00: UNIQUE WELL ID
~Curve Information Block
DEPT.FT            0 000 00 00: Depth
CCL.                          : Casing Collar Locator
TT3.usec                      : CBL 3' Travel Time
AMP3.mV                       : CBL 3' Amplitude
GR.GAPI                       : Gamma Ray
~Parameter Information Block
~A  Depth       CCL         TT3         AMP3         GR     
# ...
  1300.0000      0.0000    687.4366      9.2475     70.4772
  1300.2500      0.0000    687.2259      9.1577     71.0732
  1300.5000      0.0000    687.1556      9.0337     71.0862
  1300.7500      0.0000    687.2739      8.9070     69.8410
  1301.0000      0.0000    687.5744      8.8175     67.7721
  1301.2500      0.0000    688.0123      8.8035     66.4404
  1301.5000      0.0000    688.4986      8.8780     66.9283
  1301.7500      0.0000    688.8982      9.0111     68.6648
  1302.0000      0.0000    689.0892      9.1419     70.2097
  1302.2500      0.0000    689.0645      9.2141     70.6537
  1302.5000      0.0000    688.9628      9.2032     69.9116
  1302.7500      0.0000    688.9667      9.1192     68.2406
  1303.0000      0.0000    689.2648      8.9980     65.9444
  1303.2500      0.0000    690.2306      8.8886     63.0668
  1303.5000      0.0000    692.7568      8.8307     58.8575
  1303.7500      0.0000    698.1894      8.8312     51.8808
  1304.0000      0.0000    707.4030      8.8635     41.3669
  1304.2500      0.0000    719.6045      8.8897     28.6218
  1304.5000      0.0000    732.4272      8.8823     16.6248
  1304.7500      0.0000    743.4899      8.8246      7.9147
  1305.0000      0.0000    751.7066      8.7030      3.0380
  1305.2500      0.0000    757.5923      8.5164      0.9298
  1305.5000      0.0000    763.2179      8.2981      0.2249
  1305.7500      0.0000    771.2198      8.1125      0.0424
  1306.0000      0.0000    782.5115      8.0150      0.0060
  1306.2500      0.0000    795.3253      8.0118   -999.2500
  1306.5000      0.0000    807.2733      8.0617   -999.2500
  1306.7500      0.0000    817.6068      8.1154   -999.2500
  1307.0000      0.0000    826.6904      8.1538   -999.2500
  1307.2500      0.0000    834.0712      8.1942   -999.2500
  1307.5000      0.0000    838.0917      8.2604   -999.2500
  1307.7500      0.0000    837.2300      8.3465   -999.2500
  1308.0000      0.0000    830.7376      8.4095   -999.2500
  1308.2500      0.0000    816.7995      8.3861   -999.2500
  1308.5000      0.0000    788.5744      8.1890   -999.2500
  1308.7500      0.0000    731.9846      7.6772   -999.2500
  1309.0000      0.0000    632.0980      6.6948   -999.2500
  1309.2500      0.0000    488.7186      5.2268   -999.2500
  1309.5000      0.0000    326.4428      3.5231   -999.2500
  1309.7500      0.0000    183.0326      1.9912   -999.2500
  1310.0000      0.0000     84.3275      0.9236   -999.2500
  1310.2500      0.0000     31.4437      0.3463   -999.2500
  1310.5000      0.0000      9.3857      0.1038   -999.2500
  1310.7500      0.0000      2.2231      0.0247   -999.2500
  1311.0000      0.0000      0.4115      0.0046   -999.2500
  1311.2500      0.0000   -999.2500   -999.2500   -999.2500
  1311.5000      0.0000   -999.2500   -999.2500   -999.2500
  1311.7500      0.0000   -999.2500   -999.2500   -999.2500
  1312.0000      0.0000   -999.2500   -999.2500   -999.2500
  1312.2500      0.0000   -999.2500   -999.2500   -999.2500
  1312.5000      0.0000   -999.2500   -999.2500   -999.2500
  1312.7500      0.0000   -999.2500   -999.2500   -999.2500
  1313.0000      0.0000   -999.2500   -999.2500   -999.2500
  1313.2500      0.0000   -999.2500   -999.2500   -999.2500
  1313.5000      0.0000   -999.2500   -999.2500   -999.2500
  1313.7500      0.0000   -999.2500   -999.2500   -999.2500
  1314.0000      0.0000   -999.2500   -999.2500   -999.2500
  1314.2500      0.0000   -999.2500   -999.2500   -999.2500
  1314.5000      0.0000   -999.2500   -999.2500   -999.2500
  1314.7500      0.0000   -999.2500   -999.2500   -999.2500
  1315.0000      0.0000   -999.2500   -999.2500   -999.2500
  1315.2500      0.0000   -999.2500   -999.2500   -999.2500
  1315.5000      0.0000   -999.2500   -999.2500   -999.2500
  1315.7500      0.0000   -999.2500   -999.2500   -999.2500
  1316.0000      0.0000   -999.2500   -999.2500   -999.2500
  1316.2500      0.0000   -999.2500   -999.2500   -999.2500
  1316.5000      0.0000   -999.2500   -999.2500   -999.2500
  1316.7500      0.0000   -999.2500   -999.2500   -999.2500
  1317.0000      0.0000   -999.2500   -999.2500   -999.2500
  1317.2500   -999.2500   -999.2500   -999.2500   -999.2500
  1317.5000   -999.2500   -999.2500   -999.2500   -999.2500
