~Version Information
VERS.                      2.0: CWLS Log ASCII Standard - VERSION 2.0
WRAP.                       NO: One line per depth step
~Well Information Block
STRT.FT               588.7000: 
STOP.FT              1820.2000: 
STEP.FT                 0.1000: 
NULL.                -999.2500: 
COMP.          Pioneer Natural Resources: COMPANY
WELL.           Loews 41-32 Tr: WELL
FLD.           Purgatoire River: FIELD
LOC.           706' FNL & 224' FEL--: LOCATION
CNTY.               Las Animas: COUNTY
SRVC.                Patterson: SERVICE COMPANY
DATE.          Tue Feb 21 10:23:46 2006: LOG DATE
UWI.           05 071 08690 00: UNIQUE WELL ID
STAT.                 Colorado: STATE
~Curve Information Block
DEPT.FT            0 000 00 00: Depth
DCAL.in                       : CDL Caliper
RHOB.g/cc                     : CDL Bulk Density
RHOC.g/cc                     : CDL Density Correction
DPOR.pu                       : CDL Density Porosity
GR.GAPI                       : Gamma Ray
~Parameter Information Block
~A  Depth       DCAL        RHOB        RHOC        DPOR         GR     
# ...
  1787.1000      7.9163      1.7202     -0.0501     56.3540    113.8524
  1787.2000      7.9163      1.7339     -0.0118     55.5188    100.8842
  1787.3000      7.9296      1.7565      0.0085     54.1505     88.3037
  1787.4000      7.9296      1.7853      0.0946     52.4073     83.0559
  1787.5000      7.9391      1.8151      0.1462     50.6004     82.6825
  1787.6000      7.9391      1.8483      0.1562     48.5904     84.0111
  1787.7000      7.9391      1.8995      0.1433     45.4835     86.9548
  1787.8000      7.9396      1.9707      0.1767     41.1719     87.9866
  1787.9000      7.9396      2.0371      0.1525     37.1472     83.8763
  1788.0000      7.9203      2.0806      0.1162     34.5111     79.1708
  1788.1000      7.9203      2.1162      0.0930     32.3540     80.2528
  1788.2000      7.9203      2.1669      0.1263     29.2785     85.0192
  1788.3000      7.9057      2.2344      0.1693     25.1857     86.8702
  1788.4000      7.9057      2.3091      0.2105     20.6595     84.2377
  1788.5000      7.9016      2.3867      0.1980     15.9574     80.6434
  1788.6000      7.9016      2.4631      0.2510     11.3267     78.1514
  1788.7000      7.9016      2.5256      0.2214      7.5383     76.4384
  1788.8000      7.8941      2.5625      0.1898      5.3008     77.3555
  1788.9000      7.8941      2.5666      0.1411      5.0526     83.6318
  1789.0000      7.8828      2.5405      0.1205      6.6382     92.9294
  1789.1000      7.8828      2.5088      0.0561      8.5586     98.5421
  1789.2000      7.8828      2.5036      0.0647      8.8718     99.1692
  1789.3000      7.8768      2.5278      0.0672      7.4046     99.9141
  1789.4000      7.8768      2.5514      0.1109      5.9774    104.3480
  1789.5000      7.8757      2.5488      0.0793      6.1343    113.4514
  1789.6000      7.8757      2.5304      0.0518      7.2456    127.2933
  1789.7000      7.8757      2.5246      0.0450      7.6008    141.3261
  1789.8000      7.8730      2.5323      0.1019      7.1361    148.9357
  1789.9000      7.8730      2.5318      0.0472      7.1614    147.9487
  1790.0000      7.8690      2.5226      0.0601      7.7231    138.7933
  1790.1000      7.8690      2.5190      0.0578      7.9422    129.9237
  1790.2000      7.8690      2.5202      0.0982      7.8642    130.7536
  1790.3000      7.8651      2.5169      0.0727      8.0651    134.7257
  1790.4000      7.8651      2.5168      0.0562      8.0730    132.2233
  1790.5000      7.8666      2.5321      0.0731      7.1435    125.9674
  1790.6000      7.8666      2.5561      0.0935      5.6903    119.1908
  1790.7000      7.8666      2.5660      0.1346      5.0893    114.1543
  1790.8000      7.8776      2.5507      0.0823      6.0159    117.4624
  1790.9000      7.8776      2.5319      0.0591      7.1564    130.7751
  1791.0000      7.8900      2.5321      0.0940      7.1480    142.9217
  1791.1000      7.8900      2.5434      0.0549      6.4599    142.5475
  1791.2000      7.8900      2.5501      0.0634      6.0570    132.5227
  1791.3000      7.8941      2.5472      0.0717      6.2299    121.6921
  1791.4000      7.8941      2.5378      0.0806      6.7975    114.0574
  1791.5000      7.8941      2.5328      0.0406      7.1007    110.4987
  1791.6000      7.8941      2.5411      0.0337      6.5985    110.4962
  1791.7000      7.8941      2.5507      0.1108      6.0155    110.4354
  1791.8000      7.8947      2.5507      0.0304      6.0207    109.6967
  1791.9000      7.8947      2.5508      0.0610      6.0093    112.2474
  1792.0000      7.8935      2.5540      0.0635      5.8194    116.1909
  1792.1000      7.8935      2.5589      0.0477      5.5241    117.0181
  1792.2000      7.8935      2.5718      0.0800      4.7377    116.4509
  1792.3000      7.8915      2.5899      0.0466      3.6451    117.1129
  1792.4000      7.8915      2.6030      0.0950      2.8500    118.0677
  1792.5000      7.8910      2.6080      0.0547      2.5434    116.6114
  1792.6000      7.8910      2.6078      0.0783      2.5554    104.8577
  1792.7000      7.8910      2.6025      0.0738      2.8758     75.1574
  1792.8000      7.8927      2.5976      0.0692      3.1758     37.3779
  1792.9000      7.8927      2.5977      0.0901      3.1682     11.5855
  1793.0000      7.8949      2.5942      0.1184      3.3846      2.0844
  1793.1000      7.8949      2.5818      0.0713      4.1306      0.2082
  1793.2000      7.8949      2.5644      0.0543      5.1873      0.0109
  1793.3000      7.8948      2.5424      0.0118      6.5228      0.0000
  1793.4000      7.8948      2.5241     -0.0034      7.6307   -999.2500
  1793.5000      7.8938      2.5236      0.0255      7.6595   -999.2500
  1793.6000      7.8938      2.5436      0.0350      6.4496   -999.2500
  1793.7000      7.8938      2.5748      0.0653      4.5567   -999.2500
  1793.8000      7.8933      2.6032      0.0766      2.8357   -999.2500
  1793.9000      7.8933      2.6162      0.1098      2.0487   -999.2500
  1794.0000      7.8915      2.6140      0.0769      2.1841   -999.2500
  1794.1000      7.8915      2.6150      0.0669      2.1217   -999.2500
  1794.2000      7.8915      2.6314      0.1213      1.1265   -999.2500
  1794.3000      7.8856      2.6521      0.1145     -0.1257   -999.2500
  1794.4000      7.8856      2.6582      0.1663     -0.4970   -999.2500
  1794.5000      7.8763      2.6447      0.1075      0.3241   -999.2500
  1794.6000      7.8763      2.6270      0.0812      1.3923   -999.2500
  1794.7000      7.8763      2.6176      0.1024      1.9619   -999.2500
  1794.8000      7.8712      2.6162      0.0553      2.0476   -999.2500
  1794.9000      7.8712      2.6154      0.1130      2.0951   -999.2500
  1795.0000      7.8726      2.6038      0.0571      2.8020   -999.2500
  1795.1000      7.8726      2.5815      0.0545      4.1498   -999.2500
  1795.2000      7.8726      2.5560      0.0418      5.6956   -999.2500
  1795.3000      7.8794      2.5311      0.0317      7.2038   -999.2500
  1795.4000      7.8794      2.5071      0.0474      8.6609   -999.2500
  1795.5000      7.8904      2.4820      0.0119     10.1806   -999.2500
  1795.6000      7.8904      2.4548      0.0169     11.8330   -999.2500
  1795.7000      7.8904      2.4208      0.0207     13.8911   -999.2500
  1795.8000      7.9012      2.3820      0.0050     16.2417   -999.2500
  1795.9000      7.9012      2.3423      0.0061     18.6468   -999.2500
  1796.0000      7.9115      2.2859      0.0281     22.0677   -999.2500
  1796.1000      7.9115      2.2006      0.0001     27.2370   -999.2500
  1796.2000      7.9115      2.1068     -0.0431     32.9193   -999.2500
  1796.3000      7.9228      2.0324     -0.0635     37.4298   -999.2500
  1796.4000      7.9228      1.9883     -0.0701     40.1013   -999.2500
  1796.5000      7.9313      1.9751     -0.0717     40.9055   -999.2500
  1796.6000      7.9313      1.9917     -0.0677     39.8953   -999.2500
  1796.7000      7.9313      2.0292      0.0279     37.6244   -999.2500
  1796.8000      7.9454      2.0777      0.0694     34.6820   -999.2500
  1796.9000      7.9454      2.1515      0.1065     30.2136   -999.2500
  1797.0000      7.9698      2.2654      0.2460     23.3113   -999.2500
  1797.1000      7.9698      2.3965      0.3261     15.3639   -999.2500
  1797.2000      7.9698      2.4993      0.3289      9.1356   -999.2500
  1797.3000      7.9536      2.5487      0.2227      6.1416   -999.2500
  1797.4000      7.9536      2.5591      0.1069      5.5092   -999.2500
  1797.5000      7.8770      2.5620      0.0744      5.3316   -999.2500
  1797.6000      7.8770      2.5709      0.0901      4.7966   -999.2500
  1797.7000      7.8770      2.5778      0.0540      4.3751   -999.2500
  1797.8000      7.8222      2.5765      0.0653      4.4556   -999.2500
  1797.9000      7.8222      2.5694      0.0736      4.8856   -999.2500
  1798.0000      7.8020      2.5715      0.0573      4.7606   -999.2500
  1798.1000      7.8020      2.5964      0.0677      3.2462   -999.2500
  1798.2000      7.8020      2.6281      0.1534      1.3270   -999.2500
