~Version Information
VERS.                      2.0: CWLS Log ASCII Standard - VERSION 2.0
WRAP.                       NO: One line per depth step
~Well Information Block
STRT.FT               460.0000: 
STOP.FT              2824.0000: 
STEP.FT                 0.2500: 
NULL.                -999.2500: 
COMP.          Pioneer Natural Resources: COMPANY
WELL.           Dolzanie 34-12: WELL
FLD.           Purgatoire River: FIELD
LOC.           1001' FSL & 1750' FEL--: LOCATION
PROV.                 Colorado: PROVINCE
CNTY.               Las Animas: COUNTRY
SRVC.                Patterson: SERVICE COMPANY
DATE.          Wed Jul 20 07:51:58 2005: LOG DATE
UWI.           05 071 08439 00: UNIQUE WELL ID
~Curve Information Block
DEPT.FT            0 000 00 00: Depth
DIR.Ohm-m                     : IEL Induction Resistivity
SN.Ohm-m                      : IEL Short Normal
SP.mV                         : IEL Spontaneous Potential
GR.GAPI                       : Gamma Ray
~Parameter Information Block
~A  Depth       DIR          SN          SP          GR     
# ...
  1230.5000     15.0967   2000.0000   2000.0000    119.0371
  1230.7500     14.9231   2000.0000   2000.0000    119.7799
  1231.0000     14.7797   2000.0000   2000.0000    120.5526
  1231.2500     14.6925   2000.0000   2000.0000    120.4529
  1231.5000     14.6788   2000.0000   2000.0000    118.8363
  1231.7500     14.7452   2000.0000   2000.0000    116.9682
  1232.0000     14.8874   2000.0000   2000.0000    114.2531
  1232.2500     15.0898   2000.0000   2000.0000    113.3012
  1232.5000     15.3283   2000.0000   2000.0000    113.5520
  1232.7500     15.5721   2000.0000   2000.0000    114.4024
  1233.0000     15.7867   2000.0000   2000.0000    115.5871
  1233.2500     15.9383   2000.0000   2000.0000    115.9145
  1233.5000     15.9992   2000.0000   2000.0000    115.8029
  1233.7500     15.9545   2000.0000   2000.0000    115.7184
  1234.0000     15.8044   2000.0000   2000.0000    116.3317
  1234.2500     15.5634   2000.0000   2000.0000    117.4834
  1234.5000     15.2561   2000.0000   2000.0000    120.2050
  1234.7500     14.9131   2000.0000   2000.0000    122.2935
  1235.0000     14.5678   2000.0000   2000.0000    124.9392
  1235.2500     14.2509   2000.0000   2000.0000    126.0302
  1235.5000     13.9858   2000.0000   2000.0000    126.6534
  1235.7500     13.7844   2000.0000   2000.0000    126.5994
  1236.0000     13.6477   2000.0000   2000.0000    126.1346
  1236.2500     13.5682   2000.0000   2000.0000    125.7581
  1236.5000     13.5345   2000.0000   2000.0000    125.5213
  1236.7500     13.5360   2000.0000   2000.0000    125.7055
  1237.0000     13.5675   2000.0000   2000.0000    126.1911
  1237.2500     13.6314   2000.0000   2000.0000    126.4181
  1237.5000     13.7378   2000.0000   2000.0000    126.5868
  1237.7500     13.9018   2000.0000   2000.0000    126.6165
  1238.0000     14.1387   2000.0000   2000.0000    126.1933
  1238.2500     14.4607   2000.0000   2000.0000    125.2820
  1238.5000     14.8731   2000.0000   2000.0000    122.6384
  1238.7500     15.3738   2000.0000   2000.0000    119.9583
  1239.0000     15.9546   2000.0000   2000.0000    114.4762
  1239.2500     16.6096   2000.0000   2000.0000    109.7957
  1239.5000     17.3452   2000.0000   2000.0000    101.3985
  1239.7500     18.1845   2000.0000   2000.0000     95.3362
  1240.0000     19.1610   2000.0000   2000.0000     86.9460
  1240.2500     20.3010   2000.0000   2000.0000     82.5919
  1240.5000     21.6070   2000.0000   2000.0000     78.2837
  1240.7500     23.0533   2000.0000   2000.0000     76.5326
  1241.0000     24.5963   2000.0000   2000.0000     74.8383
  1241.2500     26.1925   2000.0000   2000.0000     74.2321
  1241.5000     27.8029   2000.0000   2000.0000     74.4355
  1241.7500     29.3805   2000.0000   2000.0000     75.4523
  1242.0000     30.8580   2000.0000   2000.0000     77.9760
  1242.2500     32.1607   2000.0000   2000.0000     79.7568
  1242.5000     33.2391   2000.0000   2000.0000     81.2703
  1242.7500     34.0935   2000.0000   2000.0000     80.9393
  1243.0000     34.7646   2000.0000   2000.0000     78.4089
  1243.2500     35.3025   2000.0000   2000.0000     75.8533
  1243.5000     35.7397   2000.0000   2000.0000     71.7655
  1243.7500     36.0894   2000.0000   2000.0000     69.3357
  1244.0000     36.3625   2000.0000   2000.0000     66.5916
  1244.2500     36.5829   2000.0000   2000.0000     65.5153
  1244.5000     36.7839   2000.0000   2000.0000     65.2585
  1244.7500     36.9893   2000.0000   2000.0000     66.0519
  1245.0000     37.1999   2000.0000   2000.0000     68.3314
  1245.2500     37.3981   2000.0000   2000.0000     70.0429
  1245.5000     37.5607   2000.0000   2000.0000     71.8841
  1245.7500     37.6624   2000.0000   2000.0000     72.3667
  1246.0000     37.6663   2000.0000   2000.0000     72.3283
  1246.2500     37.5221   2000.0000   2000.0000     72.1962
  1246.5000     37.1862   2000.0000   2000.0000     72.2451
  1246.7500     36.6546   2000.0000   2000.0000     72.5070
  1247.0000     35.9793   2000.0000   2000.0000     73.4420
  1247.2500     35.2491   2000.0000   2000.0000     74.6222
  1247.5000     34.5460   2000.0000   2000.0000     77.2879
  1247.7500     33.9070   2000.0000   2000.0000     79.4079
  1248.0000     33.3129   2000.0000   2000.0000     82.5747
  1248.2500     32.7094   2000.0000   2000.0000     84.6365
  1248.5000     32.0463   2000.0000   2000.0000     87.9417
  1248.7500     31.3063   2000.0000   2000.0000     90.2291
  1249.0000     30.5038   2000.0000   2000.0000     92.8751
  1249.2500     29.6626   2000.0000   2000.0000     93.4626
  1249.5000     28.7918   2000.0000   2000.0000     92.2896
  1249.7500     27.8774   2000.0000   2000.0000     90.6147
  1250.0000     26.8943   2000.0000   2000.0000     88.0558
  1250.2500     25.8320   2000.0000   2000.0000     86.9885
  1250.5000     24.7137   2000.0000   2000.0000     87.2198
  1250.7500     23.5921   2000.0000   2000.0000     88.9634
  1251.0000     22.5255   2000.0000   2000.0000     94.0526
  1251.2500     21.5549   2000.0000   2000.0000     98.6630
  1251.5000     20.6953   2000.0000   2000.0000    106.0853
  1251.7500     19.9408   2000.0000   2000.0000    110.6229
  1252.0000     19.2744   2000.0000   2000.0000    115.9713
  1252.2500     18.6770   2000.0000   2000.0000    118.3257
  1252.5000     18.1315   2000.0000   2000.0000    119.9257
  1252.7500     17.6271   2000.0000   2000.0000    119.7578
  1253.0000     17.1601   2000.0000   2000.0000    117.9464
  1253.2500     16.7322   2000.0000   2000.0000    116.1339
  1253.5000     16.3469   2000.0000   2000.0000    113.9752
  1253.7500     16.0061   2000.0000   2000.0000    113.9469
  1254.0000     15.7092   2000.0000   2000.0000    116.9459
  1254.2500     15.4540   2000.0000   2000.0000    120.5954
  1254.5000     15.2361   2000.0000   2000.0000    126.8239
  1254.7500     15.0478   2000.0000   2000.0000    130.5027
  1255.0000     14.8784   2000.0000   2000.0000    134.4406
  1255.2500     14.7176   2000.0000   2000.0000    135.9004
  1255.5000     14.5610   2000.0000   2000.0000    136.3524
  1255.7500     14.4137   2000.0000   2000.0000    135.5354
  1256.0000     14.2874   2000.0000   2000.0000    132.9659
  1256.2500     14.1942   2000.0000   2000.0000    130.8079
  1256.5000     14.1415   2000.0000   2000.0000    128.0438
  1256.7500     14.1301   2000.0000   2000.0000    127.1620
  1257.0000     14.1579   2000.0000   2000.0000    127.7860
  1257.2500     14.2237   2000.0000   2000.0000    129.3222
  1257.5000     14.3278   2000.0000   2000.0000    132.4616
  1257.7500     14.4683   2000.0000   2000.0000    134.4992
  1258.0000     14.6371   2000.0000   2000.0000    136.6514
  1258.2500     14.8210   2000.0000   2000.0000    137.4439
  1258.5000     15.0084   2000.0000   2000.0000    138.4231
  1258.7500     15.1987   2000.0000   2000.0000    139.3538
  1259.0000     15.4053   2000.0000   2000.0000    140.8234
  1259.2500     15.6512   2000.0000   2000.0000    141.1218
  1259.5000     15.9597   2000.0000   2000.0000    139.5020
  1259.7500     16.3473   2000.0000   2000.0000    137.0069
  1260.0000     16.8213   2000.0000   2000.0000    131.9156
  1260.2500     17.3798   2000.0000   2000.0000    128.1248
  1260.5000     18.0125   2000.0000   2000.0000    122.0507
  1260.7500     18.7026   2000.0000   2000.0000    117.4945
  1261.0000     19.4306   2000.0000   2000.0000    109.6713
  1261.2500     20.1805   2000.0000   2000.0000    104.1985
  1261.5000     20.9418   2000.0000   2000.0000     97.0091
  1261.7500     21.7052   2000.0000   2000.0000     93.6469
  1262.0000     22.4541   2000.0000   2000.0000     91.2579
  1262.2500     23.1593   2000.0000   2000.0000     91.2655
  1262.5000     23.7840   2000.0000   2000.0000     92.9698
  1262.7500     24.2942   2000.0000   2000.0000     94.8122
  1263.0000     24.6670   2000.0000   2000.0000     98.0622
  1263.2500     24.8893   2000.0000   2000.0000    100.2276
  1263.5000     24.9531   2000.0000   2000.0000    102.7101
  1263.7500     24.8561   2000.0000   2000.0000    103.3573
