~Version Information
VERS.                      2.0: CWLS Log ASCII Standard - VERSION 2.0
WRAP.                       NO: One line per depth step
~Well Information Block
STRT.FT               370.0000: 
STOP.FT              1282.5000: 
STEP.FT                 0.1000: 
NULL.                -999.2500: 
COMP.          Pioneer Natural Resources: COMPANY
WELL.          Irish Eyes 33-21: WELL
FLD.           Purgatoire River: FIELD
LOC.           1379' FSL & 2544' FEL: LOCATION
PROV.                 Colorado: PROVINCE
CNTY.               Las Animas: COUNTRY
SRVC.                Patterson: SERVICE COMPANY
DATE.          Mon Jan 16 13:31:01 2006: LOG DATE
UWI.           05 071 08658 00: UNIQUE WELL ID
~Curve Information Block
DEPT.FT            0 000 00 00: Depth
DCAL.in                       : CDL Caliper
RHOB.g/cc                     : CDL Bulk Density
RHOC.g/cc                     : CDL Density Correction
DPOR.pu                       : CDL Density Porosity
GR.GAPI                       : Gamma Ray
NPOR.pu                       : Neutron Porosity
~Parameter Information Block
~A  Depth       DCAL        RHOB        RHOC        DPOR         GR         NPOR    
# ...
  1214.8000      7.8576      2.4716      0.0729     10.8126     77.0262     26.8143
  1214.9000      7.8576      2.4685      0.0692     11.0006     77.4283     26.5510
  1215.0000      7.8736      2.4612      0.0419     11.4439     79.7386     26.3843
  1215.1000      7.8736      2.4657      0.0091     11.1675     83.5315     25.9132
  1215.2000      7.8736      2.4761      0.0447     10.5423     81.4941     25.6933
  1215.3000      7.8902      2.4709      0.0654     10.8575     71.6041     26.3109
  1215.4000      7.8902      2.4499      0.0023     12.1274     61.5091     26.6813
  1215.5000      7.8916      2.4417      0.0148     12.6272     56.8627     26.2081
  1215.6000      7.8916      2.4603      0.0367     11.4959     58.9865     25.9160
  1215.7000      7.8916      2.4836      0.0855     10.0859     64.8632     26.2229
  1215.8000      7.8798      2.4871      0.0640      9.8754     69.7020     26.6563
  1215.9000      7.8798      2.4721      0.0751     10.7802     73.1565     27.0191
  1216.0000      7.8669      2.4541      0.0167     11.8710     76.3727     27.2790
  1216.1000      7.8669      2.4443      0.0329     12.4667     78.0844     27.3787
  1216.2000      7.8669      2.4386      0.0153     12.8102     77.8281     27.2511
  1216.3000      7.8569      2.4337      0.0124     13.1121     75.6405     26.6532
  1216.4000      7.8569      2.4343      0.0219     13.0724     69.5178     25.8742
  1216.5000      7.8613      2.4452      0.0333     12.4108     63.6082     25.6293
  1216.6000      7.8613      2.4701      0.0092     10.9049     65.7042     25.8497
  1216.7000      7.8613      2.4981      0.0933      9.2062     72.8521     26.2487
  1216.8000      7.8644      2.5131      0.0425      8.2999     78.5564     27.0554
  1216.9000      7.8644      2.5179      0.0919      8.0033     82.5566     27.9928
  1217.0000      7.8636      2.5166      0.1142      8.0874     85.7353     27.6913
  1217.1000      7.8636      2.5122      0.0667      8.3495     86.6985     25.6928
  1217.2000      7.8636      2.5219      0.0393      7.7614     85.2805     23.9087
  1217.3000      7.8476      2.5528      0.0842      5.8887     78.9331     23.6950
  1217.4000      7.8476      2.5862      0.0861      3.8673     66.5053     24.0381
  1217.5000      7.8575      2.6018      0.1083      2.9228     55.0585     23.8056
  1217.6000      7.8575      2.6052      0.0772      2.7156     51.2142     23.4826
  1217.7000      7.8575      2.6105      0.1218      2.3958     56.0476     23.6922
  1217.8000      7.8680      2.6160      0.0735      2.0578     65.8493     23.8926
  1217.9000      7.8680      2.6196      0.0736      1.8412     73.0066     23.0274
  1218.0000      7.8676      2.6220      0.0393      1.7000     73.6506     21.3345
  1218.1000      7.8676      2.6223      0.0188      1.6800     69.2471     20.4257
  1218.2000      7.8676      2.6172      0.0784      1.9890     63.7308     20.7691
  1218.3000      7.8466      2.5991      0.0573      3.0855     61.4542     21.5461
  1218.4000      7.8466      2.5726     -0.0040      4.6929     61.6027     22.2069
  1218.5000      7.8437      2.5575      0.0220      5.6073     61.3223     22.3927
  1218.6000      7.8437      2.5608      0.0270      5.4043     61.6028     22.1048
  1218.7000      7.8437      2.5666      0.0677      5.0559     62.9247     22.0063
  1218.8000      7.8420      2.5628      0.0014      5.2863     64.9979     22.1674
  1218.9000      7.8420      2.5624     -0.0056      5.3104     67.4570     22.0553
  1219.0000      7.8538      2.5812      0.0130      4.1721     68.6943     21.8104
  1219.1000      7.8538      2.6109      0.0945      2.3689     70.2148     21.9999
  1219.2000      7.8538      2.6240      0.1041      1.5751     74.4158     22.8439
  1219.3000      7.8517      2.6128      0.0552      2.2561     78.0295     23.8191
  1219.4000      7.8517      2.5927      0.0928      3.4702     77.4487     24.1045
  1219.5000      7.8514      2.5682      0.0334      4.9559     72.8878     23.9919
  1219.6000      7.8514      2.5378      0.0523      6.8011     65.3020     24.2437
  1219.7000      7.8514      2.5112      0.0332      8.4145     59.8257     24.9679
  1219.8000      7.8428      2.5026      0.0436      8.9355     60.5423     25.5819
  1219.9000      7.8428      2.5040      0.0807      8.8507     63.2881     25.4684
  1220.0000      7.8395      2.4975      0.0766      9.2452     65.3146     25.2501
  1220.1000      7.8395      2.4869      0.0971      9.8852     66.7052     25.5220
  1220.2000      7.8395      2.4841      0.0444     10.0520     66.7201     25.9081
  1220.3000      7.8390      2.4872      0.0970      9.8676     63.8111     26.2133
  1220.4000      7.8390      2.4874      0.0553      9.8567     58.7976     26.5438
  1220.5000      7.8363      2.4857      0.0421      9.9549     55.5057     26.5967
  1220.6000      7.8363      2.4816      0.0569     10.2043     54.1333     26.1651
  1220.7000      7.8363      2.4717      0.0534     10.8041     54.7335     25.8409
  1220.8000      7.8549      2.4627      0.0424     11.3500     59.1501     25.8358
  1220.9000      7.8549      2.4568      0.0570     11.7087     63.8557     25.7694
  1221.0000      7.8589      2.4509      0.0053     12.0637     64.2014     25.5203
  1221.1000      7.8589      2.4470      0.0460     12.3035     60.8304     25.4048
  1221.2000      7.8589      2.4422      0.0522     12.5925     57.4499     25.7611
  1221.3000      7.8532      2.4297      0.0417     13.3518     56.7574     26.0459
  1221.4000      7.8532      2.4062      0.0100     14.7734     57.0172     25.6439
  1221.5000      7.8512      2.3782      0.0099     16.4725     56.3387     24.8537
  1221.6000      7.8512      2.3620      0.0013     17.4524     57.5763     24.1523
  1221.7000      7.8512      2.3736     -0.0318     16.7520     62.5721     24.0292
  1221.8000      7.8557      2.4040      0.0822     14.9098     69.2590     24.6837
  1221.9000      7.8557      2.4217      0.0838     13.8390     73.7955     25.4788
  1222.0000      7.8661      2.4163      0.0467     14.1645     73.2702     25.8425
  1222.1000      7.8661      2.3985      0.0555     15.2432     70.9164     26.3657
  1222.2000      7.8661      2.3795     -0.0040     16.3943     71.5218     27.3530
  1222.3000      7.8771      2.3745      0.0294     16.6951     73.3714     28.0679
  1222.4000      7.8771      2.3868     -0.0018     15.9526     71.8607     27.9737
  1222.5000      7.8887      2.4026      0.0443     14.9953     67.9555     27.6281
  1222.6000      7.8887      2.4106      0.0739     14.5121     65.7168     27.4013
  1222.7000      7.8887      2.4136      0.0374     14.3263     64.8617     26.8667
  1222.8000      7.8647      2.4193      0.0989     13.9789     64.2176     26.2729
  1222.9000      7.8647      2.4226      0.0822     13.7807     63.7784     26.1872
  1223.0000      7.8424      2.4150      0.0678     14.2447     61.5268     26.2288
  1223.1000      7.8424      2.4041      0.0321     14.9060     59.6939     25.9459
  1223.2000      7.8424      2.4100      0.0064     14.5462     62.4729     25.9634
  1223.3000      7.8297      2.4360      0.0782     12.9710     67.4473     26.6953
  1223.4000      7.8297      2.4595      0.0985     11.5478     70.2942     27.4402
  1223.5000      7.8313      2.4706      0.0985     10.8699     68.5673     27.6693
  1223.6000      7.8313      2.4825      0.1202     10.1514     64.8058     27.5456
  1223.7000      7.8313      2.4940      0.1192      9.4568     62.2003     27.1385
  1223.8000      7.8343      2.4875      0.1316      9.8482     59.5818     26.5487
  1223.9000      7.8343      2.4703      0.0610     10.8931     56.6175     26.4257
  1224.0000      7.8354      2.4713      0.0670     10.8314     55.0184     27.0396
  1224.1000      7.8354      2.4881      0.1204      9.8102     56.3313     27.9250
  1224.2000      7.8354      2.4929      0.0902      9.5187     58.7207     28.3174
  1224.3000      7.8419      2.4785      0.0665     10.3924     59.2506     27.8367
