~Version Information
VERS.                      2.0: CWLS Log ASCII Standard - VERSION 2.0
WRAP.                       NO: One line per depth step
~Well Information Block
STRT.FT                10.0000: 
STOP.FT               743.5000: 
STEP.FT                 0.1000: 
NULL.                -999.2500: 
COMP.          Pioneer Natural Resources: COMPANY
WELL.                Mia 21-18: WELL
FLD.           Purgatorie River: FIELD
LOC.           1067' FNL & 1824' FWL: LOCATION
PROV.                 Colorado: PROVINCE
CNTY.               Las Animas: COUNTRY
SRVC.                Patterson: SERVICE COMPANY
DATE.          Tue Nov 22 15:40:03 2005: LOG DATE
UWI.           05-071-08559               : UNIQUE WELL ID
~Curve Information Block
DEPT.FT            0 000 00 00: Depth
DCAL.in                       : CDL Caliper
RHOB.g/cc                     : CDL Bulk Density
RHOC.g/cc                     : CDL Density Correction
DPOR.pu                       : CDL Density Porosity
GR.GAPI                       : Gamma Ray
NPOR.pu                       : Neutron Porosity
~Parameter Information Block
~A  Depth       DCAL        RHOB        RHOC        DPOR         GR         NPOR    
# ...
   586.0000      7.9250      2.5253      0.0118      7.5582     60.1895     24.0121
   586.1000      7.9250      2.5419      0.0042      6.5530     61.0830     23.5875
   586.2000      7.9250      2.5598      0.0530      5.4681     61.9839     23.1639
   586.3000      7.9521      2.5679      0.0417      4.9785     60.9908     23.0455
   586.4000      7.9521      2.5708      0.0159      4.7990     58.6917     23.4104
   586.5000      7.9899      2.5737      0.0334      4.6248     57.3790     23.8817
   586.6000      7.9899      2.5708      0.0270      4.8028     57.5804     23.9812
   586.7000      7.9899      2.5551      0.0321      5.7515     57.3816     23.8012
   586.8000      7.9983      2.5354     -0.0048      6.9428     56.8880     23.6489
   586.9000      7.9983      2.5324     -0.0526      7.1253     57.6508     23.6417
   587.0000      8.0004      2.5492     -0.0210      6.1082     58.8092     23.7040
   587.1000      8.0004      2.5673      0.0118      5.0142     59.1149     23.7691
   587.2000      8.0004      2.5775      0.0380      4.3917     59.3345     23.8338
   587.3000      8.0189      2.5810      0.0263      4.1791     61.3123     23.9386
   587.4000      8.0189      2.5735      0.0521      4.6338     65.5272     24.0972
   587.5000      8.0060      2.5535      0.0151      5.8499     68.2062     24.3953
   587.6000      8.0060      2.5289      0.0037      7.3424     65.4022     24.6347
   587.7000      8.0060      2.5139     -0.0121      8.2472     59.9382     24.4235
   587.8000      8.0146      2.5179      0.0260      8.0031     58.1815     24.0139
   587.9000      8.0146      2.5318      0.0169      7.1659     62.3290     24.0834
   588.0000      7.9491      2.5404      0.0183      6.6444     68.3846     24.7612
   588.1000      7.9491      2.5398      0.0224      6.6767     72.4616     25.4072
   588.2000      7.9491      2.5371      0.0150      6.8442     73.3681     25.5322
   588.3000      7.9931      2.5413      0.0258      6.5857     70.9680     25.4340
   588.4000      7.9931      2.5504      0.0684      6.0372     67.6875     25.3807
   588.5000      7.9943      2.5582      0.0262      5.5618     66.0222     25.2524
   588.6000      7.9943      2.5689      0.0418      4.9178     65.5861     25.0151
   588.7000      7.9943      2.5759      0.0898      4.4925     65.7137     24.7873
   588.8000      7.9511      2.5708      0.0278      4.8029     66.7647     24.6841
   588.9000      7.9511      2.5693      0.0537      4.8934     67.9688     24.7346
   589.0000      7.8955      2.5846      0.0823      3.9608     67.3277     24.8336
   589.1000      7.8955      2.6101      0.0553      2.4170     64.9746     24.9536
   589.2000      7.8955      2.6333      0.0944      1.0092     62.9017     25.0692
   589.3000      7.9109      2.6405      0.1098      0.5754     61.8205     25.0463
   589.4000      7.9109      2.6268      0.0732      1.4080     61.4383     24.7991
   589.5000      7.9504      2.6070      0.0323      2.6084     61.5828     24.5258
   589.6000      7.9504      2.5934      0.0415      3.4297     63.1494     24.5276
   589.7000      7.9504      2.5823      0.0218      4.1038     66.9846     24.5259
   589.8000      7.9391      2.5746     -0.0189      4.5720     70.5302     24.3966
   589.9000      7.9391      2.5727      0.0285      4.6835     72.0285     24.5821
   590.0000      7.9634      2.5694      0.0312      4.8819     74.1341     25.1725
   590.1000      7.9634      2.5661     -0.0182      5.0848     76.2577     25.6544
   590.2000      7.9634      2.5687      0.0243      4.9262     74.9344     25.5500
   590.3000      7.9845      2.5700      0.0130      4.8481     72.1641     24.9877
   590.4000      7.9845      2.5644      0.0201      5.1891     70.8757     24.3694
   590.5000      7.9541      2.5534      0.0110      5.8574     70.4339     24.0020
   590.6000      7.9541      2.5431     -0.0160      6.4816     70.6121     24.0241
   590.7000      7.9541      2.5423      0.0078      6.5272     71.0274     24.2694
   590.8000      7.9608      2.5470      0.0411      6.2411     71.1165     24.5290
   590.9000      7.9608      2.5470      0.0286      6.2409     71.6031     24.7855
   591.0000      7.9783      2.5495     -0.0373      6.0882     72.2683     24.8824
   591.1000      7.9783      2.5671      0.0073      5.0264     71.0294     24.6351
   591.2000      7.9783      2.5860      0.0793      3.8808     67.6335     24.2452
   591.3000      7.9183      2.5850      0.0561      3.9369     65.4187     24.0410
   591.4000      7.9183      2.5742      0.0085      4.5955     65.8181     24.0145
   591.5000      7.9160      2.5703      0.0280      4.8320     69.1001     24.1101
   591.6000      7.9160      2.5663      0.0259      5.0733     75.3705     24.4136
   591.7000      7.9160      2.5535      0.0267      5.8487     81.0933     24.8967
   591.8000      7.8787      2.5342      0.0231      7.0164     82.2574     25.3529
   591.9000      7.8787      2.5218     -0.0258      7.7685     78.7171     25.6508
   592.0000      7.8918      2.5272      0.0363      7.4406     74.9774     25.7857
   592.1000      7.8918      2.5409      0.0015      6.6104     74.4593     25.6462
   592.2000      7.8918      2.5488      0.0303      6.1306     75.4283     25.2607
   592.3000      7.9834      2.5436      0.0113      6.4513     74.9065     25.0476
   592.4000      7.9834      2.5291     -0.0239      7.3243     71.7979     25.1452
   592.5000      8.0184      2.5180      0.0217      7.9974     69.8533     25.1411
   592.6000      8.0184      2.5140     -0.0177      8.2444     70.9249     24.9192
   592.7000      8.0184      2.5115      0.0068      8.3948     70.4565     24.8678
   592.8000      8.0242      2.5098     -0.0732      8.4991     65.9220     24.9814
   592.9000      8.0242      2.5125      0.0059      8.3345     60.7048     25.0114
   593.0000      8.0160      2.5141     -0.0087      8.2363     57.7542     24.8679
   593.1000      8.0160      2.5116      0.0044      8.3878     56.6303     24.4214
   593.2000      8.0160      2.5120     -0.0311      8.3635     57.2296     23.7368
   593.3000      8.0137      2.5189     -0.0069      7.9484     60.1103     23.1722
   593.4000      8.0137      2.5260      0.0207      7.5179     65.0597     22.9796
   593.5000      7.9781      2.5319      0.0298      7.1565     68.8610     23.1044
   593.6000      7.9781      2.5442      0.0145      6.4111     67.1716     23.2568
   593.7000      7.9781      2.5581      0.0636      5.5723     62.6844     23.2670
   593.8000      7.9830      2.5574      0.0436      5.6114     60.3639     23.3681
   593.9000      7.9830      2.5467      0.0152      6.2610     59.3149     23.7615
   594.0000      8.0003      2.5427      0.0369      6.5054     57.5670     24.3288
   594.1000      8.0003      2.5416      0.0548      6.5722     56.1532     24.6198
   594.2000      8.0003      2.5358      0.0497      6.9233     55.6700     24.2444
   594.3000      8.0157      2.5376      0.0304      6.8105     55.3079     23.5247
   594.4000      8.0157      2.5565      0.0330      5.6640     56.1004     22.9928
   594.5000      8.0234      2.5741      0.0946      4.5980     57.8293     22.7963
   594.6000      8.0234      2.5661      0.0291      5.0824     58.6305     22.8747
   594.7000      8.0234      2.5412     -0.0564      6.5927     58.6593     23.1386
   594.8000      7.9960      2.5288     -0.0056      7.3458     58.1285     23.3005
   594.9000      7.9960      2.5372      0.0059      6.8389     57.9840     23.1635
   595.0000      8.0201      2.5490      0.0742      6.1217     59.9524     22.9747
   595.1000      8.0201      2.5532      0.0216      5.8652     63.4460     23.0503
   595.2000      8.0201      2.5604      0.0243      5.4277     64.8551     23.2771
   595.3000      7.9993      2.5737      0.0252      4.6226     62.1786     23.5639
   595.4000      7.9993      2.5772      0.0360      4.4121     59.2156     23.9028
   595.5000      7.9902      2.5650      0.0161      5.1505     59.1494     23.9697
