~Version Information
VERS.                      2.0: CWLS Log ASCII Standard - VERSION 2.0
WRAP.                       NO: One line per depth step
~Well Information Block
STRT.FT               525.0000: 
STOP.FT              2377.2000: 
STEP.FT                 0.1000: 
NULL.                -999.2500: 
COMP.          Pioneer Natural Resources: COMPANY
WELL.          Sparrowhawk 22-12: WELL
FLD.           Purgatoire River: FIELD
LOC.           2049' FNL & 2060' FWL--: LOCATION
CNTY.               Las Animas: COUNTY
SRVC.                Patterson: SERVICE COMPANY
DATE.          Thu Mar 23 13:24:48 2006: LOG DATE
UWI.           05 071 08484 00: UNIQUE WELL ID
STAT.                 Colorado: STATE
~Curve Information Block
DEPT.FT            0 000 00 00: Depth
DCAL.in                       : CDL Caliper
RHOB.g/cc                     : CDL Bulk Density
RHOC.g/cc                     : CDL Density Correction
DPOR.pu                       : CDL Density Porosity
NPOR.pu                       : Neutron Porosity
GR.GAPI                       : Gamma Ray
~Parameter Information Block
~A  Depth       DCAL        RHOB        RHOC        DPOR        NPOR         GR     
# ...
  2349.0000      7.7930      2.5302      0.0881      7.2599     19.7008   -999.2500
  2349.1000      7.7930      2.5151      0.1013      8.1770     19.9142   -999.2500
  2349.2000      7.7930      2.5052      0.0844      8.7738     19.6641   -999.2500
  2349.3000      7.7969      2.4930      0.0789      9.5158     19.4711   -999.2500
  2349.4000      7.7969      2.4742      0.0578     10.6538     19.8585   -999.2500
  2349.5000      7.8106      2.4578      0.0438     11.6498     20.5044   -999.2500
  2349.6000      7.8106      2.4517      0.0367     12.0201     20.9876   -999.2500
  2349.7000      7.8106      2.4555      0.0302     11.7890     21.4690   -999.2500
  2349.8000      7.8281      2.4597      0.0686     11.5340     22.0033   -999.2500
  2349.9000      7.8281      2.4528      0.0228     11.9539     22.1280   -999.2500
  2350.0000      7.8431      2.4343      0.0279     13.0730     21.5638   -999.2500
  2350.1000      7.8431      2.4151      0.0003     14.2386     20.8832   -999.2500
  2350.2000      7.8431      2.4067      0.0233     14.7468     20.7725   -999.2500
  2350.3000      7.8513      2.4126      0.0093     14.3908     21.5623   -999.2500
  2350.4000      7.8513      2.4283      0.0352     13.4378     24.2841   -999.2500
  2350.5000      7.8523      2.4441      0.0647     12.4805     30.8216   -999.2500
  2350.6000      7.8523      2.4519      0.0422     12.0082     39.8955   -999.2500
  2350.7000      7.8523      2.4535      0.0234     11.9118     46.3900   -999.2500
  2350.8000      7.8504      2.4575      0.0261     11.6671     48.8112   -999.2500
  2350.9000      7.8504      2.4721      0.0130     10.7797     49.2946   -999.2500
  2351.0000      7.8506      2.4875      0.0720      9.8488     49.3460   -999.2500
  2351.1000      7.8506      2.4855      0.0616      9.9701     49.3489   -999.2500
  2351.2000      7.8506      2.4751      0.0302     10.6020   -999.2500   -999.2500
  2351.3000      7.8509      2.4741      0.0574     10.6613   -999.2500   -999.2500
  2351.4000      7.8509      2.4805      0.0432     10.2742   -999.2500   -999.2500
  2351.5000      7.8501      2.4905      0.0346      9.6647   -999.2500   -999.2500
  2351.6000      7.8501      2.5006      0.0516      9.0523   -999.2500   -999.2500
  2351.7000      7.8501      2.4958      0.0684      9.3429   -999.2500   -999.2500
  2351.8000      7.8462      2.4787      0.0085     10.3810   -999.2500   -999.2500
  2351.9000      7.8462      2.4741      0.0233     10.6605   -999.2500   -999.2500
  2352.0000      7.8369      2.4822      0.0477     10.1679   -999.2500   -999.2500
  2352.1000      7.8369      2.4808      0.0434     10.2552   -999.2500   -999.2500
  2352.2000      7.8369      2.4641      0.0367     11.2696   -999.2500   -999.2500
  2352.3000      7.8261      2.4507     -0.0427     12.0761   -999.2500   -999.2500
  2352.4000      7.8261      2.4523      0.0321     11.9837   -999.2500   -999.2500
  2352.5000      7.8217      2.4540      0.0230     11.8779   -999.2500   -999.2500
  2352.6000      7.8217      2.4481      0.0154     12.2359   -999.2500   -999.2500
  2352.7000      7.8217      2.4436      0.0117     12.5069   -999.2500   -999.2500
  2352.8000      7.8229      2.4463      0.0428     12.3466   -999.2500   -999.2500
  2352.9000      7.8229      2.4522      0.0138     11.9899   -999.2500   -999.2500
  2353.0000      7.8245      2.4549      0.0622     11.8255   -999.2500   -999.2500
  2353.1000      7.8245      2.4613      0.0278     11.4349   -999.2500   -999.2500
  2353.2000      7.8245      2.4824      0.0560     10.1603   -999.2500   -999.2500
  2353.3000      7.8255      2.5046      0.0530      8.8131   -999.2500   -999.2500
  2353.4000      7.8255      2.5147      0.0337      8.2021   -999.2500   -999.2500
  2353.5000      7.8264      2.5225      0.0652      7.7262   -999.2500   -999.2500
  2353.6000      7.8264      2.5408      0.0567      6.6175   -999.2500   -999.2500
  2353.7000      7.8264      2.5625      0.0781      5.3032   -999.2500   -999.2500
  2353.8000      7.8259      2.5649      0.0890      5.1550   -999.2500   -999.2500
  2353.9000      7.8259      2.5445      0.0320      6.3922   -999.2500   -999.2500
  2354.0000      7.8253      2.5223      0.0395      7.7423   -999.2500   -999.2500
  2354.1000      7.8253      2.5175      0.0420      8.0304   -999.2500   -999.2500
  2354.2000      7.8253      2.5373      0.0347      6.8276   -999.2500   -999.2500
  2354.3000      7.8255      2.5659      0.0866      5.0977   -999.2500   -999.2500
  2354.4000      7.8255      2.5705      0.0846      4.8175   -999.2500   -999.2500
  2354.5000      7.8251      2.5468      0.0276      6.2544   -999.2500   -999.2500
  2354.6000      7.8251      2.5249      0.0333      7.5814   -999.2500   -999.2500
  2354.7000      7.8251      2.5197      0.0597      7.8947   -999.2500   -999.2500
  2354.8000      7.8229      2.5213      0.0526      7.8002   -999.2500   -999.2500
  2354.9000      7.8229      2.5224      0.0533      7.7321   -999.2500   -999.2500
  2355.0000      7.8176      2.5239      0.0422      7.6416   -999.2500   -999.2500
  2355.1000      7.8176      2.5231      0.0475      7.6907   -999.2500   -999.2500
  2355.2000      7.8176      2.5106      0.0637      8.4462   -999.2500   -999.2500
  2355.3000      7.8100      2.4895      0.0264      9.7273   -999.2500   -999.2500
  2355.4000      7.8100      2.4748      0.0424     10.6164   -999.2500   -999.2500
  2355.5000      7.8047      2.4676      0.0314     11.0563   -999.2500   -999.2500
  2355.6000      7.8047      2.4621      0.0321     11.3878   -999.2500   -999.2500
  2355.7000      7.8047      2.4656      0.0235     11.1754   -999.2500   -999.2500
  2355.8000      7.8015      2.4807      0.0608     10.2580   -999.2500   -999.2500
  2355.9000      7.8015      2.4960      0.0601      9.3313   -999.2500   -999.2500
  2356.0000      7.7936      2.5046      0.0589      8.8127   -999.2500   -999.2500
  2356.1000      7.7936      2.5037      0.0692      8.8657   -999.2500   -999.2500
  2356.2000      7.7936      2.4910      0.0542      9.6357   -999.2500   -999.2500
  2356.3000      7.7804      2.4771      0.0033     10.4771   -999.2500   -999.2500
  2356.4000      7.7804      2.4768      0.0171     10.4994   -999.2500   -999.2500
  2356.5000      7.7694      2.4894      0.0296      9.7351   -999.2500   -999.2500
  2356.6000      7.7694      2.5023      0.0533      8.9540   -999.2500   -999.2500
  2356.7000      7.7694      2.5009      0.0815      9.0351   -999.2500   -999.2500
  2356.8000      7.7593      2.4836      0.0099     10.0843   -999.2500   -999.2500
  2356.9000      7.7593      2.4640      0.0308     11.2733   -999.2500   -999.2500
  2357.0000      7.7526      2.4521      0.0122     11.9952   -999.2500   -999.2500
  2357.1000      7.7526      2.4465      0.0601     12.3344   -999.2500   -999.2500
  2357.2000      7.7526      2.4459     -0.0012     12.3696   -999.2500   -999.2500
  2357.3000      7.7513      2.4603      0.0397     11.4946   -999.2500   -999.2500
  2357.4000      7.7513      2.4897      0.0814      9.7154   -999.2500   -999.2500
  2357.5000      7.7508      2.5127      0.0981      8.3238   -999.2500   -999.2500
  2357.6000      7.7508      2.5157      0.0702      8.1403   -999.2500   -999.2500
  2357.7000      7.7508      2.5123      0.0296      8.3465   -999.2500   -999.2500
  2357.8000      7.7482      2.5217      0.0502      7.7731   -999.2500   -999.2500
  2357.9000      7.7482      2.5577      0.0671      5.5910   -999.2500   -999.2500
  2358.0000      7.7164      2.6392      0.0724      0.6529   -999.2500   -999.2500
  2358.1000      7.7164      2.6498      0.0453      0.0143   -999.2500   -999.2500
  2358.2000      7.7164      2.2007      0.5950     27.2321   -999.2500   -999.2500
  2358.3000      7.3759      1.2444      0.0800     85.1885   -999.2500   -999.2500
  2358.4000      7.3759      0.4211      0.0800    135.0829   -999.2500   -999.2500
  2358.5000      5.8898      0.0799   -999.2500    155.7638   -999.2500   -999.2500
