~Version Information
VERS.                      2.0: CWLS Log ASCII Standard - VERSION 2.0
WRAP.                       NO: One line per depth step
~Well Information Block
STRT.FT                 0.0000: 
STOP.FT              2086.0000: 
STEP.FT                 0.2500: 
NULL.                -999.2500: 
COMP.          Petrogulf Corporation: COMPANY
WELL.               YWAM 7-32R: WELL
FLD.           Purgatorie River: FIELD
LOC.           2355' FNL & 2376' FEL: LOCATION
STAT.                 Colorado: State
CNTY.               Las Animas: COUNTY
CTRY. USA : Country
SECT. 7 : Section
TOWN. 33S : Township
RANG. 67W : Range
SRVC.                Patterson: SERVICE COMPANY
DATE.          Wed Nov 09 16:33:59 2005: LOG DATE
API. 05-071-08518                         : UNIQUE WELL ID
~Curve Information Block
DEPT.FT            0 000 00 00: Depth
CCL.                          : Casing Collar Locator
TT3.usec                      : CBL 3' Travel Time
AMP3.mV                       : CBL 3' Amplitude
GR.GAPI                       : Gamma Ray
~Parameter Information Block
~A  Depth       CCL         TT3         AMP3         GR     
# ...
  1507.5000      0.0000    636.3186      1.8507     77.8036
  1507.7500      0.0000    664.0733      1.8324     79.3817
  1508.0000      0.0000    697.8392      1.8212     79.1303
  1508.2500      0.0000    725.1584      1.8422     77.5113
  1508.5000      0.0000    735.1495      1.8881     75.4435
  1508.7500      0.0000    722.4101      1.9288     74.3699
  1509.0000      0.0000    691.3950      1.9758     75.6181
  1509.2500      0.0000    659.6081      2.0876     79.7074
  1509.5000      0.0000    644.5486      2.2817     86.1741
  1509.7500      0.0000    649.0429      2.4771     93.6368
  1510.0000      0.0000    665.1391      2.6007    100.1294
  1510.2500      0.0000    683.8112      2.6994    104.2689
  1510.5000      0.0000    698.7310      2.8336    106.6469
  1510.7500      2.0000    708.4957      2.9765    109.4913
  1511.0000     -2.0000    711.5422      3.0907    114.3860
  1511.2500      0.0000    704.0128      3.1797    120.6415
  1511.5000      0.0000    692.8958      3.2599    126.0790
  1511.7500      0.0000    691.0814      3.3666    128.6454
  1512.0000      0.0000    694.5411      3.5614    126.9164
  1512.2500      0.0000    690.6793      3.8533    120.1754
  1512.5000      0.0000    680.7864      4.1190    109.2246
  1512.7500      0.0000    673.6641      4.2443     96.7574
  1513.0000      0.0000    669.0888      4.2925     85.9722
  1513.2500      0.0000    661.3642      4.3565     78.6444
  1513.5000      0.0000    651.4733      4.4346     74.6617
  1513.7500      0.0000    646.7715      4.5141     73.0351
  1514.0000      0.0000    650.7620      4.5727     72.9129
  1514.2500      0.0000    657.7546      4.5398     73.7584
  1514.5000      0.0000    659.5753      4.3726     75.1424
  1514.7500      0.0000    655.1320      4.1236     76.5808
  1515.0000      0.0000    648.6627      3.8854     77.4471
  1515.2500      0.0000    643.1516      3.6871     77.1182
  1515.5000      0.0000    641.3367      3.4855     75.3879
  1515.7500      0.0000    646.2139      3.2563     72.6508
  1516.0000      0.0000    657.3579      3.0336     69.5655
  1516.2500      0.0000    670.2696      2.8646     66.5488
  1516.5000      0.0000    678.9455      2.7666     63.6440
  1516.7500      0.0000    683.1862      2.7027     60.8726
  1517.0000      0.0000    690.2098      2.5982     58.6194
  1517.2500      0.0000    701.2209      2.4314     57.5354
  1517.5000      0.0000    707.9991      2.2534     58.0191
  1517.7500      0.0000    706.3192      2.1101     59.7812
  1518.0000      0.0000    698.3447      2.0179     61.8655
  1518.2500      0.0000    683.7508      1.9687     63.1275
  1518.5000      0.0000    657.6825      1.9370     62.9332
  1518.7500      0.0000    619.0948      1.9089     61.5896
  1519.0000      0.0000    581.3018      1.8823     60.1537
  1519.2500      0.0000    559.9724      1.8566     59.6781
  1519.5000      0.0000    548.3345      1.8359     60.3630
  1519.7500      0.0000    530.1180      1.8128     61.3253
  1520.0000      0.0000    507.9035      1.7829     61.3890
  1520.2500      0.0000    493.4050      1.7759     60.2515
  1520.5000      0.0000    489.3082      1.8059     58.8846
  1520.7500      0.0000    495.1244      1.8424     58.7705
  1521.0000      0.0000    516.3430      1.8759     60.6289
  1521.2500      0.0000    558.1725      1.9149     63.7467
  1521.5000      0.0000    612.7105      1.9421     66.6208
  1521.7500      0.0000    662.2287      1.9617     68.4017
  1522.0000      0.0000    694.1134      2.0091     69.6696
  1522.2500      0.0000    705.6406      2.0794     71.6525
  1522.5000      0.0000    702.6146      2.1343     74.7824
  1522.7500      0.0000    695.8793      2.1523     78.3246
  1523.0000      0.0000    693.9954      2.1295     81.4313
  1523.2500      0.0000    698.9281      2.0862     84.0048
  1523.5000      0.0000    706.1454      2.0574     86.1840
  1523.7500      0.0000    709.6395      2.0440     87.4380
  1524.0000      0.0000    709.0150      2.0368     86.8134
  1524.2500      0.0000    708.4402      2.0665     84.0362
  1524.5000      0.0000    710.5383      2.1510     79.9076
  1524.7500      0.0000    713.9776      2.2599     75.5671
  1525.0000      0.0000    715.3970      2.3742     71.7885
  1525.2500      0.0000    714.8412      2.4951     69.1480
  1525.5000      0.0000    716.3824      2.5899     68.3765
  1525.7500      0.0000    721.0090      2.6223     69.9724
  1526.0000      0.0000    723.9411      2.6078     73.4884
  1526.2500      0.0000    719.3742      2.5859     77.4917
  1526.5000      0.0000    705.4061      2.5796     80.3204
  1526.7500      0.0000    686.5651      2.5867     80.8871
  1527.0000      0.0000    670.2841      2.5733     78.9739
  1527.2500      0.0000    659.0063      2.5090     75.0787
  1527.5000      0.0000    649.5596      2.4155     70.2382
  1527.7500      0.0000    639.2254      2.3408     65.9545
  1528.0000      0.0000    627.5869      2.3167     63.7898
  1528.2500      0.0000    615.4278      2.3397     64.4162
  1528.5000      0.0000    606.8473      2.3749     66.9341
  1528.7500      0.0000    607.6537      2.4045     69.5619
  1529.0000      0.0000    617.8228      2.4389     71.3596
  1529.2500      0.0000    631.6419      2.4759     73.1433
  1529.5000      0.0000    644.6002      2.5156     76.4232
  1529.7500      0.0000    654.0629      2.5813     81.7212
  1530.0000      0.0000    658.2884      2.6728     88.3297
  1530.2500      0.0000    658.5721      2.7700     95.3558
  1530.5000      0.0000    657.7465      2.8959    102.3869
  1530.7500      0.0000    657.1224      3.0886    109.3812
  1531.0000      0.0000    656.7831      3.3250    116.5443
  1531.2500      0.0000    656.6708      3.5302    124.1923
  1531.5000      0.0000    656.7822      3.6476    132.2539
  1531.7500      0.0000    657.1526      3.7010    139.9120
  1532.0000      0.0000    657.7648      3.7861    145.7001
  1532.2500      0.0000    658.4839      3.9733    147.7270
  1532.5000      0.0000    659.1752      4.2397    144.2908
  1532.7500      0.0000    659.8208      4.4975    135.1521
  1533.0000      0.0000    660.4041      4.6715    122.1609
  1533.2500      0.0000    660.5983      4.7584    108.1774
  1533.5000      0.0000    659.4107      4.7983     95.4690
  1533.7500      0.0000    654.9713      4.7949     85.1789
  1534.0000      0.0000    645.8273      4.7006     77.8036
  1534.2500      0.0000    634.9639      4.4866     73.7209
  1534.5000      0.0000    630.4160      4.1969     73.1574
  1534.7500      0.0000    635.3427      3.9153     75.9446
  1535.0000      0.0000    640.6353      3.6875     81.7793
  1535.2500      0.0000    636.8610      3.5027     90.5937
  1535.5000      0.0000    628.3358      3.3527    102.0154
  1535.7500      0.0000    625.7107      3.2462    114.4868
  1536.0000      0.0000    632.4946      3.1605    125.5511
  1536.2500      0.0000    645.6780      3.0619    133.2258
  1536.5000      0.0000    660.3843      2.9620    136.9460
  1536.7500      0.0000    671.6190      2.9002    137.5006
  1537.0000      0.0000    677.0037      2.8922    136.5641
  1537.2500      0.0000    676.8345      2.9155    135.9913
  1537.5000      0.0000    672.1139      2.9224    136.7306
  1537.7500      0.0000    665.1430      2.8858    138.0914
  1538.0000      0.0000    659.3707      2.8447    138.2727
  1538.2500      0.0000    656.5782      2.8545    135.7920
  1538.5000      0.0000    655.9807      2.9061    130.6678
  1538.7500      0.0000    656.1909      2.9569    124.4901
  1539.0000      0.0000    656.9291      2.9939    119.1854
  1539.2500      0.0000    659.3855      3.0201    115.4080
  1539.5000      0.0000    665.0746      3.0424    112.1871
  1539.7500      0.0000    672.5239      3.0676    108.4120
  1540.0000      0.0000    675.9715      3.0821    104.5407
  1540.2500      0.0000    672.0027      3.0661    102.4490
  1540.5000      0.0000    664.7670      3.0242    103.6438
  1540.7500      0.0000    659.6702      2.9817    108.1291
