~Version Information
VERS.                      2.0: CWLS Log ASCII Standard - VERSION 2.0
WRAP.                       NO: One line per depth step
~Well Information Block
STRT.FT               322.3000: 
STOP.FT              1375.0000: 
STEP.FT                 0.1000: 
NULL.                -999.2500: 
COMP.          Pioneer Natural Resources: COMPANY
WELL.          Buffet 41-36 Tr: WELL
FLD.           Purgatoire River: FIELD
LOC.           119' FNL & 271' FEL: LOCATION
PROV.                 Colorado: PROVINCE
CNTY.               Las Animas: COUNTRY
SRVC.                Patterson: SERVICE COMPANY
DATE.          Thu Dec 29 07:13:13 2005: LOG DATE
UWI.           05 071 08627 00: UNIQUE WELL ID
~Curve Information Block
DEPT.FT            0 000 00 00: Depth
DCAL.in                       : CDL Caliper
RHOB.g/cc                     : CDL Bulk Density
RHOC.g/cc                     : CDL Density Correction
DPOR.pu                       : CDL Density Porosity
GR.GAPI                       : Gamma Ray
~Parameter Information Block
~A  Depth       DCAL        RHOB        RHOC        DPOR         GR     
# ...
  1363.9000      7.8352      2.6379      0.0224      0.7335   -999.2500
  1364.0000      7.8350      2.6218     -0.0061      1.7121   -999.2500
  1364.1000      7.8350      2.6284      0.0221      1.3085   -999.2500
  1364.2000      7.8350      2.6535      0.0398     -0.2140   -999.2500
  1364.3000      7.8354      2.6779      0.0216     -1.6916   -999.2500
  1364.4000      7.8354      2.6927      0.0240     -2.5858   -999.2500
  1364.5000      7.8363      2.7004      0.0059     -3.0530   -999.2500
  1364.6000      7.8363      2.7116      0.0155     -3.7327   -999.2500
  1364.7000      7.8363      2.7298      0.0674     -4.8346   -999.2500
  1364.8000      7.8363      2.7471      0.0452     -5.8864   -999.2500
  1364.9000      7.8363      2.7567      0.0279     -6.4691   -999.2500
  1365.0000      7.8358      2.7556      0.0348     -6.3977   -999.2500
  1365.1000      7.8358      2.7449      0.0345     -5.7520   -999.2500
  1365.2000      7.8358      2.7290      0.0311     -4.7872   -999.2500
  1365.3000      7.8349      2.7121      0.0371     -3.7612   -999.2500
  1365.4000      7.8349      2.6976      0.0495     -2.8821   -999.2500
  1365.5000      7.8348      2.6880      0.0335     -2.3002   -999.2500
  1365.6000      7.8348      2.6876      0.0570     -2.2805   -999.2500
  1365.7000      7.8348      2.6937      0.0348     -2.6455   -999.2500
  1365.8000      7.8352      2.6955      0.0407     -2.7577   -999.2500
  1365.9000      7.8352      2.6976      0.0464     -2.8821   -999.2500
  1366.0000      7.8357      2.7111      0.0495     -3.7016   -999.2500
  1366.1000      7.8357      2.7222      0.0581     -4.3785   -999.2500
  1366.2000      7.8357      2.7086      0.0658     -3.5508   -999.2500
  1366.3000      7.8369      2.6838      0.0229     -2.0472   -999.2500
  1366.4000      7.8369      2.6746      0.0624     -1.4900   -999.2500
  1366.5000      7.8380      2.6658      0.0835     -0.9603   -999.2500
  1366.6000      7.8380      2.6322      0.0416      1.0775   -999.2500
  1366.7000      7.8380      2.5918     -0.0647      3.5274   -999.2500
  1366.8000      7.8378      2.5720     -0.0312      4.7247   -999.2500
  1366.9000      7.8378      2.5692     -0.0350      4.8942   -999.2500
  1367.0000      7.8375      2.5785     -0.0487      4.3323   -999.2500
  1367.1000      7.8375      2.6155      0.0043      2.0889   -999.2500
  1367.2000      7.8375      2.6807      0.0833     -1.8585   -999.2500
  1367.3000      7.8367      2.7483      0.0884     -5.9582   -999.2500
  1367.4000      7.8367      2.7942      0.1472     -8.7378   -999.2500
  1367.5000      7.8350      2.8101      0.1478     -9.7001   -999.2500
  1367.6000      7.8350      2.8172      0.0933    -10.1351   -999.2500
  1367.7000      7.8350      2.8581      0.1013    -12.6109   -999.2500
  1367.8000      7.8339      2.9461      0.1403    -17.9452   -999.2500
  1367.9000      7.8339      3.0407      0.1673    -23.6772   -999.2500
  1368.0000      7.8341      3.0899      0.1175    -26.6619   -999.2500
  1368.1000      7.8341      3.0653      0.1565    -25.1715   -999.2500
  1368.2000      7.8341      2.9739      0.0456    -19.6311   -999.2500
  1368.3000      7.8353      2.8653     -0.0166    -13.0468   -999.2500
  1368.4000      7.8353      2.7720      0.0726     -7.3969   -999.2500
  1368.5000      7.8365      2.7019     -0.1099     -3.1435   -999.2500
  1368.6000      7.8365      2.6716     -0.0697     -1.3120   -999.2500
  1368.7000      7.8365      2.6745     -0.0777     -1.4847   -999.2500
  1368.8000      7.8368      2.6926     -0.0558     -2.5839   -999.2500
  1368.9000      7.8368      2.7270      0.0075     -4.6666   -999.2500
  1369.0000      7.8363      2.7686      0.1358     -7.1874   -999.2500
  1369.1000      7.8363      2.7876      0.2138     -8.3377   -999.2500
  1369.2000      7.8363      2.7704      0.1823     -7.2988   -999.2500
  1369.3000      7.8374      2.7369      0.1627     -5.2691   -999.2500
  1369.4000      7.8374      2.7002      0.1439     -3.0403   -999.2500
  1369.5000      7.8420      2.6503      0.1109     -0.0206   -999.2500
  1369.6000      7.8420      2.5870      0.0594      3.8161   -999.2500
  1369.7000      7.8420      2.5327      0.0050      7.1096   -999.2500
  1369.8000      7.8452      2.5115      0.0200      8.3915   -999.2500
  1369.9000      7.8452      2.5350     -0.0096      6.9711   -999.2500
  1370.0000      7.8273      2.5978      0.0364      3.1629   -999.2500
  1370.1000      7.8273      2.6754      0.1119     -1.5379   -999.2500
  1370.2000      7.8273      2.7368      0.1557     -5.2632   -999.2500
  1370.3000      7.7859      2.7654      0.1670     -6.9912   -999.2500
  1370.4000      7.7859      2.7671      0.1435     -7.0987   -999.2500
  1370.5000      7.7582      2.7561      0.1346     -6.4312   -999.2500
  1370.6000      7.7582      2.7391      0.1000     -5.3994   -999.2500
  1370.7000      7.7582      2.7190      0.0584     -4.1792   -999.2500
  1370.8000      7.7533      2.6970      0.0392     -2.8511   -999.2500
  1370.9000      7.7533      2.6749      0.0118     -1.5112   -999.2500
  1371.0000      7.7577      2.6481      0.0401      0.1176   -999.2500
  1371.1000      7.7577      2.6136     -0.0120      2.2084   -999.2500
  1371.2000      7.7577      2.5816      0.0200      4.1470   -999.2500
  1371.3000      7.7602      2.5606      0.0339      5.4190   -999.2500
  1371.4000      7.7602      2.5534      0.0303      5.8565   -999.2500
  1371.5000      7.7531      2.5609      0.0357      5.3990   -999.2500
  1371.6000      7.7531      2.5715      0.0784      4.7602   -999.2500
  1371.7000      7.7531      2.5691      0.0709      4.9024   -999.2500
  1371.8000      7.7413      2.5594      0.0386      5.4888   -999.2500
  1371.9000      7.7413      2.5583      0.0577      5.5606   -999.2500
  1372.0000      7.7038      2.5826      0.0396      4.0856   -999.2500
  1372.1000      7.7038      2.6631      0.0654     -0.7919   -999.2500
  1372.2000      7.7038      2.6866      0.0554     -2.2197   -999.2500
  1372.3000      7.4096      2.2436      0.5050     24.6327   -999.2500
  1372.4000      7.4096      1.2729      0.0000     83.4611   -999.2500
  1372.5000      6.2069      0.4315      0.0000    134.4553   -999.2500
  1372.6000      6.2069      0.0819   -999.2500    155.6409   -999.2500
  1372.7000      6.2069      0.0084   -999.2500    160.0943   -999.2500
  1372.8000      4.2814      0.0005   -999.2500    160.5783   -999.2500
  1372.9000      4.2814      0.0000   -999.2500    160.6061   -999.2500
  1373.0000      3.1257      0.0000   -999.2500    160.6061   -999.2500
  1373.1000      3.1257   -999.2500   -999.2500   -999.2500   -999.2500
  1373.2000      3.1257   -999.2500   -999.2500   -999.2500   -999.2500
  1373.3000      2.8688   -999.2500   -999.2500   -999.2500   -999.2500
  1373.4000      2.8688   -999.2500   -999.2500   -999.2500   -999.2500
  1373.5000      2.8477   -999.2500   -999.2500   -999.2500   -999.2500
  1373.6000      2.8477   -999.2500   -999.2500   -999.2500   -999.2500
  1373.7000      2.8477   -999.2500   -999.2500   -999.2500   -999.2500
  1373.8000   -999.2500   -999.2500   -999.2500   -999.2500   -999.2500
  1373.9000   -999.2500   -999.2500   -999.2500   -999.2500   -999.2500
  1374.0000   -999.2500   -999.2500   -999.2500   -999.2500   -999.2500
  1374.1000   -999.2500   -999.2500   -999.2500   -999.2500   -999.2500
  1374.2000   -999.2500   -999.2500   -999.2500   -999.2500   -999.2500
  1374.3000   -999.2500   -999.2500   -999.2500   -999.2500   -999.2500
  1374.4000   -999.2500   -999.2500   -999.2500   -999.2500   -999.2500
  1374.5000   -999.2500   -999.2500   -999.2500   -999.2500   -999.2500
  1374.6000   -999.2500   -999.2500   -999.2500   -999.2500   -999.2500
  1374.7000   -999.2500   -999.2500   -999.2500   -999.2500   -999.2500
  1374.8000   -999.2500   -999.2500   -999.2500   -999.2500   -999.2500
  1374.9000   -999.2500   -999.2500   -999.2500   -999.2500   -999.2500
  1375.0000   -999.2500   -999.2500   -999.2500   -999.2500   -999.2500
