~Version Information
VERS.                      2.0: CWLS Log ASCII Standard - VERSION 2.0
WRAP.                       NO: One line per depth step
~Well Information Block
STRT.FT                10.0000: 
STOP.FT              1458.0000: 
STEP.FT                 0.1000: 
NULL.                -999.2500: 
COMP.          Pioneer Natural Resources: COMPANY
WELL.            Bordeaux 42-2: WELL
FLD.           Purgatorie River: FIELD
LOC.           1963' FNL & 1148' FEL: LOCATION
PROV.                 Colorado: PROVINCE
CNTY.               Las Animas: COUNTRY
SRVC.                Patterson: SERVICE COMPANY
DATE.          Tue Nov 29 07:11:03 2005: LOG DATE
UWI.                          : UNIQUE WELL ID
~Curve Information Block
DEPT.FT            0 000 00 00: Depth
DCAL.in                       : CDL Caliper
RHOB.g/cc                     : CDL Bulk Density
RHOC.g/cc                     : CDL Density Correction
DPOR.pu                       : CDL Density Porosity
GR.GAPI                       : Gamma Ray
NPOR.pu                       : Neutron Porosity
~Parameter Information Block
~A  Depth       DCAL        RHOB        RHOC        DPOR         GR         NPOR    
# ...
   768.4000      7.9888      2.5594      0.0196      5.4902    136.0245     25.8556
   768.5000      7.9803      2.5259      0.0031      7.5239    132.5571     25.7218
   768.6000      7.9803      2.5002     -0.0395      9.0790    129.6120     25.4462
   768.7000      7.9803      2.4876     -0.0110      9.8448    127.4116     25.1809
   768.8000      7.9827      2.4798     -0.0327     10.3140    125.4493     24.8520
   768.9000      7.9827      2.4733     -0.0118     10.7120    122.1246     24.3063
   769.0000      7.9868      2.4805     -0.0712     10.2738    116.4740     23.9344
   769.1000      7.9868      2.5065     -0.0059      8.6960    111.2159     24.1377
   769.2000      7.9868      2.5307     -0.0225      7.2328    108.3105     24.4975
   769.3000      7.9841      2.5376      0.0111      6.8121    106.3019     24.4755
   769.4000      7.9841      2.5385     -0.0039      6.7558    104.7518     24.1862
   769.5000      7.9828      2.5463     -0.0091      6.2858    104.7909     23.9595
   769.6000      7.9828      2.5527      0.0195      5.8962    106.4206     23.8455
   769.7000      7.9828      2.5405      0.0366      6.6351    108.1038     23.7775
   769.8000      7.9830      2.5059     -0.0145      8.7354    107.6430     23.5572
   769.9000      7.9830      2.4582     -0.0373     11.6220    104.6768     22.9767
   770.0000      7.9778      2.4114     -0.0801     14.4605    100.5014     22.1690
   770.1000      7.9778      2.3808     -0.0730     16.3154     98.0688     21.4620
   770.2000      7.9778      2.3735     -0.0587     16.7603     98.0097     21.2761
   770.3000      7.9761      2.3850      0.0018     16.0585     96.2609     21.6611
   770.4000      7.9761      2.4038     -0.0004     14.9187     94.1001     21.9289
   770.5000      7.9757      2.4168      0.0407     14.1328     95.1321     21.6020
   770.6000      7.9757      2.4166      0.0231     14.1471     95.6138     21.0501
   770.7000      7.9757      2.4049      0.0294     14.8547     92.8868     20.8087
   770.8000      7.9750      2.3884      0.0032     15.8572     90.4167     20.7665
   770.9000      7.9750      2.3730     -0.0161     16.7904     90.2660     20.6679
   771.0000      7.9826      2.3618      0.0205     17.4650     91.6477     20.6855
   771.1000      7.9826      2.3572     -0.0079     17.7437     93.2298     20.8397
   771.2000      7.9826      2.3583     -0.0144     17.6780     95.0382     20.8699
   771.3000      7.9673      2.3605     -0.0324     17.5439     98.4361     20.7652
   771.4000      7.9673      2.3674     -0.0229     17.1297    103.2737     20.7953
   771.5000      7.9772      2.3846      0.0108     16.0845    107.0088     21.2204
   771.6000      7.9772      2.4044      0.0671     14.8848    108.2737     21.9683
   771.7000      7.9772      2.4165      0.0298     14.1498    108.6000     22.5527
   771.8000      7.9637      2.4234      0.0132     13.7348    110.7901     22.7097
   771.9000      7.9637      2.4292      0.0034     13.3813    115.1734     22.7147
   772.0000      7.9623      2.4378     -0.0198     12.8635    119.1566     22.8303
   772.1000      7.9623      2.4493      0.0226     12.1634    120.8675     22.9275
   772.2000      7.9623      2.4524      0.0064     11.9738    120.1994     22.8581
   772.3000      7.9610      2.4441     -0.0214     12.4806    116.5878     22.7874
   772.4000      7.9610      2.4403     -0.0322     12.7082    111.6451     22.7147
   772.5000      7.9768      2.4500      0.0011     12.1214    109.4791     22.3703
   772.6000      7.9768      2.4540      0.0079     11.8794    110.6803     21.7888
   772.7000      7.9768      2.4374      0.0005     12.8824    110.7519     21.4041
   772.8000      8.0048      2.4167     -0.0370     14.1403    108.2211     21.4458
   772.9000      8.0048      2.4097     -0.0163     14.5651    108.0397     21.6954
   773.0000      7.9960      2.4169     -0.0228     14.1300    110.9760     21.7790
   773.1000      7.9960      2.4301      0.0187     13.3260    110.9912     21.6916
   773.2000      7.9960      2.4389      0.0229     12.7952    107.0958     21.7150
   773.3000      7.9858      2.4393      0.0203     12.7711    103.9424     21.9633
   773.4000      7.9858      2.4386      0.0032     12.8118    104.8514     22.4008
   773.5000      7.9937      2.4497     -0.0383     12.1379    111.6386     23.0655
   773.6000      7.9937      2.4684      0.0371     11.0041    122.5633     23.6535
   773.7000      7.9937      2.4749      0.0012     10.6138    131.2260     23.5253
   773.8000      8.0208      2.4640      0.0409     11.2716    133.4280     22.8095
   773.9000      8.0208      2.4385      0.0092     12.8157    131.3537     22.2641
   774.0000      8.0043      2.4027     -0.0159     14.9906    128.0001     22.1585
   774.1000      8.0043      2.3718     -0.0281     16.8586    122.5668     22.2036
   774.2000      8.0043      2.3600     -0.0446     17.5740    115.4476     22.0564
   774.3000      7.9871      2.3657      0.0008     17.2333    110.4215     21.8017
   774.4000      7.9871      2.3798     -0.0304     16.3763    108.8489     21.7212
   774.5000      7.9754      2.3889      0.0486     15.8232    107.6690     21.6865
   774.6000      7.9754      2.3805      0.0369     16.3358    104.6312     21.3488
   774.7000      7.9754      2.3632      0.0185     17.3823    101.7069     20.7788
   774.8000      7.9695      2.3537      0.0141     17.9547    100.4484     20.1664
   774.9000      7.9695      2.3531      0.0693     17.9916    100.1574     19.6058
   775.0000      7.9649      2.3556      0.0039     17.8448     99.4526     19.3387
   775.1000      7.9649      2.3565      0.0695     17.7867     96.5126     19.3491
   775.2000      7.9649      2.3511      0.0292     18.1149     92.1539     19.3085
   775.3000      7.9588      2.3443      0.0483     18.5251     89.1310     19.1246
   775.4000      7.9588      2.3403      0.0544     18.7671     88.4794     19.0838
   775.5000      7.9685      2.3323      0.0708     19.2556     89.8734     19.3812
   775.6000      7.9685      2.3180      0.0140     20.1207     92.3708     19.6290
   775.7000      7.9685      2.3036      0.0137     20.9912     93.8966     19.3491
   775.8000      7.9647      2.2957     -0.0240     21.4706     93.0887     18.8820
   775.9000      7.9647      2.3005      0.0195     21.1832     90.7193     18.8214
   776.0000      7.9637      2.3155      0.0173     20.2725     88.9590     18.9570
   776.1000      7.9637      2.3332      0.0290     19.2004     88.9157     18.7621
   776.2000      7.9637      2.3508      0.0309     18.1342     88.4265     18.3921
   776.3000      7.9677      2.3701      0.0266     16.9649     87.4873     18.2608
   776.4000      7.9677      2.3864      0.0681     15.9748     89.0744     18.2982
   776.5000      7.9624      2.3949      0.0373     15.4613     91.1106     18.3165
   776.6000      7.9624      2.4001      0.0273     15.1431     91.0351     18.4081
   776.7000      7.9624      2.4026      0.0485     14.9960     91.2525     18.6875
   776.8000      7.9705      2.3967      0.0342     15.3521     93.4653     19.0555
   776.9000      7.9705      2.3853     -0.0092     16.0411     96.5328     19.3502
   777.0000      7.9716      2.3746      0.0181     16.6937     99.1162     19.6081
   777.1000      7.9716      2.3675     -0.0293     17.1204    101.9076     19.8991
   777.2000      7.9716      2.3678     -0.0046     17.1012    106.2838     20.1353
   777.3000      7.9851      2.3759     -0.0055     16.6150    112.6165     20.2806
   777.4000      7.9851      2.3927     -0.0112     15.5923    119.5123     20.4655
   777.5000      7.9830      2.4205      0.0247     13.9111    123.7845     20.6874
   777.6000      7.9830      2.4499      0.0479     12.1267    123.9276     20.9452
   777.7000      7.9830      2.4639      0.0664     11.2810    122.2836     21.4123
   777.8000      7.9875      2.4593      0.0198     11.5574    120.5736     21.8764
   777.9000      7.9875      2.4545     -0.0197     11.8489    118.5748     22.0718
