~Version Information
VERS.                      2.0: CWLS Log ASCII Standard - VERSION 2.0
WRAP.                       NO: One line per depth step
~Well Information Block
STRT.FT                -8.7500: 
STOP.FT              1525.0000: 
STEP.FT                 0.2500: 
NULL.                -999.2500: 
COMP.          Pioneer Natural Resources: COMPANY
WELL.          Grand Prix 13-12 Tr: WELL
FLD.           Purgatorie River: FIELD
LOC.           2595' FSL & 1277' FWL--: LOCATION
CNTY.               Las Animas: COUNTY
SRVC.          Patterson Wireline: SERVICE COMPANY
DATE.          Thu Apr 13 10:28:30 2006: LOG DATE
UWI.           05 071 08711 00: UNIQUE WELL ID
STAT.                       CO: STATE
~Curve Information Block
DEPT.FT            0 000 00 00: Depth
CCL.                          : Casing Collar Locator
TT3.usec                      : CBL 3' Travel Time
AMP3.mV                       : CBL 3' Amplitude
GR.GAPI                       : Gamma Ray
~Parameter Information Block
~A  Depth       CCL         TT3         AMP3         GR     
    -8.7500   -999.2500   -999.2500   -999.2500     80.8393
    -8.5000   -999.2500   -999.2500   -999.2500     78.3374
    -8.2500   -999.2500   -999.2500   -999.2500     77.4978
    -8.0000   -999.2500   -999.2500   -999.2500     76.6500
    -7.7500   -999.2500   -999.2500   -999.2500     74.8895
    -7.5000   -999.2500   -999.2500   -999.2500     72.8865
    -7.2500   -999.2500   -999.2500   -999.2500     71.7540
    -7.0000   -999.2500   -999.2500   -999.2500     71.4530
    -6.7500   -999.2500   -999.2500   -999.2500     70.8422
    -6.5000   -999.2500   -999.2500   -999.2500     69.3841
    -6.2500   -999.2500   -999.2500   -999.2500     68.1278
    -6.0000   -999.2500   -999.2500   -999.2500     68.5118
    -5.7500   -999.2500   -999.2500   -999.2500     70.5772
    -5.5000   -999.2500   -999.2500   -999.2500     72.8681
    -5.2500   -999.2500   -999.2500   -999.2500     73.9324
    -5.0000   -999.2500   -999.2500   -999.2500     73.4376
    -4.7500   -999.2500   -999.2500   -999.2500     71.8930
    -4.5000   -999.2500   -999.2500   -999.2500     69.8087
    -4.2500   -999.2500   -999.2500   -999.2500     67.4407
    -4.0000   -999.2500   -999.2500   -999.2500     65.1669
    -3.7500   -999.2500   1161.0000      0.9666     63.7334
    -3.5000   -999.2500   1161.0000      0.9695     63.9188
    -3.2500   -999.2500   1161.0000      0.9727     65.8125
    -3.0000   -999.2500   1161.0000      0.9766     68.3828
    -2.7500   -999.2500   1161.0000      0.9801     69.9946
    -2.5000   -999.2500   1161.0000      0.9807     69.6046
    -2.2500   -999.2500   1161.0000      0.9776     67.3499
    -2.0000   -999.2500   1161.0000      0.9734     63.9186
    -1.7500   -999.2500   1161.0000      0.9734     59.6709
    -1.5000   -999.2500   1161.0000      0.9820     54.6111
    -1.2500   -999.2500   1161.0000      0.9972     48.9702
    -1.0000   -999.2500   1161.0000      1.0097     43.4187
    -0.7500   -999.2500   1161.0000      1.0095     38.6889
    -0.5000   -999.2500   1161.0000      0.9947     35.1919
    -0.2500   -999.2500   1161.0000      0.9724     32.9844
     0.0000   -999.2500   1161.0000      0.9533     31.8329
     0.2500   -999.2500   1161.0000      0.9435     31.1444
     0.5000   -999.2500   1161.0000      0.9429     30.0848
     0.7500   -999.2500   1161.0000      0.9559     26.3618
     1.0000   -999.2500   1161.0000      0.9633     26.2385
     1.2500   -999.2500   1161.0000      0.9661     29.2198
     1.5000      0.0000   1161.0000      0.9611     34.9957
     1.7500      0.0000   1161.0000      0.9492     41.8832
     2.0000      0.0000   1161.0000      0.9359     48.1878
     2.2500      0.0000   1161.0000      0.9269     53.1307
     2.5000      0.0000   1161.0000      0.9242     56.8696
     2.7500      0.0000   1161.0000      0.9261     60.1226
     3.0000      2.0000   1161.0000      0.9290     63.5689
     3.2500      0.0000   1161.0000      0.9303     67.0902
     3.5000      0.0000   1161.0000      0.9293     69.6626
     3.7500      0.0000   1161.0000      0.9270     70.3787
     4.0000      0.0000   1161.0000      0.9254     69.3370
     4.2500      2.0000   1161.0000      0.9261     67.2477
     4.5000      0.0000   1161.0000      0.9284     64.7489
     4.7500      0.0000   1161.0000      0.9297     62.5833
     5.0000      0.0000   1161.0000      0.9302     61.7709
     5.2500      0.0000   1160.9972      0.9350     62.8949
     5.5000      0.0000   1160.9791      0.9498     65.3801
     5.7500      0.0000   1160.8694      0.9738     67.8557
     6.0000      0.0000   1160.3831      0.9998     69.2818
     6.2500      0.0000   1158.5972      1.0256     69.7218
     6.5000      0.0000   1153.1389      1.0735     70.0468
     6.7500      0.0000   1138.9463      1.2546     70.8389
     7.0000      0.0000   1107.3202      1.9324     71.7634
     7.2500      0.0000   1046.9309      3.9828     72.3183
     7.5000      0.0000    948.6479      8.8660     73.0944
     7.7500      0.0000    813.4360     17.9784     75.6778
     8.0000      0.0000    657.7842     31.2841     80.8910
     8.2500      0.0000    509.5871     46.4823     87.3639
     8.5000      0.0000    394.3078     60.0682     92.2108
     8.7500      0.0000    321.8903     69.5774     93.2592
     9.0000      0.0000    285.5173     74.7795     90.6517
     9.2500      0.0000    271.0260     76.9667     86.3565
     9.5000      0.0000    266.4729     77.6052     82.3896
     9.7500      0.0000    265.3470     77.6419     79.6850
    10.0000      0.0000    265.1284     77.5218     78.1932
    10.2500      0.0000    265.0957     77.3836     77.2643
    10.5000      0.0000    265.1021     77.1405     75.9149
    10.7500      0.0000    265.1263     76.4736     73.3829
    11.0000      0.0000    265.2017     74.8661     69.8012
    11.2500      0.0000    265.4369     71.7822     66.1192
    11.5000      0.0000    266.1090     66.9400     63.1377
    11.7500      0.0000    267.8883     60.4937     60.7572
    12.0000      0.0000    272.0867     52.9816     58.5247
    12.2500      0.0000    280.5996     45.0933     56.8583
    12.5000      0.0000    294.9400     37.4591     57.0718
    12.7500      0.0000    314.4187     30.5700     59.9121
    13.0000      0.0000    335.4054     24.7524     64.6603
    13.2500      0.0000    354.1927     20.0989     69.8740
    13.5000      0.0000    372.1899     16.4361     74.4222
    13.7500      0.0000    397.3212     13.4794     77.6277
    14.0000      0.0000    437.6213     11.0570     78.9321
    14.2500      0.0000    492.1938      9.1546     77.8279
    14.5000      2.0000    548.5021      7.7890     74.2337
    14.7500     -2.0000    588.3391      6.9136     69.0132
    15.0000      0.0000    597.0211      6.4271     63.9853
    15.2500      0.0000    570.9475      6.2235     61.0212
    15.5000      0.0000    521.2432      6.2267     60.8880
    15.7500      0.0000    469.9444      6.3806     62.8527
    16.0000      0.0000    437.7683      6.6054     65.2242
    16.2500      0.0000    431.3540      6.7908     66.4076
    16.5000      0.0000    440.0728      6.8664     65.8797
    16.7500      0.0000    445.3855      6.8566     64.3571
    17.0000      0.0000    435.7131      6.8353     62.9130
    17.2500      0.0000    413.8180      6.8441     61.9453
    17.5000      0.0000    390.6491      6.8724     61.1771
    17.7500      0.0000    374.3754      6.8945     60.5022
    18.0000      0.0000    366.1880      6.8989     60.3718
    18.2500      0.0000    363.5885      6.8888     61.2599
    18.5000      0.0000    364.2966      6.8711     63.1189
    18.7500      0.0000    367.1658      6.8516     65.6570
    19.0000      0.0000    371.4194      6.8330     68.8877
    19.2500      0.0000    376.1436      6.8176     72.9498
    19.5000      0.0000    380.3430      6.8081     77.4731
    19.7500      0.0000    383.3318      6.8075     81.6024
    20.0000      0.0000    384.9976      6.8162     84.7391
    20.2500      0.0000    385.6944      6.8310     87.1023
    20.5000      0.0000    385.8793      6.8494     89.5204
    20.7500      0.0000    385.8828      6.8720     92.5063
    21.0000      0.0000    385.9540      6.9000     95.3027
    21.2500      0.0000    386.5948      6.9300     96.1449
    21.5000      0.0000    389.2546      6.9525     93.8975
    21.7500      0.0000    397.1725      6.9599     89.3017
    22.0000      0.0000    415.2006      6.9527     84.2799
    22.2500      0.0000    446.7340      6.9392     80.1056
    22.5000      0.0000    488.9704      6.9257     76.5029
    22.7500      0.0000    532.6811      6.9093     72.5804
    23.0000      0.0000    569.6776      6.8806     68.2857
    23.2500      0.0000    599.6146      6.8321     64.4137
    23.5000      0.0000    626.7101      6.7623     61.3475
    23.7500      0.0000    651.8740      6.6737     58.6944
    24.0000      0.0000    671.7808      6.5709     56.4932
    24.2500      0.0000    684.0302      6.4607     55.8577
    24.5000      0.0000    689.7754      6.3519     57.6715
