~Version Information
VERS.                      2.0: CWLS Log ASCII Standard - VERSION 2.0
WRAP.                       NO: One line per depth step
~Well Information Block
STRT.FT               420.0000: 
STOP.FT              2888.7000: 
STEP.FT                 0.1000: 
NULL.                -999.2500: 
COMP.          Pioneer Natural Resources: COMPANY
WELL.          Touchstone 11-32: WELL
FLD.           Purgatoire River: FIELD
LOC.           853' FNL & 407' FWL--: LOCATION
CNTY.               Las Animas: COUNTY
SRVC.                Patterson: SERVICE COMPANY
DATE.          Fri Feb 24 11:16:52 2006: LOG DATE
UWI.           05 071 08564 00: UNIQUE WELL ID
STAT.                 Colorado: STATE
~Curve Information Block
DEPT.FT            0 000 00 00: Depth
DCAL.in                       : CDL Caliper
RHOB.g/cc                     : CDL Bulk Density
RHOC.g/cc                     : CDL Density Correction
DPOR.pu                       : CDL Density Porosity
NPOR.pu                       : Neutron Porosity
GR.GAPI                       : Gamma Ray
~Parameter Information Block
~A  Depth       DCAL        RHOB        RHOC        DPOR        NPOR         GR     
# ...
  1562.4000      8.1027      2.5240      0.0762      7.6341     20.6048     57.8073
  1562.5000      8.1016      2.4492      0.0156     12.1676     22.5911     57.3138
  1562.6000      8.1016      2.3721      0.0478     16.8452     24.9778     58.6734
  1562.7000      8.1016      2.2567      0.0467     23.8371     27.1227     60.5608
  1562.8000      8.0982      2.1022     -0.0857     33.1977     28.8700     59.9660
  1562.9000      8.0982      1.9631     -0.1657     41.6306     30.5330     59.5028
  1563.0000      8.0992      1.8926     -0.2204     45.9049     32.2769     63.8685
  1563.1000      8.0992      1.8917     -0.0900     45.9597     33.5297     71.9467
  1563.2000      8.0992      1.9234     -0.0159     44.0392     33.3360     80.8662
  1563.3000      8.1060      1.9639      0.0508     41.5834     31.9592     89.0337
  1563.4000      8.1060      2.0108      0.1596     38.7366     30.8584     93.8399
  1563.5000      8.1142      2.0696      0.2331     35.1751     30.8866     95.3374
  1563.6000      8.1142      2.1500      0.2154     30.3045     31.2723     98.7701
  1563.7000      8.1142      2.2467      0.2039     24.4413     31.0207    105.5320
  1563.8000      8.1235      2.3306      0.2267     19.3556     30.2337    109.3852
  1563.9000      8.1235      2.3819      0.2351     16.2464     29.2941    108.4757
  1564.0000      8.1349      2.4108      0.2355     14.4952     28.4623    109.0658
  1564.1000      8.1349      2.4415      0.2083     12.6371     27.8463    114.6692
  1564.2000      8.1349      2.4896      0.2376      9.7182     27.3753    121.7359
  1564.3000      8.1472      2.5521      0.2268      5.9334     27.1715    124.9364
  1564.4000      8.1472      2.6101      0.2916      2.4175     27.3312    123.6254
  1564.5000      8.1608      2.6368      0.3382      0.8006     27.6872    121.7912
  1564.6000      8.1608      2.6188      0.3128      1.8881     28.0138    119.9376
  1564.7000      8.1608      2.5778      0.2025      4.3744     28.2408    119.9304
  1564.8000      8.1743      2.5574      0.1781      5.6136     28.3826    126.0079
  1564.9000      8.1743      2.5799      0.1392      4.2465     28.4334    133.0064
  1565.0000      8.1839      2.6230      0.1731      1.6341     28.4676    134.2417
  1565.1000      8.1839      2.6489      0.2417      0.0639     28.4090    129.8685
  1565.2000      8.1839      2.6378      0.2245      0.7400     28.1918    124.1549
  1565.3000      8.1993      2.5975      0.1595      3.1832     28.0011    122.0364
  1565.4000      8.1993      2.5548      0.0849      5.7686     27.8861    126.0075
  1565.5000      8.2251      2.5325      0.0599      7.1190     27.7854    132.9915
  1565.6000      8.2251      2.5326      0.0433      7.1133     27.6152    135.3783
  1565.7000      8.2251      2.5430      0.0703      6.4845     27.3464    132.3027
  1565.8000      8.2574      2.5546      0.1050      5.7826     27.2000    129.9056
  1565.9000      8.2574      2.5616      0.1382      5.3580     27.2082    128.9549
  1566.0000      8.2878      2.5572      0.1345      5.6225     27.3131    125.7193
  1566.1000      8.2878      2.5396      0.1175      6.6913     27.5498    119.5910
  1566.2000      8.2878      2.5121      0.1690      8.3567     27.9204    115.9417
  1566.3000      8.3061      2.4809      0.1713     10.2480     28.5078    119.4410
  1566.4000      8.3061      2.4520      0.1538     12.0018     29.2630    124.7296
  1566.5000      8.3109      2.4226      0.0673     13.7820     29.9753    125.1307
  1566.6000      8.3109      2.3806      0.0929     16.3268     30.5191    126.0251
  1566.7000      8.3109      2.3226      0.0250     19.8405     30.9042    130.5039
  1566.8000      8.3175      2.2818     -0.0384     22.3152     31.2383    129.9104
  1566.9000      8.3175      2.2828      0.0228     22.2521     31.4315    124.1579
  1567.0000      8.3382      2.2896      0.0385     21.8416     31.5167    123.2375
  1567.1000      8.3382      2.2643      0.0059     23.3766     31.7469    127.2231
  1567.2000      8.3382      2.2273     -0.0325     25.6181     31.9478    129.9587
  1567.3000      8.3681      2.2064      0.0720     26.8818     31.9209    129.6669
  1567.4000      8.3681      2.1683      0.1827     29.1924     32.1668    125.3308
  1567.5000      8.3901      2.0682      0.0540     35.2624     33.0357    117.5902
  1567.6000      8.3901      1.9264     -0.0476     43.8555     34.0851    110.0848
  1567.7000      8.3901      1.7952     -0.0743     51.8041     34.8372    105.7002
  1567.8000      8.4024      1.6964     -0.0312     57.7950     35.4160    102.6037
  1567.9000      8.4024      1.6147     -0.0548     62.7431     35.9490     98.1363
  1568.0000      8.4318      1.5290     -0.0493     67.9415     36.1939     91.3150
  1568.1000      8.4318      1.4414     -0.1178     73.2513     36.1428     81.4068
  1568.2000      8.4318      1.3753     -0.0885     77.2558     35.8820     71.7014
  1568.3000      8.5480      1.3489     -0.0548     78.8545     35.6591     65.2656
  1568.4000      8.5480      1.3632      0.0068     77.9854     35.4467     62.5078
  1568.5000      8.7534      1.4009      0.0963     75.7052     34.8397     62.4142
  1568.6000      8.7534      1.4399      0.1084     73.3389     34.2307     61.6005
  1568.7000      8.7534      1.4727      0.1378     71.3545     34.2000     59.2317
  1568.8000      8.8373      1.4966      0.1521     69.9022     34.5467     58.5927
  1568.9000      8.8373      1.5067      0.1299     69.2881     34.9227     59.2336
  1569.0000      8.6357      1.5105      0.0695     69.0628     35.2069     57.8538
  1569.1000      8.6357      1.5199      0.0774     68.4904     35.3246     54.1868
  1569.2000      8.6357      1.5176      0.1292     68.6312     35.1619     48.9451
  1569.3000      8.3174      1.4800      0.0394     70.9119     34.8644     43.3698
  1569.4000      8.3174      1.4294     -0.0491     73.9743     34.6330     39.5367
  1569.5000      8.1333      1.4076     -0.0273     75.2991     34.3584     37.7345
  1569.6000      8.1333      1.4172      0.0575     74.7164     34.2170     36.6456
  1569.7000      8.1333      1.4370      0.0358     73.5152     34.2173     36.4271
  1569.8000      8.0850      1.4656      0.0275     71.7791     34.0630     38.9119
  1569.9000      8.0850      1.5127      0.0796     68.9249     33.7410     43.0717
  1570.0000      8.0818      1.5809      0.0997     64.7958     33.2961     44.8609
  1570.1000      8.0818      1.6740      0.1345     59.1485     32.8827     43.5072
  1570.2000      8.0818      1.7850      0.2085     52.4260     32.6141     43.2572
  1570.3000      8.0878      1.8767      0.3072     46.8662     32.6427     47.5563
  1570.4000      8.0878      1.9156      0.2865     44.5070     33.0987     55.6987
  1570.5000      8.0900      1.9077      0.2283     44.9884     33.6910     64.0550
  1570.6000      8.0900      1.8794      0.1941     46.7045     34.2867     69.6027
  1570.7000      8.0900      1.8472      0.1226     48.6530     35.0273     71.2241
  1570.8000      8.0892      1.8081      0.1186     51.0253     35.8132     67.8603
  1570.9000      8.0892      1.7499      0.0151     54.5520     36.2100     61.3334
  1571.0000      8.0990      1.6777     -0.0289     58.9271     36.0278     56.2408
  1571.1000      8.0990      1.6065     -0.0697     63.2414     35.5308     53.4569
  1571.2000      8.0990      1.5327     -0.0442     67.7138     34.9652     50.8992
  1571.3000      8.1270      1.4509     -0.0865     72.6740     34.7548     47.7092
  1571.4000      8.1270      1.3853     -0.0468     76.6485     35.1643     42.9633
  1571.5000      8.1549      1.3539      0.0971     78.5533     35.6134     36.0267
  1571.6000      8.1549      1.3390      0.0826     79.4547     35.5317     29.2904
  1571.7000      8.1549      1.3230      0.0768     80.4228     35.2013     26.7115
  1571.8000      8.2017      1.3081      0.0516     81.3264     35.2244     28.1235
  1571.9000      8.2017      1.3025      0.0438     81.6689     35.7496     30.4501
