~Version Information
VERS.                      2.0: CWLS Log ASCII Standard - VERSION 2.0
WRAP.                       NO: One line per depth step
~Well Information Block
STRT.FT               233.8000: 
STOP.FT              1692.5000: 
STEP.FT                 0.1000: 
NULL.                -999.2500: 
COMP.          Pioneer Natural Resources: COMPANY
WELL.            Relay 12-7 Tr: WELL
FLD.           Purgatoire River: FIELD
LOC.           2025' FNL & 790' FWL: LOCATION
PROV.                 Colorado: PROVINCE
CNTY.               Las Animas: COUNTRY
SRVC.                Patterson: SERVICE COMPANY
DATE.          Mon Jan 16 13:23:17 2006: LOG DATE
UWI.           05 071 08603 00: UNIQUE WELL ID
~Curve Information Block
DEPT.FT            0 000 00 00: Depth
DCAL.in                       : CDL Caliper
RHOB.g/cc                     : CDL Bulk Density
RHOC.g/cc                     : CDL Density Correction
DPOR.pu                       : CDL Density Porosity
GR.GAPI                       : Gamma Ray
~Parameter Information Block
~A  Depth       DCAL        RHOB        RHOC        DPOR         GR     
# ...
  1589.0000      7.8064      2.3944      0.0131     15.4890    123.0809
  1589.1000      7.8064      2.3169     -0.0265     20.1881    128.6146
  1589.2000      7.8064      2.2327     -0.0375     25.2882    133.2894
  1589.3000      7.8054      2.1532     -0.0452     30.1120    134.3345
  1589.4000      7.8054      2.0729     -0.0102     34.9752    135.2805
  1589.5000      7.8103      1.9733     -0.0777     41.0126    137.4457
  1589.6000      7.8103      1.8724     -0.1180     47.1269    137.1172
  1589.7000      7.8103      1.8175     -0.1224     50.4532    131.3699
  1589.8000      7.8574      1.8181      0.0063     50.4163    122.1456
  1589.9000      7.8574      1.8425      0.0854     48.9387    115.0021
  1590.0000      7.8936      1.8793      0.0661     46.7121    113.1105
  1590.1000      7.8936      1.9382      0.1564     43.1414    116.3696
  1590.2000      7.8936      2.0084      0.1992     38.8871    121.8454
  1590.3000      8.0270      2.0693      0.1962     35.1946    122.5444
  1590.4000      8.0270      2.1082      0.1864     32.8355    117.1108
  1590.5000      8.1944      2.1093      0.1234     32.7667    114.6373
  1590.6000      8.1944      2.0622      0.0376     35.6217    119.9776
  1590.7000      8.1944      1.9791     -0.0332     40.6623    126.4056
  1590.8000      8.2614      1.8917     -0.1202     45.9601    127.7923
  1590.9000      8.2614      1.8313     -0.0981     49.6208    122.6448
  1591.0000      7.9375      1.8013     -0.0620     51.4362    112.4887
  1591.1000      7.9375      1.7738      0.0132     53.1011    101.9425
  1591.2000      7.9375      1.7223      0.0420     56.2225     96.9494
  1591.3000      7.8677      1.6584      0.0363     60.0985     97.2953
  1591.4000      7.8677      1.6064      0.0475     63.2477     95.4363
  1591.5000      7.7995      1.5578      0.0852     66.1963     89.6795
  1591.6000      7.7995      1.4965      0.0183     69.9113     84.6213
  1591.7000      7.7995      1.4404     -0.0386     73.3075     80.1522
  1591.8000      7.8023      1.4128     -0.0210     74.9838     74.4115
  1591.9000      7.8023      1.4081      0.0047     75.2655     69.3841
  1592.0000      7.9179      1.4187     -0.0118     74.6264     68.4208
  1592.1000      7.9179      1.4526     -0.0097     72.5690     71.1087
  1592.2000      7.9179      1.5163      0.0204     68.7062     75.6635
  1592.3000      7.8799      1.6135      0.0440     62.8177     82.8263
  1592.4000      7.8799      1.7445      0.1036     54.8790     92.2169
  1592.5000      7.9839      1.8898      0.1667     46.0703    100.5261
  1592.6000      7.9839      2.0273      0.2224     37.7398    105.7853
  1592.7000      7.9839      2.1580      0.1871     29.8161    107.7746
  1592.8000      8.2158      2.2858      0.2117     22.0746    105.9013
  1592.9000      8.2158      2.3947      0.2052     15.4743    102.7345
  1593.0000      8.3786      2.4707      0.1852     10.8691    105.0087
  1593.1000      8.3786      2.5213      0.0543      7.8021    112.3784
  1593.2000      8.3786      2.5633      0.0795      5.2551    115.5113
  1593.3000      8.1016      2.5991      0.0813      3.0876    109.2339
  1593.4000      8.1016      2.6222      0.1070      1.6827    101.1316
  1593.5000      7.9219      2.6278      0.0949      1.3466    102.9108
  1593.6000      7.9219      2.6134      0.1198      2.2188    111.9960
  1593.7000      7.9219      2.5883      0.0448      3.7369    118.6946
  1593.8000      7.8400      2.5660      0.0260      5.0926    124.5152
  1593.9000      7.8400      2.5482      0.0005      6.1672    132.1517
  1594.0000      7.7801      2.5330      0.0214      7.0903    137.1319
  1594.1000      7.7801      2.5226      0.0043      7.7230    137.4389
  1594.2000      7.7801      2.5217      0.0410      7.7768    136.6220
  1594.3000      7.8170      2.5212      0.0936      7.8032    137.7367
  1594.4000      7.8170      2.5036      0.0990      8.8738    138.6268
  1594.5000      7.8127      2.4739      0.0006     10.6718    138.3093
  1594.6000      7.8127      2.4600     -0.0006     11.5163    141.5105
  1594.7000      7.8127      2.4763     -0.0021     10.5280    145.3229
  1594.8000      7.8122      2.5029      0.0827      8.9124    141.7021
  1594.9000      7.8122      2.5069      0.0959      8.6728    134.9652
  1595.0000      7.8451      2.4842      0.0570     10.0466    132.9019
  1595.1000      7.8451      2.4560      0.0510     11.7601    134.6931
  1595.2000      7.8451      2.4256      0.0841     13.6028    138.2040
  1595.3000      7.8552      2.3798      0.0840     16.3745    143.4797
  1595.4000      7.8552      2.3259     -0.0043     19.6407    148.0146
  1595.5000      7.9357      2.2900     -0.0367     21.8183    151.0889
  1595.6000      7.9357      2.2857     -0.0158     22.0769    153.8189
  1595.7000      7.9357      2.3126     -0.0006     20.4475    151.4979
  1595.8000      7.8853      2.3658      0.0504     17.2262    141.4170
  1595.9000      7.8853      2.4292      0.1028     13.3793    131.5450
  1596.0000      7.8624      2.4781      0.1858     10.4185    131.1780
  1596.1000      7.8624      2.5009      0.1382      9.0360    138.9599
  1596.2000      7.8624      2.5080      0.1598      8.6071    145.4359
  1596.3000      7.8875      2.5105      0.1284      8.4529    145.5658
  1596.4000      7.8875      2.5177      0.0804      8.0161    143.0366
  1596.5000      7.8835      2.5356      0.1014      6.9322    143.1748
  1596.6000      7.8835      2.5561      0.1043      5.6925    146.0035
  1596.7000      7.8835      2.5699      0.0716      4.8567    147.2329
  1596.8000      7.8272      2.5731      0.0713      4.6618    145.9480
  1596.9000      7.8272      2.5609      0.0948      5.4014    147.3995
  1597.0000      7.8537      2.5385      0.0455      6.7556    151.1307
  1597.1000      7.8537      2.5178      0.0283      8.0096    151.9859
  1597.2000      7.8537      2.5043      0.0311      8.8285    150.3121
  1597.3000      7.8630      2.5044      0.0078      8.8268    151.2161
  1597.4000      7.8630      2.5222      0.0181      7.7464    157.4791
  1597.5000      7.8460      2.5412      0.0987      6.5930    163.5885
  1597.6000      7.8460      2.5342      0.0937      7.0194    163.4073
  1597.7000      7.8460      2.4992      0.0635      9.1377    160.7167
  1597.8000      7.8455      2.4640      0.0150     11.2716    164.6397
  1597.9000      7.8455      2.4475      0.0584     12.2741    175.9026
  1598.0000      7.8583      2.4329      0.0850     13.1568    182.9022
  1598.1000      7.8583      2.4046      0.0181     14.8699    179.0643
  1598.2000      7.8583      2.3720      0.0507     16.8457    169.0674
  1598.3000      7.9264      2.3302      0.0580     19.3824    155.7782
  1598.4000      7.9264      2.2599      0.0554     23.6410    142.0956
  1598.5000      7.9600      2.1749     -0.0064     28.7933    132.9463
  1598.6000      7.9600      2.1193     -0.0371     32.1630    126.9046
  1598.7000      7.9600      2.1075     -0.0011     32.8814    121.8717
  1598.8000      7.9673      2.1183      0.0401     32.2242    120.1639
  1598.9000      7.9673      2.1492      0.0269     30.3488    120.5964
  1599.0000      7.9530      2.2175      0.0993     26.2137    117.5641
  1599.1000      7.9530      2.3203      0.1762     19.9843    109.9983
  1599.2000      7.9530      2.4326      0.2287     13.1770    103.5067
  1599.3000      7.8819      2.5212      0.2869      7.8091     99.9075
  1599.4000      7.8819      2.5644      0.2198      5.1899     95.7940
  1599.5000      7.8266      2.5757      0.1206      4.5036     90.8726
  1599.6000      7.8266      2.5860      0.1119      3.8804     88.9761
  1599.7000      7.8266      2.6102      0.0960      2.4132     89.0566
  1599.8000      7.8013      2.6420      0.0959      0.4877     85.7763
  1599.9000      7.8013      2.6622      0.1061     -0.7398     79.4360
  1600.0000      7.8075      2.6558      0.1035     -0.3533     77.4643
  1600.1000      7.8075      2.6259      0.0792      1.4626     84.9474
