~Version Information
VERS.                      2.0: CWLS Log ASCII Standard - VERSION 2.0
WRAP.                       NO: One line per depth step
~Well Information Block
STRT.FT               875.0000: 
STOP.FT              2947.2500: 
STEP.FT                 0.2500: 
NULL.                -999.2500: 
COMP.          Pioneer Natural Resources: COMPANY
WELL.          Hanginstone 21-27: WELL
FLD.           Purgatoire River: FIELD
LOC.           1186' FNL & 1606' FWL--: LOCATION
PROV.                 Colorado: PROVINCE
CNTY.               Las Animas: COUNTRY
SRVC.                Patterson: SERVICE COMPANY
DATE.          Sat Jan 07 09:06:14 2006: LOG DATE
UWI.           05 071 08632 00: UNIQUE WELL ID
~Curve Information Block
DEPT.FT            0 000 00 00: Depth
SN.Ohm-m                      : IEL Short Normal
SP.mV                         : IEL Spontaneous Potential
DIR.Ohm-m                     : IEL Induction Resistivity
GR.GAPI                       : Gamma Ray
~Parameter Information Block
~A  Depth        SN          SP         DIR          GR     
# ...
  1411.0000     39.7378   -154.0150     37.4315     89.8817
  1411.2500     38.9395   -154.0777     37.2665     91.3093
  1411.5000     37.6695   -153.9626     36.7252     91.6916
  1411.7500     36.0095   -153.6424     35.7791     90.5952
  1412.0000     34.1466   -153.1072     34.4856     88.3978
  1412.2500     32.3142   -152.3671     32.9571     88.2023
  1412.5000     30.6990   -151.4509     31.3292     91.7828
  1412.7500     29.3777   -150.4033     29.7318     96.5552
  1413.0000     28.3341   -149.2800     28.2627    105.1755
  1413.2500     27.5334   -148.1422     26.9734    110.5368
  1413.5000     26.9772   -147.0508     25.8763    116.6490
  1413.7500     26.6891   -146.0613     24.9666    119.2816
  1414.0000     26.6580   -145.2201     24.2440    121.1013
  1414.2500     26.8085   -144.5608     23.7230    120.7211
  1414.5000     27.0329   -144.1026     23.4288    117.4411
  1414.7500     27.2520   -143.8493     23.3877    113.7508
  1415.0000     27.4548   -143.7895     23.6168    107.5925
  1415.2500     27.6960   -143.8992     24.1152    104.2897
  1415.5000     28.0628   -144.1452     24.8587    101.8442
  1415.7500     28.6284   -144.4894     25.7968    101.6367
  1416.0000     29.4088   -144.8930     26.8572    101.4298
  1416.2500     30.3485   -145.3204     27.9562    100.1907
  1416.5000     31.3497   -145.7418     29.0111     96.5974
  1416.7500     32.3240   -146.1342     29.9498     94.0422
  1417.0000     33.2205   -146.4821     30.7172     91.5185
  1417.2500     34.0178   -146.7770     31.2895     90.8660
  1417.5000     34.7029   -147.0160     31.6902     91.0947
  1417.7500     35.2651   -147.2016     31.9909     92.0129
  1418.0000     35.7032   -147.3398     32.2828     94.6291
  1418.2500     36.0292   -147.4398     32.6335     97.0128
  1418.5000     36.2647   -147.5130     33.0590    100.5483
  1418.7500     36.4367   -147.5719     33.5309    101.9926
  1419.0000     36.5792   -147.6293     34.0136    101.6067
  1419.2500     36.7298   -147.6964     34.5052     99.8236
  1419.5000     36.9195   -147.7818     35.0457     96.6995
  1419.7500     37.1637   -147.8895     35.6840     95.3937
  1420.0000     37.4601   -148.0180     36.4285     94.9424
  1420.2500     37.7918   -148.1604     37.2209     95.1537
  1420.5000     38.1316   -148.3051     37.9577     95.6531
  1420.7500     38.4478   -148.4378     38.5477     96.2218
  1421.0000     38.7136   -148.5442     38.9625     97.5080
  1421.2500     38.9126   -148.6130     39.2337     98.1470
  1421.5000     39.0399   -148.6380     39.4076     97.4736
  1421.7500     39.0998   -148.6201     39.5095     95.5800
  1422.0000     39.1019   -148.5676     39.5463     91.0160
  1422.2500     39.0568   -148.4954     39.5274     87.4024
  1422.5000     38.9718   -148.4244     39.4642     82.0226
  1422.7500     38.8506   -148.3790     39.3485     78.7351
  1423.0000     38.6942   -148.3847     39.1405     74.4801
  1423.2500     38.5017   -148.4649     38.7957     72.4510
  1423.5000     38.2753   -148.6372     38.3092     71.8469
  1423.7500     38.0270   -148.9088     37.7354     73.6708
  1424.0000     37.7805   -149.2714     37.1602     79.4500
  1424.2500     37.5634   -149.6985     36.6541     84.3196
  1424.5000     37.3914   -150.1454     36.2468     90.8891
  1424.7500     37.2626   -150.5550     35.9380     93.6802
  1425.0000     37.1660   -150.8686     35.7239     94.3990
  1425.2500     37.0956   -151.0399     35.6090     92.4610
  1425.5000     37.0542   -151.0486     35.5977     86.7382
  1425.7500     37.0450   -150.9081     35.6826     81.9902
  1426.0000     37.0619   -150.6642     35.8437     75.2055
  1426.2500     37.0896   -150.3840     36.0537     71.5022
  1426.5000     37.1107   -150.1383     36.2807     67.1243
  1426.7500     37.1171   -149.9836     36.4903     64.6968
  1427.0000     37.1194   -149.9494     36.6573     61.9289
  1427.2500     37.1478   -150.0349     36.7832     61.2865
  1427.5000     37.2396   -150.2149     36.8987     63.1858
  1427.7500     37.4162   -150.4513     37.0392     66.3239
  1428.0000     37.6674   -150.7070     37.2077     72.3892
  1428.2500     37.9511   -150.9547     37.3631     76.2066
  1428.5000     38.2095   -151.1823     37.4475     80.4702
  1428.7500     38.3923   -151.3913     37.4320     82.4619
  1429.0000     38.4803   -151.5919     37.3415     85.1486
  1429.2500     38.4925   -151.7966     37.2394     87.0807
  1429.5000     38.4726   -152.0134     37.1899     89.6334
  1429.7500     38.4608   -152.2419     37.2231     90.4453
  1430.0000     38.4669   -152.4703     37.3112     90.0163
  1430.2500     38.4545   -152.6775     37.3631     89.2096
  1430.5000     38.3434   -152.8356     37.2448     88.5504
  1430.7500     38.0346   -152.9161     36.8307     88.8788
  1431.0000     37.4564   -152.8950     36.0597     90.6619
  1431.2500     36.6062   -152.7589     34.9600     92.8360
  1431.5000     35.5529   -152.5067     33.6295     98.0288
  1431.7500     34.3930   -152.1509     32.1884    102.9698
  1432.0000     33.1931   -151.7146     30.7375    112.3481
  1432.2500     31.9642   -151.2275     29.3375    119.2013
  1432.5000     30.6856   -150.7215     28.0164    128.2142
  1432.7500     29.3606   -150.2253     26.7905    132.1497
  1433.0000     28.0562   -149.7620     25.6810    134.5083
  1433.2500     26.8949   -149.3472     24.7134    134.6922
  1433.5000     26.0077   -148.9889     23.9081    135.2265
  1433.7500     25.4768   -148.6890     23.2737    136.4108
  1434.0000     25.2975   -148.4452     22.8119    138.6629
  1434.2500     25.3823   -148.2529     22.5227    139.5769
  1434.5000     25.6069   -148.1076     22.4038    139.4381
  1434.7500     25.8713   -148.0061     22.4431    138.7413
  1435.0000     26.1382   -147.9488     22.6135    137.7028
  1435.2500     26.4329   -147.9419     22.8781    137.1227
  1435.5000     26.8158   -148.0000     23.2079    136.0482
  1435.7500     27.3541   -148.1490     23.6018    135.1008
  1436.0000     28.1100   -148.4275     24.0952    133.6061
  1436.2500     29.1389   -148.8866     24.7495    132.6692
  1436.5000     30.4916   -149.5874     25.6275    130.8949
  1436.7500     32.2300   -150.5952     26.7660    128.8102
  1437.0000     34.4660   -151.9720     28.1542    122.8862
  1437.2500     37.4007   -153.7668     29.7272    116.3011
  1437.5000     41.3078   -156.0059     31.3844    101.8925
  1437.7500     46.4515   -158.6831     33.0378     89.6591
  1438.0000     53.0057   -161.7520     34.6746     69.4812
  1438.2500     61.0425   -165.1211     36.3945     56.6511
  1438.5000     70.5174   -168.6531     38.3928     41.2366
  1438.7500     81.1156   -172.1698     40.8941     34.2374
  1439.0000     91.9814   -175.4627     44.0508     27.8819
  1439.2500    101.6194   -178.3096     47.8051     25.3819
  1439.5000    108.2353   -180.4947     51.7196     22.9090
  1439.7500    110.3676   -181.8318     54.8790     21.9055
  1440.0000    107.4009   -182.1863     56.0944     21.7907
  1440.2500     99.7598   -181.4944     54.5300     23.0734
  1440.5000     88.8238   -179.7749     50.3217     27.7321
  1440.7500     76.5450   -177.1309     44.5124     32.9422
  1441.0000     64.7822   -173.7402     38.3628     44.0755
  1441.2500     54.6715   -169.8352     32.7579     53.4602
  1441.5000     46.4491   -165.6738     28.0751     69.0798
  1441.7500     39.7730   -161.5095     24.3397     79.2449
  1442.0000     34.2005   -157.5627     21.4162     92.1846
  1442.2500     29.4686   -154.0012     19.1334     98.8312
  1442.5000     25.4912   -150.9308     17.3433    106.2170
  1442.7500     22.2383   -148.3956     15.9376    109.8755
  1443.0000     19.6692   -146.3863     14.8441    114.1023
  1443.2500     17.7444   -144.8536     14.0160    116.4530
  1443.5000     16.4441   -143.7230     13.4194    120.2133
  1443.7500     15.7379   -142.9087     13.0249    123.4605
  1444.0000     15.5232   -142.3259     12.8007    129.7639
  1444.2500     15.5970   -141.8999     12.7092    134.4527
