~Version Information
VERS.                      2.0: CWLS Log ASCII Standard - VERSION 2.0
WRAP.                       NO: One line per depth step
~Well Information Block
STRT.FT                -7.5000: 
STOP.FT              1310.7500: 
STEP.FT                 0.2500: 
NULL.                -999.2500: 
COMP.          Pioneer Natural Resources: COMPANY
WELL.          Challenger 31-29: WELL
FLD.           Purgatorie River: FIELD
LOC.           51' FNL & 1923' FEL------: LOCATION
STAT.                       CO: State
CNTY.               Las Animas: COUNTY
CTRY. USA : Country
SECT. 29 : Section
TOWN. 33S : Township
RANG. 65W : Range
SRVC.          Patterson Wireline: SERVICE COMPANY
DATE.          Wed Sep 21 12:11:38 2005: LOG DATE
API.           05 071 08514 00: UNIQUE WELL ID
~Curve Information Block
DEPT.FT            0 000 00 00: Depth
CCL.                          : Casing Collar Locator
TT3.usec                      : CBL 3' Travel Time
AMP3.mV                       : CBL 3' Amplitude
GR.GAPI                       : Gamma Ray
~Parameter Information Block
~A  Depth       CCL         TT3         AMP3         GR     
# ...
   830.0000      0.0000    462.9468     17.1878    103.9436
   830.2500      0.0000    509.7637     17.1113    103.2530
   830.5000      0.0000    552.3931     17.0591    104.0259
   830.7500      0.0000    576.6669     17.0336    106.8037
   831.0000      0.0000    586.8323     17.0216    111.6700
   831.2500      0.0000    597.8768     17.0044    117.5096
   831.5000      0.0000    617.0798     16.9696    122.4273
   831.7500      0.0000    639.2596     16.9132    125.2625
   832.0000      0.0000    656.1223     16.8343    126.3525
   832.2500      0.0000    661.1311     16.7325    126.4878
   832.5000      0.0000    649.5382     16.6144    125.8506
   832.7500      0.0000    625.0704     16.4920    124.4541
   833.0000      0.0000    605.2376     16.3655    122.7067
   833.2500      0.0000    609.9550     16.2075    120.8687
   833.5000      0.0000    642.9803     15.9767    118.5035
   833.7500      0.0000    689.1693     15.6562    114.9486
   834.0000      0.0000    729.6078     15.2814    110.0418
   834.2500      0.0000    755.7445     14.9270    104.1041
   834.5000      0.0000    770.1959     14.6626     97.3827
   834.7500      0.0000    779.1111     14.5135     89.7736
   835.0000      0.0000    786.1241     14.4532     81.1604
   835.2500      0.0000    791.7689     14.4221     72.0320
   835.5000      0.0000    795.2955     14.3545     63.5950
   835.7500      0.0000    795.7249     14.2077     57.0358
   836.0000      0.0000    792.4521     13.9839     52.6705
   836.2500      0.0000    786.0270     13.7366     49.9705
   836.5000      0.0000    777.1891     13.5635     48.4086
   836.7500      0.0000    763.5192     13.5755     48.0546
   837.0000      0.0000    738.6164     13.8359     49.2540
   837.2500      0.0000    698.9293     14.3027     51.8601
   837.5000      0.0000    653.6848     14.8349     54.8769
   837.7500      0.0000    624.7017     15.2694     56.9507
   838.0000      0.0000    630.5649     15.5051     57.3745
   838.2500      0.0000    669.7026     15.5365     56.5794
   838.5000      0.0000    721.7142     15.4289     55.4395
   838.7500      0.0000    764.8044     15.2697     54.1860
   839.0000      0.0000    789.5326     15.1334     52.3150
   839.2500      0.0000    798.5034     15.0672     49.4926
   839.5000      0.0000    798.7284     15.0849     46.1867
   839.7500      0.0000    795.7370     15.1672     43.3688
   840.0000      0.0000    791.8951     15.2805     41.6849
   840.2500      0.0000    787.4255     15.4121     41.0042
   840.5000      0.0000    782.0600     15.5876     41.0125
   840.7500      0.0000    775.8217     15.8492     42.1664
   841.0000      0.0000    768.5315     16.2114     45.5302
   841.2500      0.0000    758.6266     16.6390     51.6390
   841.5000      0.0000    741.5746     17.0738     59.9502
   841.7500      0.0000    709.2197     17.4788     69.1887
   842.0000      0.0000    653.4392     17.8490     77.6370
   842.2500      0.0000    574.5667     18.1814     83.3722
   842.5000      0.0000    486.7010     18.4513     85.0409
   842.7500      0.0000    411.0322     18.6285     82.6491
   843.0000      0.0000    361.5173     18.7090     77.5614
   843.2500      0.0000    337.6944     18.7256     71.7823
   843.5000      0.0000    331.1243     18.7247     66.9687
   843.7500      0.0000    337.2963     18.7311     63.6878
   844.0000      0.0000    361.1810     18.7301     61.5175
   844.2500      0.0000    411.5963     18.6817     59.8643
   844.5000      0.0000    489.1948     18.5542     58.6023
   844.7500      0.0000    579.6373     18.3481     57.9428
   845.0000      0.0000    660.2569     18.0886     57.7673
   845.2500      0.0000    714.6260     17.8004     57.3152
   845.5000      0.0000    740.6800     17.4973     55.7646
   845.7500      0.0000    746.8819     17.1935     52.9300
   846.0000      0.0000    743.6860     16.9122     49.0658
   846.2500      0.0000    738.2913     16.6729     44.3271
   846.5000      0.0000    733.7817     16.4791     38.9104
   846.7500      0.0000    730.3953     16.3206     33.5234
   847.0000      0.0000    727.4166     16.1855     29.3020
   847.2500      0.0000    724.6104     16.0666     27.1841
   847.5000      0.0000    722.3431     15.9676     27.3013
   847.7500      0.0000    720.9802     15.9016     28.8047
   848.0000      0.0000    720.6104     15.8759     30.3726
   848.2500      0.0000    721.3295     15.8749     31.1226
   848.5000      0.0000    723.4885     15.8643     31.0940
   848.7500      0.0000    727.4421     15.8134     30.8914
   849.0000      0.0000    732.8957     15.7118     30.9808
   849.2500      0.0000    738.4729     15.5716     31.3512
   849.5000      0.0000    742.1938     15.4106     31.7225
   849.7500      0.0000    742.7370     15.2275     31.9470
   850.0000      0.0000    740.4127     14.9856     32.1424
   850.2500      0.0000    736.7944     14.6210     32.4364
   850.5000      0.0000    733.0547     14.0762     32.7010
   850.7500      0.0000    729.0557     13.3529     32.7829
   851.0000      0.0000    725.2719     12.5501     33.0250
   851.2500      0.0000    725.4827     11.8256     34.2679
   851.5000      0.0000    735.0021     11.2787     37.2390
   851.7500      0.0000    754.6724     10.8886     42.0600
   852.0000      0.0000    778.3156     10.5971     48.2545
   852.2500      0.0000    797.6286     10.4042     54.9896
   852.5000      0.0000    808.4468     10.3350     61.4588
   852.7500     -2.0000    811.5186     10.3603     67.3263
   853.0000      0.0000    808.6619     10.4113     72.8169
   853.2500      0.0000    799.3119     10.4778     78.2914
   853.5000      0.0000    779.9984     10.7002     83.6541
   853.7500      0.0000    747.5218     11.3474     88.1103
   854.0000      0.0000    705.5323     12.6068     90.6571
   854.2500      0.0000    668.3398     14.3120     90.8706
   854.5000      0.0000    652.9299     15.9448     89.0950
   854.7500      0.0000    663.8104     17.0197     86.1053
   855.0000      0.0000    688.8958     17.4366     82.8814
   855.2500      0.0000    711.8698     17.4193     80.3156
   855.5000      0.0000    724.8656     17.2162     78.6131
   855.7500      0.0000    729.0460     16.9456     77.1132
   856.0000      0.0000    728.5604     16.6412     75.1270
   856.2500      0.0000    726.7877     16.3331     72.8624
   856.5000      0.0000    725.7366     16.0706     71.3139
   856.7500      0.0000    725.8542     15.9017     71.4591
   857.0000      0.0000    725.5941     15.8513     73.7885
   857.2500      0.0000    721.5511     15.9166     78.2734
   857.5000      0.0000    710.2332     16.0687     84.3937
   857.7500      0.0000    691.8565     16.2480     91.2997
   858.0000      0.0000    673.3569     16.3753     98.2821
   858.2500      0.0000    665.4039     16.3894    105.1364
   858.5000      0.0000    673.4786     16.2801    111.9565
   858.7500      0.0000    692.6497     16.0831    118.4679
   859.0000      0.0000    712.7791     15.8442    123.5292
   859.2500      0.0000    727.0971     15.5995    125.3508
   859.5000      0.0000    734.5760     15.3870    122.5533
   859.7500      0.0000    737.3101     15.2555    115.3914
   860.0000      0.0000    738.4117     15.2412    105.9822
   860.2500      0.0000    740.9706     15.3331     97.1584
   860.5000      0.0000    746.6053     15.4675     91.0140
   860.7500      0.0000    754.5596     15.5631     88.3454
   861.0000      0.0000    762.4552     15.5736     88.8552
   861.2500      0.0000    767.6407     15.5157     91.4827
   861.5000      0.0000    768.3428     15.4385     94.8709
   861.7500      0.0000    764.5999     15.3701     97.9346
   862.0000      0.0000    758.3854     15.3020    100.1320
   862.2500      0.0000    752.3732     15.2235    101.5265
   862.5000      0.0000    748.1998     15.1507    102.9717
   862.7500      0.0000    745.5903     15.1139    105.8491
   863.0000      0.0000    742.9982     15.1211    110.8167
   863.2500      0.0000    739.3394     15.1479    116.7563
