~Version Information
VERS.                      2.0: CWLS Log ASCII Standard - VERSION 2.0
WRAP.                       NO: One line per depth step
~Well Information Block
STRT.FT               491.0000: 
STOP.FT              1909.5000: 
STEP.FT                 0.1000: 
NULL.                -999.2500: 
COMP.          Pioneer Natural Resources: COMPANY
WELL.            Corazon 13-10: WELL
FLD.           Purgatoire River: FIELD
LOC.           2510' FSL & 439' FWL: LOCATION
PROV.                 Colorado: PROVINCE
CNTY.               Las Animas: COUNTRY
SRVC.                Patterson: SERVICE COMPANY
DATE.          Thu Dec 01 07:28:46 2005: LOG DATE
UWI.           05 071 08613 00: UNIQUE WELL ID
~Curve Information Block
DEPT.FT            0 000 00 00: Depth
DCAL.in                       : CDL Caliper
RHOB.g/cc                     : CDL Bulk Density
RHOC.g/cc                     : CDL Density Correction
DPOR.pu                       : CDL Density Porosity
GR.GAPI                       : Gamma Ray
NPOR.pu                       : Neutron Porosity
~Parameter Information Block
~A  Depth       DCAL        RHOB        RHOC        DPOR         GR         NPOR    
# ...
   587.0000      8.4476      2.4065      0.0057     14.7582    136.1843     24.9561
   587.1000      8.4476      2.3767     -0.0141     16.5648    136.8497     24.3765
   587.2000      8.4476      2.3607     -0.0416     17.5361    139.3057     24.0464
   587.3000      8.4399      2.3668     -0.0130     17.1660    145.8383     24.0952
   587.4000      8.4399      2.3834     -0.0181     16.1596    151.9294     23.8521
   587.5000      8.4384      2.3997      0.0453     15.1675    149.0682     23.4023
   587.6000      8.4384      2.4132      0.0620     14.3537    140.3468     23.4587
   587.7000      8.4384      2.4239      0.0934     13.7003    136.2197     23.8972
   587.8000      8.4594      2.4355      0.0528     13.0006    138.0461     24.5633
   587.9000      8.4594      2.4499      0.0833     12.1261    140.8847     25.5100
   588.0000      8.4326      2.4639      0.0860     11.2782    143.5000     26.2590
   588.1000      8.4326      2.4720      0.0957     10.7868    145.8532     26.3461
   588.2000      8.4326      2.4693      0.0945     10.9543    146.6626     25.8086
   588.3000      8.4220      2.4575      0.0879     11.6696    147.8056     25.1122
   588.4000      8.4220      2.4448      0.0723     12.4372    149.3522     24.7509
   588.5000      8.4601      2.4373      0.0389     12.8915    148.2888     24.7465
   588.6000      8.4601      2.4356     -0.0063     12.9933    143.9298     24.9897
   588.7000      8.4601      2.4371      0.0505     12.9045    136.9342     25.4129
   588.8000      8.4826      2.4333      0.0253     13.1336    131.2904     25.7475
   588.9000      8.4826      2.4161      0.0338     14.1760    130.4984     25.6029
   589.0000      8.4241      2.3878     -0.0546     15.8893    132.1043     25.3394
   589.1000      8.4241      2.3649     -0.0078     17.2766    133.1844     25.5882
   589.2000      8.4241      2.3610     -0.0000     17.5167    133.9855     25.7240
   589.3000      8.4275      2.3705      0.0180     16.9391    135.8933     24.9646
   589.4000      8.4275      2.3772      0.0453     16.5308    139.9736     24.0650
   589.5000      8.4015      2.3734      0.0772     16.7623    142.5101     23.7714
   589.6000      8.4015      2.3655      0.0462     17.2418    137.4739     23.6487
   589.7000      8.4015      2.3588      0.0936     17.6499    128.9559     23.3293
   589.8000      8.4186      2.3510      0.0517     18.1234    123.4613     23.0224
   589.9000      8.4186      2.3479      0.0548     18.3064    122.5625     22.9736
   590.0000      8.4440      2.3563      0.0730     17.8014    127.7972     23.2996
   590.1000      8.4440      2.3730      0.0953     16.7880    136.5350     23.8569
   590.2000      8.4440      2.3952      0.0448     15.4454    141.9236     24.3032
   590.3000      8.4169      2.4264      0.0596     13.5518    141.0117     24.4002
   590.4000      8.4169      2.4670      0.0958     11.0898    137.6165     24.4970
   590.5000      8.4173      2.5050      0.1290      8.7908    136.7939     25.0547
   590.6000      8.4173      2.5312      0.1123      7.1978    139.4204     25.8231
   590.7000      8.4173      2.5522      0.1071      5.9271    142.9362     26.6014
   590.8000      8.3922      2.5670      0.1902      5.0279    143.2128     27.5410
   590.9000      8.3922      2.5717      0.1344      4.7454    138.4414     28.6327
   591.0000      8.3917      2.5871      0.0746      3.8112    131.7560     29.8465
   591.1000      8.3917      2.6340      0.1191      0.9724    127.2396     31.2158
   591.2000      8.3917      2.6967      0.1250     -2.8325    126.0834     32.7136
   591.3000      8.4050      2.7375      0.1013     -5.3045    128.5382     33.9162
   591.4000      8.4050      2.7278      0.0831     -4.7130    131.4711     34.3473
   591.5000      8.3905      2.6680      0.0692     -1.0915    128.1064     33.8814
   591.6000      8.3905      2.5831      0.0017      4.0544    117.7626     32.5843
   591.7000      8.3905      2.5028     -0.0400      8.9203    105.3999     30.9001
   591.8000      8.3979      2.4471     -0.1271     12.2942     96.5679     29.4987
   591.9000      8.3979      2.4142     -0.1203     14.2925     94.4544     28.5381
   592.0000      8.3594      2.3895     -0.2601     15.7884     97.3546     27.7870
   592.1000      8.3594      2.3752     -0.2321     16.6571    102.0643     27.3847
   592.2000      8.3594      2.3868     -0.2035     15.9540    107.5159     27.2252
   592.3000      8.2762      2.4280     -0.0639     13.4538    112.1032     26.4226
   592.4000      8.2762      2.4711      0.0863     10.8425    115.6690     24.8686
   592.5000      8.2645      2.4862      0.1195      9.9269    120.8094     23.5527
   592.6000      8.2645      2.4815      0.0876     10.2132    125.5514     22.9317
   592.7000      8.2645      2.4775      0.0867     10.4516    128.1859     22.7961
   592.8000      8.2678      2.4798      0.0714     10.3125    131.8294     22.9998
   592.9000      8.2678      2.4852      0.0885      9.9854    133.7927     23.1490
   593.0000      8.2755      2.4817      0.0974     10.1986    132.3835     22.8884
   593.1000      8.2755      2.4617      0.0973     11.4098    132.4743     22.6048
   593.2000      8.2755      2.4426      0.0462     12.5686    134.3754     22.6200
   593.3000      8.2900      2.4450      0.0952     12.4215    134.3709     22.6668
   593.4000      8.2900      2.4565      0.1030     11.7248    133.3927     22.6969
   593.5000      8.3038      2.4543      0.1193     11.8609    134.1457     22.8741
   593.6000      8.3038      2.4378      0.0548     12.8616    137.1712     23.1878
   593.7000      8.3038      2.4175      0.0600     14.0910    142.3313     23.6791
   593.8000      8.3519      2.3930      0.0607     15.5737    146.3965     24.1501
   593.9000      8.3519      2.3666      0.0034     17.1748    145.7008     24.3720
   594.0000      8.3790      2.3570     -0.0009     17.7585    140.8246     24.4746
   594.1000      8.3790      2.3634      0.1063     17.3685    134.6000     24.5403
   594.2000      8.3790      2.3583      0.1057     17.6774    130.2162     24.6142
   594.3000      8.3841      2.3433     -0.0084     18.5889    130.4202     24.8174
   594.4000      8.3841      2.3502      0.0189     18.1703    133.1546     25.1868
   594.5000      8.4031      2.3812      0.0779     16.2936    134.0041     25.5640
   594.6000      8.4031      2.4059      0.0970     14.7926    133.3121     25.6986
   594.7000      8.4031      2.4089      0.1013     14.6094    133.9377     25.4237
   594.8000      8.3778      2.3997      0.1138     15.1716    134.8890     24.5722
   594.9000      8.3778      2.3918      0.0842     15.6508    135.0511     23.3871
   595.0000      8.3810      2.3949      0.0971     15.4577    135.3352     22.6283
   595.1000      8.3810      2.4074      0.1017     14.7017    136.9381     22.6626
   595.2000      8.3810      2.4138      0.1396     14.3134    138.5234     23.1338
   595.3000      8.3426      2.4069      0.1129     14.7305    137.5789     23.2632
   595.4000      8.3426      2.3957      0.0810     15.4099    134.3078     22.8982
   595.5000      8.3297      2.3799      0.1201     16.3708    132.3962     22.6962
   595.6000      8.3297      2.3517      0.0751     18.0775    132.6346     22.6086
   595.7000      8.3297      2.3277     -0.0085     19.5332    130.7238     22.1180
   595.8000      8.3447      2.3315      0.0333     19.3042    127.7088     21.5648
   595.9000      8.3447      2.3520      0.1256     18.0636    130.2175     21.6703
   596.0000      8.3785      2.3603      0.1218     17.5571    138.2297     22.2307
   596.1000      8.3785      2.3540      0.0829     17.9404    143.4591     22.5257
   596.2000      8.3785      2.3529      0.0135     18.0051    139.9463     22.6936
   596.3000      8.3888      2.3669      0.0182     17.1570    130.6325     23.0990
   596.4000      8.3888      2.3861      0.0508     15.9939    123.1574     23.4603
   596.5000      8.4094      2.3927      0.0574     15.5957    123.9323     23.8427
