~Version Information
VERS.                      2.0: CWLS Log ASCII Standard - VERSION 2.0
WRAP.                       NO: One line per depth step
~Well Information Block
STRT.FT                -6.7500: 
STOP.FT              2034.2500: 
STEP.FT                 0.2500: 
NULL.                -999.2500: 
COMP.          Evergreen Operating Corp.: COMPANY
WELL.           Big Pine 32-15: WELL
FLD.           Purgatorie River: FIELD
LOC.           2590 FNL & 1442 FEL--: LOCATION
STAT.                       CO: State
CNTY.               Las Animas: COUNTY
CTRY. USA : Country
SECT. 15 : Section
TOWN. 33S : township
RANG. 67W : Range
SRVC.          Patterson Wireline, Inc.: SERVICE COMPANY
DATE.          Mon Mar 24 12:45:01 2003: LOG DATE
API.           05 071 07772 00: UNIQUE WELL ID
~Curve Information Block
DEPT.FT            0 000 00 00: Depth
HVOLTA.V                      : Head Voltage Apparent
CCL.                          : Casing Collar Locator
TT3.usec                      : CBL 3' Travel Time
AMP3.mV                       : CBL 3' Amplitude
GR.GAPI                       : Gamma Ray
~Parameter Information Block
~A  Depth      HVOLTA       CCL         TT3         AMP3         GR     
# ...
  1869.2500    121.5816     -5.0000    684.9965      9.5292     51.4704
  1869.5000    121.5493      0.0000    707.8952      8.9497     54.2015
  1869.7500    121.8198      0.0000    712.1042      8.5503     59.9021
  1870.0000    121.3467      0.0000    706.6402      8.3586     68.4838
  1870.2500    121.5466      0.0000    693.6845      8.6312     78.9934
  1870.5000    121.5177      0.0000    679.0936      9.1826     90.2760
  1870.7500    121.4079      0.0000    685.5150      9.4609    101.6815
  1871.0000    121.5754      0.0000    722.4711      9.3944    112.9608
  1871.2500    121.4079      0.0000    764.3053      9.4355    123.4407
  1871.5000    121.6029      0.0000    789.0677      9.8641    131.8204
  1871.7500    121.5211      0.0000    799.1273     10.5366    137.3398
  1872.0000    121.5493      0.0000    801.0347     11.0582    140.7820
  1872.2500    121.4388      0.0000    799.1424     11.0500    143.6761
  1872.5000    121.5768      0.0000    797.7608     10.5162    146.6989
  1872.7500    121.5239      0.0000    795.9965      9.8830    149.4948
  1873.0000    121.5218      0.0000    787.8157      9.6441    151.7918
  1873.2500    121.4388      0.0000    771.2188     10.0342    153.8197
  1873.5000    121.4944      0.0000    751.5273     10.8549    155.4491
  1873.7500    121.5253      0.0000    733.2938     11.6709    155.6150
  1874.0000    121.6873      0.0000    716.0535     12.2613    153.0887
  1874.2500    121.4415      0.0000    693.9108     12.7498    147.7843
  1874.5000    121.5198      0.0000    651.9727     13.3966    141.1294
  1874.7500    121.5479      0.0000    576.6968     14.2682    135.1192
  1875.0000    121.4930      0.0000    480.8042     15.1319    130.9458
  1875.2500    121.4964      0.0000    399.6698     15.8134    128.3385
  1875.5000    121.6029      0.0000    354.2935     16.4683    125.8972
  1875.7500    121.5795      0.0000    337.3417     17.3049    122.0621
  1876.0000    121.6372      0.0000    332.8398     18.2607    116.0831
  1876.2500    121.5555      0.0000    330.9480     19.1450    108.3574
  1876.5000    121.6585      0.0000    327.4208     19.9207     99.9697
  1876.7500    121.5775      0.0000    320.9148     20.7429     92.0608
  1877.0000    121.6310      0.0000    312.9721     21.7323     85.5736
  1877.2500    121.5246      0.0000    306.6723     22.7143     81.2585
  1877.5000    121.6283      0.0000    303.4156     23.4725     79.5505
  1877.7500    121.6599      0.0000    302.2497     24.2032     80.3446
  1878.0000    121.6070      0.0000    301.8899     25.1992     83.0344
  1878.2500    121.5273      0.0000    302.2280     26.2239     86.8135
  1878.5000    121.5514      0.0000    304.1056     26.7099     90.8083
  1878.7500    121.6035      0.0000    307.5147     26.4412     94.1575
  1879.0000    121.5246      0.0000    310.6609     25.6697     96.3784
  1879.2500    121.4992      0.0000    312.8700     24.7687     97.5709
  1879.5000    121.5479      0.0000    316.3668     23.9989     97.9655
  1879.7500    121.4937      0.0000    322.1085     23.3958     97.5059
  1880.0000    121.5768      0.0000    327.6444     22.7197     96.1884
  1880.2500    121.5225      0.0000    330.9012     21.6071     94.5727
  1880.5000    121.5472      0.0000    332.4727     19.9286     93.5255
  1880.7500    121.4367      0.0000    334.7591     17.9833     93.4375
  1881.0000    121.5486      0.0000    342.2188     16.1344     93.9144
  1881.2500    121.5452      0.0000    363.2638     14.3625     94.1893
  1881.5000    121.5239      0.0000    410.3941     12.4915     93.5278
  1881.7500    121.4648      0.0000    490.4635     10.6234     91.2885
  1882.0000    121.4697      0.0000    586.5118      8.9776     87.2250
  1882.2500    121.4930      0.0000    661.9951      7.6056     82.0717
  1882.5000    121.5239      0.0000    696.5323      6.5056     77.4841
  1882.7500    121.4676      0.0000    703.4589      5.7601     75.0630
  1883.0000    121.5747      0.0000    705.0750      5.3635     75.4519
  1883.2500    121.3591      0.0000    707.1821      5.0550     78.3079
  1883.5000    121.4140      0.0000    704.1157      4.6139     82.8575
  1883.7500    121.5177      0.0000    690.4702      4.1520     88.4330
  1884.0000    121.6035      0.0000    659.1900      3.8210     94.6732
  1884.2500    121.5198      0.0000    609.0878      3.5892    101.1640
  1884.5000    121.5514      0.0000    564.3155      3.4430    106.8158
  1884.7500    121.5184      0.0000    556.8295      3.3876    109.9724
  1885.0000    121.6029      0.0000    579.6068      3.3521    109.5354
  1885.2500    121.4992      0.0000    599.3177      3.3816    105.9891
  1885.5000    121.6303      0.0000    613.4553      3.6150    101.2022
  1885.7500    121.4916      0.0000    641.8328      3.9672     97.1369
  1886.0000    121.4662      0.0000    680.1119      4.1753     94.6166
  1886.2500    121.6296      0.0000    709.5153      4.1316     93.0832
  1886.5000    121.6873      0.0000    725.5043      3.9105     91.3026
  1886.7500    121.5775      0.0000    732.7723      3.5910     88.3086
  1887.0000    121.5795      0.0000    733.8298      3.2430     83.8065
  1887.2500    121.6029      0.0000    728.7936      2.9282     77.8996
  1887.5000    121.5761      0.0000    717.9886      2.6891     70.8214
  1887.7500    121.4683      0.0000    704.4292      2.5535     63.2774
  1888.0000    121.4703      0.0000    692.8115      2.4345     56.7209
  1888.2500    121.5507      0.0000    684.9095      2.2323     52.5685
  1888.5000    121.5452      0.0000    678.6652      2.0325     50.8948
  1888.7500    121.3824      0.0000    671.9132      2.0130     50.2486
  1889.0000    121.5994      0.0000    664.9883      2.2470     49.0721
  1889.2500    121.3879      0.0000    659.6327      2.5902     47.2642
  1889.5000    121.5761      0.0000    656.5231      2.8182     46.1337
  1889.7500    121.5266      0.0000    654.9058      2.9253     46.8649
  1890.0000    121.6070      0.0000    654.0141      3.0172     49.2885
  1890.2500    121.6612      0.0000    653.7850      3.0561     52.1088
  1890.5000    121.6029      0.0000    654.6590      2.9985     54.0024
  1890.7500    121.4978      0.0000    657.1422      2.8429     54.4852
  1891.0000    121.5218      0.0000    660.8173      2.5573     54.0119
  1891.2500    121.6056      0.0000    664.0343      2.3010     53.4537
  1891.5000    121.5520      0.0000    666.0864      2.3259     53.4209
  1891.7500    121.6063      0.0000    667.7767      2.5191     53.8721
  1892.0000    121.7134      0.0000    667.9174      2.5690     54.2511
  1892.2500    121.4147      0.0000    664.3978      2.4802     54.1993
  1892.5000    121.6811      0.0000    660.9590      2.4644     54.1916
  1892.7500    121.5479      0.0000    665.4893      2.5816     55.1247
  1893.0000    121.4902      0.0000    678.3897      2.7228     57.1592
  1893.2500    121.5740      0.0000    690.0457      2.7492     59.4220
  1893.5000    121.7100      0.0000    693.1836      2.6391     61.0172
  1893.7500    121.5459      0.0000    690.3785      2.4588     61.8351
  1894.0000    121.5733      0.0000    687.2252      2.2792     62.1951
  1894.2500    121.4683      0.0000    685.7824      2.1943     62.1937
  1894.5000    121.5981      0.0000    685.9067      2.1896     61.6502
  1894.7500    121.4436      0.0000    688.0168      2.1791     60.4433
  1895.0000    121.4669      0.0000    693.5504      2.2285     58.8669
  1895.2500    121.6866      0.0000    702.7180      2.4191     57.7611
  1895.5000    121.5500      0.0000    711.4033      2.6772     57.9976
  1895.7500    121.5260      0.0000    714.3479      2.9017     59.6084
  1896.0000    121.5507      0.0000    713.3103      3.0302     61.7293
  1896.2500    121.6070      0.0000    715.5520      3.0618     63.5870
  1896.5000    121.6008      0.0000    722.9836      3.1156     65.1584
  1896.7500    121.5541      0.0000    729.8696      3.3149     66.7547
  1897.0000    121.6015      0.0000    730.3743      3.6507     68.5146
