~Version Information
VERS.                      2.0: CWLS Log ASCII Standard - VERSION 2.0
WRAP.                       NO: One line per depth step
~Well Information Block
STRT.FT               830.0000: 
STOP.FT              1782.5000: 
STEP.FT                 0.1000: 
NULL.                -999.2500: 
COMP.          Pioneer Natural Resources: COMPANY
WELL.          Manville 42-14 Tr: WELL
FLD.           Purgatoire River: FIELD
LOC.           2018 FNL & 562' FEL: LOCATION
STAT.                 Colorado: State
CNTY.               Las Animas: COUNTY
CTRY. USA : Country
SECT. 14 : Section
TOWN. 32S : Township
RANG. 66W : Range
SRVC.                Patterson: SERVICE COMPANY
DATE.          Mon Sep 19 09:44:06 2005: LOG DATE
API.           05 071 08522 00: UNIQUE WELL ID
~Curve Information Block
DEPT.FT            0 000 00 00: Depth
DCAL.in                       : CDL Caliper
RHOB.g/cc                     : CDL Bulk Density
RHOC.g/cc                     : CDL Density Correction
DPOR.pu                       : CDL Density Porosity
GR.GAPI                       : Gamma Ray
NPOR.pu                       : Neutron Porosity
~Parameter Information Block
~A  Depth       DCAL        RHOB        RHOC        DPOR         GR         NPOR    
# ...
   954.8000      8.3688      2.2891      0.1314     21.8698    133.9364     24.0029
   954.9000      8.3688      2.2612      0.1108     23.5626    136.4888     24.4497
   955.0000      8.3791      2.2531      0.0843     24.0532    141.5219     24.8463
   955.1000      8.3791      2.2562      0.0719     23.8644    144.4768     25.0076
   955.2000      8.3791      2.2550      0.0546     23.9401    143.3203     24.7723
   955.3000      8.2942      2.2438      0.0265     24.6159    144.6267     24.1170
   955.4000      8.2942      2.2279      0.0579     25.5797    149.5406     23.3310
   955.5000      8.2217      2.2193      0.0384     26.1010    151.0552     22.9355
   955.6000      8.2217      2.2210      0.0734     26.0010    145.7950     22.8079
   955.7000      8.2217      2.2059      0.1421     26.9143    137.7413     22.2963
   955.8000      8.1621      2.1475      0.0981     30.4538    132.2914     21.1278
   955.9000      8.1621      2.0578      0.1053     35.8910    131.9849     19.7350
   956.0000      8.1776      1.9657      0.0562     41.4740    132.5429     18.7109
   956.1000      8.1776      1.8908      0.0296     46.0132    130.9034     18.4519
   956.2000      8.1776      1.8381      0.0032     49.2079    129.1811     18.9948
   956.3000      8.2537      1.7920      0.0225     52.0012    124.0902     19.5484
   956.4000      8.2537      1.7306     -0.0192     55.7217    116.0521     19.3118
   956.5000      8.2595      1.6600      0.0101     59.9992    110.9832     18.7301
   956.6000      8.2595      1.6134      0.0012     62.8263    109.9428     18.4612
   956.7000      8.2595      1.5997      0.1190     63.6539    110.4543     18.1922
   956.8000      8.2772      1.5857      0.1489     64.5008    110.3611     17.4872
   956.9000      8.2772      1.5488      0.0679     66.7393    108.7002     16.7118
   957.0000      8.3647      1.4993      0.0680     69.7392    107.4859     16.3795
   957.1000      8.3647      1.4576      0.0537     72.2671    107.4663     16.4571
   957.2000      8.3647      1.4416      0.1895     73.2383    106.4001     16.7786
   957.3000      8.3105      1.4589      0.2302     72.1878    104.7855     17.2493
   957.4000      8.3105      1.5092      0.2788     69.1409    102.9891     17.7588
   957.5000      8.2215      1.5883      0.3499     64.3483     99.8944     18.3932
   957.6000      8.2215      1.6841      0.4133     58.5393     96.8424     19.2940
   957.7000      8.2215      1.7830      0.4236     52.5483     96.9343     20.4408
   957.8000      8.2202      1.8823      0.4032     46.5268     97.3644     21.7711
   957.9000      8.2202      1.9799      0.3853     40.6124     94.6027     23.1886
   958.0000      8.2737      2.0681      0.3756     35.2689     93.5982     24.6474
   958.1000      8.2737      2.1602      0.3101     29.6862     98.2523     26.0783
   958.2000      8.2737      2.2790      0.2974     22.4856    105.2745     27.1222
   958.3000      8.3437      2.4099      0.3252     14.5517    111.4901     27.6499
   958.4000      8.3437      2.5086      0.3868      8.5700    116.0508     27.8468
   958.5000      8.1911      2.5519      0.2956      5.9427    120.2449     27.6794
   958.6000      8.1911      2.5575      0.2230      5.6075    127.3913     27.4644
   958.7000      8.1911      2.5531      0.2199      5.8735    135.3467     27.7235
   958.8000      8.1621      2.5513      0.1893      5.9793    138.3681     28.1466
   958.9000      8.1621      2.5489      0.1542      6.1266    136.9317     28.1138
   959.0000      8.0758      2.5343      0.1569      7.0147    138.1751     27.7109
   959.1000      8.0758      2.5021      0.0979      8.9639    146.5799     27.3505
   959.2000      8.0758      2.4677      0.0259     11.0468    160.7234     27.0954
   959.3000      8.0987      2.4510      0.0287     12.0590    174.6652     26.7231
   959.4000      8.0987      2.4470      0.0777     12.3019    181.2701     26.2657
   959.5000      8.1449      2.4361      0.0989     12.9634    179.1047     26.1947
   959.6000      8.1449      2.4141      0.0550     14.2944    174.3611     26.5604
   959.7000      8.1449      2.3849      0.0698     16.0638    172.3902     26.5482
   959.8000      8.1506      2.3535     -0.0037     17.9718    172.7199     25.6734
   959.9000      8.1506      2.3355      0.0305     19.0599    170.6891     24.3180
   960.0000      8.1552      2.3431      0.0302     18.6013    165.1456     23.2079
   960.1000      8.1552      2.3696      0.0580     16.9961    159.4358     22.7131
   960.2000      8.1552      2.3830      0.1414     16.1790    155.3826     22.3730
   960.3000      8.1928      2.3470      0.1401     18.3613    151.6890     21.5565
   960.4000      8.1928      2.2568      0.0891     23.8308    147.4909     20.4353
   960.5000      8.1955      2.1275      0.0859     31.6648    140.7970     19.6071
   960.6000      8.1955      1.9792      0.0043     40.6529    130.5076     19.1130
   960.7000      8.1955      1.8391     -0.0435     49.1426    123.4529     18.8357
   960.8000      8.1748      1.7220     -0.0898     56.2446    123.6159     18.8132
   960.9000      8.1748      1.6265     -0.0863     62.0282    125.7132     18.7536
   961.0000      8.2048      1.5641     -0.1179     65.8109    127.3846     18.5689
   961.1000      8.2048      1.5642     -0.0822     65.8060    129.1131     18.7361
   961.2000      8.2048      1.6379      0.0825     61.3410    125.3785     19.3609
   961.3000      8.2350      1.7607      0.1574     53.8942    115.9572     20.1727
   961.4000      8.2350      1.9051      0.2307     45.1453    110.6909     21.2257
   961.5000      8.2422      2.0617      0.3002     35.6527    111.7234     22.2629
   961.6000      8.2422      2.2216      0.3636     25.9656    112.6040     23.0132
   961.7000      8.2422      2.3556      0.3708     17.8435    110.4426     23.9132
   961.8000      8.1746      2.4381      0.3829     12.8439    107.8552     24.9050
   961.9000      8.1746      2.4749      0.3047     10.6143    107.0187     25.3725
   962.0000      8.1612      2.4900      0.2267      9.6971    106.3334     25.3547
   962.1000      8.1612      2.4945      0.2376      9.4263    105.4591     25.3946
   962.2000      8.1612      2.4896      0.1455      9.7220    106.9648     25.6755
   962.3000      8.1752      2.4868      0.0956      9.8907    111.7203     26.2509
   962.4000      8.1752      2.5021      0.0824      8.9623    117.1389     27.1962
   962.5000      8.1787      2.5468      0.0688      6.2532    119.8213     28.2146
   962.6000      8.1787      2.6163      0.1762      2.0409    120.3694     29.0405
   962.7000      8.1787      2.6872      0.2594     -2.2526    122.9323     29.6008
   962.8000      8.1500      2.7456      0.2333     -5.7965    126.5748     29.9311
   962.9000      8.1500      2.7973      0.2068     -8.9273    126.6246     30.4107
   963.0000      8.1487      2.8433      0.1570    -11.7156    123.8310     31.1274
   963.1000      8.1487      2.8807      0.1366    -13.9809    122.5467     31.4617
   963.2000      8.1487      2.9164      0.1607    -16.1475    123.6942     31.0885
   963.3000      8.1612      2.9616      0.0594    -18.8838    123.0000     30.5996
   963.4000      8.1612      3.0130      0.0508    -21.9987    116.5234     30.5475
   963.5000      8.1324      3.0428      0.0466    -23.8075    106.4875     30.6484
   963.6000      8.1324      3.0265     -0.0240    -22.8155     97.8576     30.3484
   963.7000      8.1324      2.9648     -0.0556    -19.0808     92.0535     29.4954
   963.8000      8.1399      2.8713     -0.0876    -13.4099     87.8518     28.4039
   963.9000      8.1399      2.7674     -0.1476     -7.1149     83.3304     27.4455
   964.0000      8.1059      2.6822     -0.1235     -1.9532     78.6284     26.5292
   964.1000      8.1059      2.6377     -0.1356      0.7468     76.0340     25.5292
   964.2000      8.1059      2.6236     -0.0883      1.5973     77.4636     24.5939
   964.3000      8.0994      2.6005     -0.0472      2.9970     81.4843     23.8121
