~Version Information
VERS.                      2.0: CWLS Log ASCII Standard - VERSION 2.0
WRAP.                       NO: One line per depth step
~Well Information Block
STRT.FT               530.0000: 
STOP.FT              1298.0000: 
STEP.FT                 0.1000: 
NULL.                -999.2500: 
COMP.          Pioneer Natural Resources: COMPANY
WELL.            Keiko 14-6 Tr: WELL
FLD.           Purgatoire River: FIELD
LOC.           462' FSL & 1202' FWL: LOCATION
PROV.                 Colorado: PROVINCE
CNTY.               Las Animas: COUNTRY
SRVC.                Patterson: SERVICE COMPANY
DATE.          Fri Dec 30 07:26:03 2005: LOG DATE
UWI.           05 071 08629 00: UNIQUE WELL ID
~Curve Information Block
DEPT.FT            0 000 00 00: Depth
DCAL.in                       : CDL Caliper
RHOB.g/cc                     : CDL Bulk Density
RHOC.g/cc                     : CDL Density Correction
DPOR.pu                       : CDL Density Porosity
GR.GAPI                       : Gamma Ray
~Parameter Information Block
~A  Depth       DCAL        RHOB        RHOC        DPOR         GR     
   530.0000      3.8345      2.2604      0.3278     23.6109     44.9579
   530.1000      3.8345      2.2169      0.2979     26.2459     41.2032
   530.2000      3.8345      2.1121      0.2996     32.6004     36.1175
   530.3000      3.8365      1.8960      0.2615     45.6942     34.3895
   530.4000      3.8365      1.6640      0.0606     59.7574     36.3209
   530.5000      3.8943      1.6679      0.0064     59.5213     39.0874
   530.6000      3.8943      2.0089      0.3020     38.8516     40.1038
   530.7000      3.8943      2.5030      0.4964      8.9065     39.8644
   530.8000      4.5547      2.9540      0.5794    -18.4243     41.5903
   530.9000      4.5547      3.2985      0.7021    -39.3032     45.5217
   531.0000      6.3779      3.5151      0.7635    -52.4280     50.0090
   531.1000      6.3779      3.5831      0.8857    -56.5495     54.3658
   531.2000      6.3779      3.4831      0.7908    -50.4889     56.4999
   531.3000      8.0944      3.2287      0.4197    -35.0737     53.8909
   531.4000      8.0944      2.9022      0.0475    -15.2861     48.5424
   531.5000      8.3108      2.6152     -0.3847      2.1072     44.7759
   531.6000      8.3108      2.4326     -0.4743     13.1757     43.4430
   531.7000      8.3108      2.3373     -0.4772     18.9534     41.9847
   531.8000      8.3034      2.2732     -0.4780     22.8360     37.2961
   531.9000      8.3034      2.2076     -0.5414     26.8147     31.2088
   532.0000      8.3033      2.1372     -0.5338     31.0760     28.9550
   532.1000      8.3033      2.0613     -0.5683     35.6791     30.3949
   532.2000      8.3033      1.9836     -0.6192     40.3866     32.4795
   532.3000      8.3056      1.9146     -0.6399     44.5723     33.8311
   532.4000      8.3056      1.8567     -0.6594     48.0765     33.2662
   532.5000      8.3052      1.8090     -0.6773     50.9697     30.4496
   532.6000      8.3052      1.7724     -0.6584     53.1893     26.8447
   532.7000      8.3052      1.7455     -0.6629     54.8196     23.8099
   532.8000      8.3084      1.7278     -0.7001     55.8891     20.3242
   532.9000      8.3084      1.7222     -0.6934     56.2275     16.7694
   533.0000      8.3120      1.7234     -0.6695     56.1590     15.7171
   533.1000      8.3120      1.7193     -0.6859     56.4089     16.6369
   533.2000      8.3120      1.7125     -0.7147     56.8170     18.3152
   533.3000      8.3116      1.7184     -0.7000     56.4618     22.1861
   533.4000      8.3116      1.7373     -0.6985     55.3168     27.5202
   533.5000      8.3092      1.7543     -0.6621     54.2818     29.9234
   533.6000      8.3092      1.7644     -0.6786     53.6732     28.2219
   533.7000      8.3092      1.7748     -0.6627     53.0410     26.6413
   533.8000      8.3098      1.7923     -0.6867     51.9800     26.7232
   533.9000      8.3098      1.8144     -0.6602     50.6419     26.0800
   534.0000      8.3098      1.8294     -0.6228     49.7334     24.6064
   534.1000      8.3098      1.8416     -0.6654     48.9950     25.8297
   534.2000      8.3098      1.8658     -0.6174     47.5255     31.5723
   534.3000      8.3089      1.8979     -0.6652     45.5799     36.7121
   534.4000      8.3089      1.9291     -0.6514     43.6895     35.0451
   534.5000      8.3093      1.9566     -0.6032     42.0268     30.0145
   534.6000      8.3093      1.9835     -0.6486     40.3966     28.9579
   534.7000      8.3093      2.0209     -0.7718     38.1261     30.8142
   534.8000      8.3102      2.0595     -0.5974     35.7854     30.3215
   534.9000      8.3102      2.0853     -0.6364     34.2255     27.2599
   535.0000      8.3054      2.1268     -0.5669     31.7079     27.2738
   535.1000      8.3054      2.1989     -0.5870     27.3370     32.1716
   535.2000      8.3054      2.2667     -0.5946     23.2319     36.8498
   535.3000      8.3052      2.2978     -0.4805     21.3427     37.3690
   535.4000      8.3052      2.3076     -0.5605     20.7513     35.0196
   535.5000      8.3049      2.3295     -0.5010     19.4231     32.7740
   535.6000      8.3049      2.3615     -0.5233     17.4856     32.8365
   535.7000      8.3049      2.3786     -0.4503     16.4457     36.4222
   535.8000      8.3035      2.3704     -0.4693     16.9463     41.1391
   535.9000      8.3035      2.3513     -0.4751     18.1011     44.7360
   536.0000      8.3028      2.3409     -0.5330     18.7330     48.2723
   536.1000      8.3028      2.3352     -0.4501     19.0805     52.2914
   536.2000      8.3028      2.3192     -0.4673     20.0485     57.2772
   536.3000      8.3032      2.2923     -0.4635     21.6760     61.4198
   536.4000      8.3032      2.2646     -0.5165     23.3588     62.8656
   536.5000      8.3043      2.2480     -0.4421     24.3627     62.3620
   536.6000      8.3043      2.2428     -0.4662     24.6768     61.5570
   536.7000      8.3043      2.2279     -0.3896     25.5821     63.2016
   536.8000      8.3033      2.1887     -0.4419     27.9548     68.8632
   536.9000      8.3033      2.1507     -0.5312     30.2576     74.1069
   537.0000      8.3033      2.1377     -0.4823     31.0455     74.8243
   537.1000      8.3033      2.1304     -0.4615     31.4939     74.0471
   537.2000      8.3033      2.1112     -0.4942     32.6555     76.4531
   537.3000      8.3047      2.0995     -0.5387     33.3616     83.2232
   537.4000      8.3047      2.1162     -0.4570     32.3521     91.5841
   537.5000      8.3043      2.1520     -0.4871     30.1807     96.4109
   537.6000      8.3043      2.1852     -0.4358     28.1719     95.3768
   537.7000      8.3043      2.2028     -0.4261     27.1018     89.6398
   537.8000      8.3044      2.2094     -0.4931     26.7044     83.7954
   537.9000      8.3044      2.2149     -0.4566     26.3699     83.2043
   538.0000      8.3057      2.2223     -0.4777     25.9209     87.0466
   538.1000      8.3057      2.2370     -0.5295     25.0281     90.5514
   538.2000      8.3057      2.2586     -0.4233     23.7218     91.5505
   538.3000      8.3042      2.2706     -0.4256     22.9970     92.6154
   538.4000      8.3042      2.2720     -0.4595     22.9110     96.9631
   538.5000      8.3044      2.2763     -0.4166     22.6465    102.0779
   538.6000      8.3044      2.2822     -0.4067     22.2935    103.0990
   538.7000      8.3044      2.2812     -0.4007     22.3545     99.1608
   538.8000      8.3040      2.2744     -0.4400     22.7615     93.9958
   538.9000      8.3040      2.2725     -0.4344     22.8784     92.2484
   539.0000      8.3050      2.2819     -0.4485     22.3101     92.4453
   539.1000      8.3050      2.3042     -0.4275     20.9602     89.1503
   539.2000      8.3050      2.3335     -0.3853     19.1798     83.7779
   539.3000      8.3059      2.3489     -0.3544     18.2482     80.7871
   539.4000      8.3059      2.3360     -0.3910     19.0310     80.1465
   539.5000      8.3033      2.3179     -0.4715     20.1254     80.8859
   539.6000      8.3033      2.3246     -0.4492     19.7202     81.5686
   539.7000      8.3033      2.3441     -0.3942     18.5389     79.3623
   539.8000      8.3042      2.3455     -0.3759     18.4516     74.3942
   539.9000      8.3042      2.3205     -0.4224     19.9699     70.2177
   540.0000      8.3024      2.2809     -0.4695     22.3721     68.3361
   540.1000      8.3024      2.2408     -0.4271     24.7975     68.4807
   540.2000      8.3024      2.2166     -0.5489     26.2657     71.0022
   540.3000      8.3010      2.2117     -0.4578     26.5649     74.1165
   540.4000      8.3010      2.2106     -0.4788     26.6310     74.1068
   540.5000      8.3031      2.2145     -0.4813     26.3952     70.2436
   540.6000      8.3031      2.2401     -0.4884     24.8416     66.2730
   540.7000      8.3031      2.2868     -0.4095     22.0099     65.4761
   540.8000      8.3030      2.3245     -0.3554     19.7265     67.3961
   540.9000      8.3030      2.3319     -0.4111     19.2808     70.7201
   541.0000      8.3025      2.3208     -0.4077     19.9499     75.4662
   541.1000      8.3025      2.3056     -0.4054     20.8707     81.9589
