~Version Information
 VERS.                                  2.0 : CWLS LAS VERSION
 WRAP.                                   NO : WRAPING MODE
 SWARE .                 MController 2.5.0N : SOFTWARE VERSION
~Well Information
 WELL.                     Irish Eyes 33-21 : WELL
 COMP.    Pioneer Natural Resources USA Inc : COMPANY
 FLD.                      Purgatoire River : FIELD
 LOC.                  NWSE Sec21 T34S R65W : LOCATION
 DATE.                             01/15/06 : DATE(S) LOGGED
 SRVC.       Blanco Geological Services LLC : SERVICE COMPANY
 STAT.                             Colorado : STATE
 CNTY.                           Las Animas : COUNTY
 CTRY.                                  USA : COUNTRY
 API.                       05-071-08658-00 : API NUMBER
 STRT.FT                             296.00 : START DEPTH
 STOP.FT                            1285.00 : STOP DEPTH
 STEP.FT                               1.00 : DEPTH INCREMENT
 NULL.                                -9999 : NULL VALUE
~Curve information
 DEPTH.FT                                   :
 ROP.MIN/FT                                 :
 GAS.UNITS                                  :
~ASCII Log data
       296.0     -9999.00          1.9 
       297.0         0.07          1.8 
       298.0         0.13          1.9 
       299.0         0.17          0.9 
       300.0         0.13          0.9 
       301.0         0.13          0.8 
       302.0         0.13          0.4 
       303.0         0.13          0.6 
       304.0         0.17          0.8 
       305.0         0.13          1.0 
       306.0         0.13         47.5 
       307.0         0.13        106.3 
       308.0         0.17        100.5 
       309.0         0.13         88.7 
       310.0         0.17         51.5 
       311.0         0.18         22.3 
       312.0         0.13         13.6 
       313.0         0.17          8.9 
       314.0         0.13          7.4 
       315.0         0.17          3.2 
       316.0         0.13          2.3 
       317.0         0.17          0.7 
       318.0         0.17          0.1 
       319.0         0.13          0.1 
       320.0         0.17          0.1 
       321.0         0.13          0.0 
       322.0         0.17          0.1 
       323.0         0.13          0.3 
       324.0         0.17          0.2 
       325.0         0.17          0.1 
       326.0         2.62          1.5 
       327.0         0.13          0.7 
       328.0         0.13          1.1 
       329.0         0.17          0.7 
       330.0         0.17          0.6 
       331.0         0.13          0.7 
       332.0         0.13          0.7 
       333.0         0.13          0.7 
       334.0         0.13          0.7 
       335.0         0.13          0.8 
       336.0         0.13          0.8 
       337.0         0.13          0.7 
       338.0         0.17          0.6 
       339.0         0.15          0.6 
       340.0         0.13          0.6 
       341.0         0.13          0.7 
       342.0         0.13          0.6 
       343.0         0.13          0.4 
       344.0         0.13          0.3 
       345.0         0.13          0.3 
       346.0         0.13          0.3 
       347.0         0.13          0.6 
       348.0         0.17          0.3 
       349.0         0.13          0.3 
       350.0         0.13          0.6 
       351.0         0.13          0.6 
       352.0         0.17          0.5 
       353.0         0.13          0.5 
       354.0         0.17          0.5 
       355.0         0.13          0.5 
       356.0         3.68          0.9 
       357.0         0.13          0.5 
       358.0         0.13          0.1 
       359.0         0.13          0.2 
       360.0         0.13          0.3 
       361.0         0.13          0.4 
       362.0         0.15          0.6 
       363.0         0.13          0.3 
       364.0         0.13          0.2 
       365.0         0.13          0.5 
       366.0         0.13          0.0 
       367.0         0.13          0.2 
       368.0         0.13          0.0 
       369.0         0.13          0.2 
       370.0         0.13          0.1 
       371.0         0.17          0.3 
       372.0         0.13          0.2 
       373.0         0.13          0.1 
       374.0         0.13          0.5 
       375.0         0.13          0.2 
       376.0         0.13          0.3 
       377.0         0.13          0.4 
       378.0         0.13          0.4 
       379.0         0.13          0.6 
       380.0         0.17          0.1 
       381.0         0.13          0.2 
       382.0         0.13          0.0 
       383.0         0.17          0.2 
       384.0         0.13          0.2 
       385.0         0.13          0.1 
       386.0         3.25        273.7 
       387.0         0.13        260.4 
       388.0         0.15         89.6 
       389.0         0.13         58.2 
       390.0         0.13         21.0 
       391.0         0.13         16.0 
       392.0         0.13          8.5 
       393.0         0.13          6.7 
       394.0         0.13          4.8 
       395.0         0.13          4.0 
       396.0         0.17          4.0 
       397.0         0.13          3.7 
       398.0         0.13          2.7 
       399.0         0.13          2.3 
       400.0         0.13          2.3 
       401.0         0.10          2.3 
       402.0         0.17          2.0 
       403.0         0.20          1.4 
       404.0         0.23          1.3 
       405.0         0.23          1.0 
       406.0         0.20          1.1 
       407.0         0.27          0.8 
       408.0         0.25          0.9 
       409.0         0.17          1.5 
       410.0         0.13          0.6 
       411.0         0.13          0.6 
       412.0         0.13          1.2 
       413.0         0.17          1.2 
       414.0         0.13          1.5 
       415.0         0.17          1.1 
       416.0         2.82          2.1 
       417.0         0.23          2.6 
       418.0         0.20          2.4 
       419.0         0.10          2.2 
       420.0         0.13          2.1 
       421.0         0.17          1.3 
       422.0         0.13          1.3 
       423.0         0.13          1.6 
       424.0         0.17          1.1 
       425.0         0.13          1.0 
       426.0         0.13          0.9 
       427.0         0.13          1.1 
       428.0         0.20          0.6 
       429.0         0.20          0.9 
       430.0         0.23          0.6 
       431.0         0.13          0.6 
       432.0         0.13          1.0 
       433.0         0.17          1.0 
       434.0         0.18          1.0 
       435.0         0.17          0.7 
       436.0         0.17          0.5 
       437.0         0.17          1.2 
       438.0         0.17          0.7 
       439.0         0.20          0.9 
       440.0         0.23          1.2 
       441.0         0.20          1.9 
       442.0         0.13          1.9 
       443.0         0.17          2.6 
       444.0         0.13          2.4 
       445.0         0.17          2.4 
       446.0         2.35         58.6 
       447.0         0.30         32.8 
       448.0         0.27         20.1 
       449.0         0.20         11.4 
       450.0         0.17         11.3 
       451.0         0.17          7.5 
       452.0         0.13          7.2 
       453.0         0.17          6.7 
       454.0         0.13          5.2 
       455.0         0.23          4.8 
       456.0         0.23          3.9 
       457.0         0.20          3.1 
       458.0         0.28          2.9 
       459.0         0.20          4.1 
       460.0         0.20          5.9 
       461.0         0.17          7.5 
       462.0         0.17          7.0 
       463.0         0.17          6.4 
       464.0         0.23          5.0 
       465.0         0.20          3.8 
       466.0         0.17          3.7 
       467.0         0.20          3.1 
       468.0         0.20          3.1 
       469.0         0.17          3.3 
       470.0         0.17          4.5 
       471.0         0.20          4.5 
       472.0         0.20          4.7 
       473.0         0.17          3.6 
       474.0         0.23          3.8 
       475.0         0.25          3.8 
       476.0         2.57         54.6 
       477.0         0.20         21.8 
       478.0         0.33         17.3 
       479.0         0.35          7.7 
       480.0         0.37          6.7 
       481.0         0.40          4.4 
       482.0         0.40          3.6 
       483.0         0.37          3.8 
       484.0         0.40          4.0 
       485.0         0.37          4.1 
       486.0         0.43          3.7 
       487.0         0.40          3.3 
       488.0         0.42          3.2 
       489.0         0.40          2.6 
       490.0         0.37          2.9 
       491.0         0.40          3.7 
       492.0         0.33          3.6 
       493.0         0.23          3.5 
       494.0         0.23          2.4 
       495.0         0.23          1.3 
