~Version Information
VERS.                      2.0: CWLS Log ASCII Standard - VERSION 2.0
WRAP.                       NO: One line per depth step
~Well Information Block
STRT.FT                -5.0000: 
STOP.FT              1761.2500: 
STEP.FT                 0.2500: 
NULL.                -999.2500: 
COMP.          Pioneer Natural Resources: COMPANY
WELL.          Manville 42-14 Tr: WELL
FLD.           Purgatoire River: FIELD
LOC.           2018'FNL & 562' FEL: LOCATION
STAT.                 Colorado: State
CNTY.               Las Animas: COUNTY
CTRY. USA : Country
SECT. 14 : Section
TOWN. 32S : Township
RANG. 66W : Range
SRVC.                Patterson: SERVICE COMPANY
DATE.          Fri Sep 23 10:37:02 2005: LOG DATE
API. 05-071-08522             : UNIQUE WELL ID
~Curve Information Block
DEPT.FT            0 000 00 00: Depth
CCL.                          : Casing Collar Locator
TT3.usec                      : CBL 3' Travel Time
AMP3.mV                       : CBL 3' Amplitude
AMP5.mV                       : CBL 5' Amplitude
GR.GAPI                       : Gamma Ray
~Parameter Information Block
~A  Depth       CCL         TT3         AMP3        AMP5         GR     
# ...
  1507.0000      0.0000    399.3137     14.8483      2.8244     67.1786
  1507.2500      0.0000    474.5128     12.6345      2.2150     76.4094
  1507.5000      0.0000    559.3546     10.2885      2.1280     88.3433
  1507.7500      0.0000    634.1237      8.0285      1.0834    101.7239
  1508.0000      0.0000    685.4225      6.0468      0.9964    113.3641
  1508.2500      0.0000    711.9193      4.4595      1.1705    118.9363
  1508.5000      0.0000    719.5856      3.3024      0.9964    115.1941
  1508.7500      0.0000    714.9439      2.5618      1.1705    102.5507
  1509.0000      0.0000    703.4584      2.2044      1.2575     85.4790
  1509.2500      0.0000    691.0098      2.1904      1.1705     69.7220
  1509.5000      0.0000    683.1343      2.4831      1.0834     58.7984
  1509.7500      0.0000    681.1483      3.0723      0.9964     53.0583
  1510.0000      0.0000    678.5813      4.0043      1.3446     51.2759
  1510.2500      0.0000    662.2130      5.3854      1.0834     52.2663
  1510.5000      0.0000    619.7642      7.3398      1.1705     55.2040
  1510.7500      0.0000    550.2335      9.9346      1.6927     59.4421
  1511.0000      0.0000    467.5472     13.1138      2.5632     64.5873
  1511.2500      0.0000    392.0384     16.6893      2.9984     70.5166
  1511.5000      0.0000    336.9790     20.3948      4.3041     77.0604
  1511.7500      0.0000    303.1551     23.9371      5.3487     83.6941
  1512.0000      0.0000    284.1413     27.0087      8.8306     89.6645
  1512.2500      0.0000    273.6125     29.3246     10.7456     94.2587
  1512.5000      0.0000    267.9382     30.7366     15.2720     96.7033
  1512.7500      0.0000    265.2095     31.3264     15.4461     96.1803
  1513.0000      0.0000    264.1426     31.3570     17.8834     92.6663
  1513.2500      0.0000    263.8486     31.1220     20.4078     87.6764
  1513.5000      0.0000    263.8279     30.8284     19.4503     83.5132
  1513.7500      0.0000    263.8815     30.5709     19.3632     81.5956
  1514.0000      0.0000    263.9492     30.3680     19.4503     81.7399
  1514.2500      0.0000    264.0135     30.2128     18.8410     82.9264
  1514.5000      0.0000    264.0584     30.1022     18.3187     84.5092
  1514.7500      0.0000    264.0674     30.0318     18.6669     86.8760
  1515.0000      0.0000    264.0374     29.9868     19.0150     91.0564
  1515.2500      0.0000    263.9877     29.9506     18.7539     97.4929
  1515.5000      0.0000    263.9585     29.9129     18.3187    105.1681
  1515.7500      0.0000    264.0357     29.8525     17.9705    112.2396
  1516.0000      0.0000    264.4036     29.7228     17.3612    117.4619
  1516.2500      0.0000    265.3941     29.4787     17.1000    120.5179
  1516.5000      0.0000    267.4221     29.1247     17.1871    121.2485
  1516.7500      0.0000    270.7231     28.7257     17.1000    119.4253
  1517.0000      0.0000    275.0517     28.3598     17.1000    115.3747
  1517.2500      0.0000    279.6744     28.0462     17.0130    110.2427
  1517.5000      0.0000    283.7629     27.6976     13.6182    105.5521
  1517.7500      0.0000    286.9278     27.1218     10.3104    102.5899
  1518.0000      0.0000    289.5944     26.0970      7.3508    101.8064
  1518.2500      0.0000    292.9948     24.5250     14.4016    102.3966
  1518.5000      0.0000    298.6400     22.5401      5.1746    102.7041
  1518.7500      0.0000    307.7716     20.3947      5.5228    101.3754
  1519.0000      0.0000    320.9284     18.2240      6.8285     98.1724
  1519.2500      0.0000    336.9207     16.0462      7.3508     93.8497
  1519.5000      0.0000    351.8685     14.0178      7.1767     89.4772
  1519.7500      0.0000    360.9245     12.4915      7.4378     85.7395
  1520.0000     -2.0000    362.3427     11.7052      7.8731     82.6456
  1520.2500      2.0000    359.1891     11.5245      7.5249     80.0569
  1520.5000      2.0000    356.2788     11.5850      6.9156     78.5526
  1520.7500      0.0000    355.8503     11.6602      7.2637     79.3532
  1521.0000      0.0000    355.9213     11.9077      7.6119     83.2388
  1521.2500      0.0000    352.1214     12.7765      7.1767     89.8016
  1521.5000      0.0000    341.8025     14.5704      7.1767     97.5845
  1521.7500      0.0000    327.0570     17.0200      7.1767    104.3965
  1522.0000      0.0000    313.1671     19.3957      7.0896    107.7707
  1522.2500      0.0000    303.9546     21.1517      4.7394    106.2202
  1522.5000      0.0000    299.2925     22.3558      4.6523    100.6378
  1522.7500      0.0000    296.8874     23.4110     10.3974     94.0744
  1523.0000      0.0000    295.2590     24.5123     22.2358     89.5971
  1523.2500      0.0000    294.5697     25.5011      8.7435     88.2645
  1523.5000      0.0000    295.3025     26.1332     12.9218     89.1375
  1523.7500      0.0000    297.0848     26.3301     11.0067     90.7579
  1524.0000      0.0000    298.9467     26.1855     14.7498     92.1709
  1524.2500      0.0000    300.2266     25.8464     15.2720     92.9618
  1524.5000      0.0000    300.8798     25.4422     14.6627     93.1522
  1524.7500      0.0000    301.1613     25.0726     14.7498     93.2328
  1525.0000      0.0000    301.2845     24.7981     14.1404     93.8201
  1525.2500      0.0000    301.3395     24.6212     13.7922     94.9959
  1525.5000      0.0000    301.3508     24.4936     13.3570     96.1842
  1525.7500      0.0000    301.3312     24.3521     12.8347     96.9156
  1526.0000      0.0000    301.3003     24.1589     13.4441     97.5848
  1526.2500      0.0000    301.2787     23.9148     12.5736     99.1653
  1526.5000      0.0000    301.2849     23.6434     12.3124    102.0046
  1526.7500      0.0000    301.3317     23.3644     12.0513    104.9423
  1527.0000      0.0000    301.4204     23.0853     12.5736    105.9201
  1527.2500      0.0000    301.5367     22.8176     12.1384    103.8059
  1527.5000      0.0000    301.6552     22.5908     12.1384     99.4405
  1527.7500      0.0000    301.7527     22.4361     11.9643     94.6673
  1528.0000      0.0000    301.8198     22.3576     12.1384     90.8301
  1528.2500      0.0000    301.8609     22.3293     11.9643     88.5736
  1528.5000      0.0000    301.8866     22.3230     11.8772     88.3873
  1528.7500      0.0000    301.9048     22.3314     12.2254     90.5490
  1529.0000      0.0000    301.9161     22.3598     12.2254     94.7385
  1529.2500      0.0000    301.9192     22.4081     12.8347    100.1942
  1529.5000      0.0000    301.9191     22.4747     12.2254    106.2185
  1529.7500      0.0000    301.9273     22.5707     12.3995    112.3873
  1530.0000      0.0000    301.9518     22.7148     12.3124    118.4319
  1530.2500      0.0000    301.9882     22.9093     12.3124    124.0580
  1530.5000      0.0000    302.0235     23.1284     12.2254    129.1120
  1530.7500      0.0000    302.0463     23.3380     12.7477    134.0474
  1531.0000      0.0000    302.0518     23.5257     12.1384    139.6565
  1531.2500      0.0000    302.0402     23.7097     13.0959    145.6794
  1531.5000      0.0000    302.0134     23.9135     12.5736    150.2231
  1531.7500      0.0000    301.9738     24.1312     12.3995    151.5843
  1532.0000      0.0000    301.9258     24.3219     12.3995    150.4627
  1532.2500      0.0000    301.8805     24.4408     13.0088    149.5259
  1532.5000      0.0000    301.8557     24.4691     12.1384    150.7233
  1532.7500      0.0000    301.8678     24.4175     12.3995    153.3719
  1533.0000      0.0000    301.9159     24.3136     12.5736    154.9939
  1533.2500      0.0000    301.9801     24.1872     12.6606    153.9168
  1533.5000      0.0000    302.0392     24.0593     13.0088    150.8477
  1533.7500      0.0000    302.0849     23.9384     13.0959    148.0518
  1534.0000      0.0000    302.1188     23.8242     12.3124    147.6829
  1534.2500      0.0000    302.1407     23.7093     12.2254    150.8701
  1534.5000      0.0000    302.1491     23.5796     12.3995    157.2709
  1534.7500      0.0000    302.1491     23.4234     12.0513    164.8225
