~Version Information
VERS.                      2.0: CWLS Log ASCII Standard - VERSION 2.0
WRAP.                       NO: One line per depth step
~Well Information Block
STRT.FT               335.0000: 
STOP.FT              1013.5000: 
STEP.FT                 0.1000: 
NULL.                -999.2500: 
COMP.          Pioneer Natural Resources: COMPANY
WELL.             Giggle 21-22: WELL
FLD.           Purgatoire River: FIELD
LOC.           950' FNL & 2094' FWL: LOCATION
CNTY.               Las Animas: COUNTY
SRVC.                Patterson: SERVICE COMPANY
DATE.          Thu Apr 13 09:31:38 2006: LOG DATE
UWI.           05 071 08726 00: UNIQUE WELL ID
STAT.                 Colorado: STATE
~Curve Information Block
DEPT.FT            0 000 00 00: Depth
DCAL.in                       : CDL Caliper
RHOB.g/cc                     : CDL Bulk Density
RHOC.g/cc                     : CDL Density Correction
DPOR.pu                       : CDL Density Porosity
GR.GAPI                       : Gamma Ray
NPOR.pu                       : Neutron Porosity
~Parameter Information Block
~A  Depth       DCAL        RHOB        RHOC        DPOR         GR         NPOR    
# ...
   383.0000      8.0732      2.6440      0.1459      0.3656     69.6638     19.4652
   383.1000      8.0732      2.6122      0.0969      2.2919     71.3185     19.1951
   383.2000      8.0732      2.5766      0.0685      4.4502     72.1353     19.4082
   383.3000      8.0757      2.5539      0.1045      5.8261     74.8810     19.7849
   383.4000      8.0757      2.5365      0.0243      6.8790     80.5300     20.0600
   383.5000      8.0749      2.5256      0.0322      7.5367     83.8905     20.2957
   383.6000      8.0749      2.5256      0.0159      7.5397     84.4018     20.4200
   383.7000      8.0749      2.5358      0.0245      6.9217     88.7323     20.5234
   383.8000      8.0748      2.5574      0.0226      5.6113     97.6456     20.9603
   383.9000      8.0748      2.5881      0.0464      3.7496    105.4749     21.5340
   384.0000      8.0755      2.6083      0.1409      2.5253    111.3673     21.6761
   384.1000      8.0755      2.6010      0.1006      2.9671    118.6970     21.5771
   384.2000      8.0755      2.5821      0.0764      4.1146    128.0014     21.9492
   384.3000      8.0762      2.5773      0.0226      4.4048    136.9260     22.8369
   384.4000      8.0762      2.5877      0.0597      3.7733    141.6990     23.3856
   384.5000      8.0770      2.5940      0.0543      3.3947    142.8488     23.1420
   384.6000      8.0770      2.5814      0.0841      4.1567    143.7881     22.6909
   384.7000      8.0770      2.5583      0.0113      5.5576    144.1127     22.6162
   384.8000      8.0777      2.5463      0.0254      6.2822    143.7900     22.9797
   384.9000      8.0777      2.5517      0.0368      5.9572    144.0523     23.6144
   385.0000      8.0764      2.5641      0.0411      5.2079    144.4513     24.3608
   385.1000      8.0764      2.5702      0.0898      4.8389    143.1688     25.3472
   385.2000      8.0764      2.5669      0.0364      5.0372    136.6417     26.5187
   385.3000      8.0760      2.5627      0.0508      5.2909    130.1748     27.3292
   385.4000      8.0760      2.5470      0.0719      6.2395    134.2685     27.5124
   385.5000      8.0775      2.5113     -0.0352      8.4043    145.2486     27.3708
   385.6000      8.0775      2.4854     -0.0211      9.9762    152.2850     27.1493
   385.7000      8.0775      2.4886      0.0155      9.7833    152.0599     26.7328
   385.8000      8.0802      2.5078     -0.0090      8.6206    146.6816     26.5084
   385.9000      8.0802      2.5284      0.0096      7.3709    140.8528     26.8978
   386.0000      8.0773      2.5458      0.0385      6.3155    138.7874     27.4638
   386.1000      8.0773      2.5609      0.0363      5.3979    139.3790     27.6805
   386.2000      8.0773      2.5651      0.0386      5.1436    136.8574     27.7184
   386.3000      8.0744      2.5579     -0.0320      5.5806    131.8872     27.9776
   386.4000      8.0744      2.5567     -0.0035      5.6572    130.6472     28.0890
   386.5000      8.0745      2.5607      0.0223      5.4119    131.7169     27.7381
   386.6000      8.0745      2.5505     -0.0004      6.0297    130.1331     27.5845
   386.7000      8.0745      2.5233     -0.0236      7.6794    128.0987     27.5794
   386.8000      8.0758      2.5023     -0.0576      8.9496    129.5269     27.2044
   386.9000      8.0758      2.5023     -0.0341      8.9500    132.1209     26.8572
   387.0000      8.0748      2.5153     -0.0338      8.1654    135.0152     26.8118
   387.1000      8.0748      2.5220      0.0404      7.7549    137.3948     26.8800
   387.2000      8.0748      2.5086     -0.0061      8.5687    135.2229     27.2152
   387.3000      8.0765      2.4918     -0.0823      9.5867    131.6054     27.6132
   387.4000      8.0765      2.4955     -0.0041      9.3643    129.4393     27.4741
   387.5000      8.0751      2.5157      0.0047      8.1368    126.2918     26.7846
   387.6000      8.0751      2.5359      0.0369      6.9143    124.2120     26.0146
   387.7000      8.0751      2.5496     -0.0152      6.0843    125.1555     26.0091
   387.8000      8.0739      2.5617      0.0240      5.3514    126.1425     27.0392
   387.9000      8.0739      2.5735      0.0077      4.6375    127.2867     28.3177
   388.0000      8.0743      2.5834     -0.0314      4.0346    127.9948     29.1204
   388.1000      8.0743      2.5891      0.0578      3.6929    126.1130     29.2579
   388.2000      8.0743      2.5929      0.0175      3.4582    125.4065     28.4816
   388.3000      8.0745      2.5977      0.0639      3.1678    127.8086     26.8750
   388.4000      8.0745      2.5854      0.0544      3.9142    129.1651     25.6725
   388.5000      8.0753      2.5636     -0.0449      5.2347    127.8700     25.9552
   388.6000      8.0753      2.5638     -0.0180      5.2217    127.2800     26.9254
   388.7000      8.0753      2.5696      0.0492      4.8723    131.1154     27.2104
   388.8000      8.0749      2.5577     -0.0002      5.5931    139.4058     26.9941
   388.9000      8.0749      2.5424      0.0073      6.5191    147.3947     26.7161
   389.0000      8.0735      2.5268      0.0293      7.4655    148.7950     26.1764
   389.1000      8.0735      2.5043      0.0232      8.8300    144.3238     25.6971
   389.2000      8.0735      2.4890      0.0236      9.7551    139.9349     25.8125
   389.3000      8.0759      2.4951     -0.0512      9.3859    137.8777     26.3196
   389.4000      8.0759      2.5147      0.0058      8.1972    136.7882     26.7214
   389.5000      8.0737      2.5322      0.0069      7.1408    134.3985     26.8292
   389.6000      8.0737      2.5496     -0.0069      6.0859    130.3646     26.8139
   389.7000      8.0737      2.5710      0.0322      4.7860    127.6814     26.9149
   389.8000      8.0725      2.5925     -0.0023      3.4841    128.6853     27.1519
   389.9000      8.0725      2.6180      0.0440      1.9414    130.6863     27.4928
   390.0000      8.0753      2.6434      0.0777      0.4007    129.9754     28.0748
   390.1000      8.0753      2.6478      0.1223      0.1327    127.4701     28.4976
   390.2000      8.0753      2.6239      0.0791      1.5812    126.7714     28.3373
   390.3000      8.0711      2.5976      0.0374      3.1760    129.5141     27.9459
   390.4000      8.0711      2.5869      0.0426      3.8214    133.1439     27.7645
   390.5000      8.0762      2.5805      0.0625      4.2137    132.9032     27.6623
   390.6000      8.0762      2.5710      0.0119      4.7881    129.7996     27.2192
   390.7000      8.0762      2.5648     -0.0140      5.1629    127.7225     26.6587
   390.8000      8.0753      2.5573      0.0687      5.6206    126.2425     26.4526
   390.9000      8.0753      2.5487      0.0014      6.1391    126.0701     26.6101
   391.0000      8.0751      2.5632      0.0048      5.2624    127.7407     26.9802
   391.1000      8.0751      2.6002      0.1033      3.0169    129.6697     27.2624
   391.2000      8.0751      2.6309      0.0798      1.1574    133.1435     26.9985
   391.3000      8.0750      2.6466      0.0872      0.2055    138.9203     26.1723
   391.4000      8.0750      2.6444      0.0779      0.3412    143.3544     25.1986
   391.5000      8.0760      2.6071      0.1275      2.6007    142.3546     24.2291
   391.6000      8.0760      2.5373      0.0496      6.8297    137.1870     23.0772
   391.7000      8.0760      2.4593      0.1009     11.5565    132.7924     21.7700
   391.8000      8.0736      2.3874      0.0317     15.9121    130.2091     21.0236
   391.9000      8.0736      2.3364     -0.0240     19.0067    127.1183     21.1656
   392.0000      8.0754      2.3065      0.0305     20.8181    125.6572     21.4707
   392.1000      8.0754      2.2744      0.0172     22.7630    128.8330     21.2570
   392.2000      8.0754      2.2445     -0.0123     24.5767    132.4207     20.7442
   392.3000      8.0754      2.2503      0.0363     24.2247    131.5883     20.5381
   392.4000      8.0754      2.3076      0.0915     20.7523    129.9442     20.6387
   392.5000      8.0768      2.3980      0.2059     15.2724    132.0469     20.5398
