~Version Information
VERS.                      2.0: CWLS Log ASCII Standard - VERSION 2.0
WRAP.                       NO: One line per depth step
~Well Information Block
STRT.FT                -1.5000: 
STOP.FT              2143.7500: 
STEP.FT                 0.2500: 
NULL.                -999.2500: 
COMP.          Pioneer Natural Resources: COMPANY
WELL.              Kermit 32-7: WELL
FLD.           Purgatoire River: FIELD
LOC.           2002' FNL & 2103' FEL: LOCATION
PROV.                 Colorado: PROVINCE
CNTY.               Las Animas: COUNTRY
SRVC.                Patterson: SERVICE COMPANY
DATE.          Wed Jan 18 14:17:49 2006: LOG DATE
UWI.           05 071 08647 00: UNIQUE WELL ID
~Curve Information Block
DEPT.FT            0 000 00 00: Depth
GR.GAPI                       : Gamma Ray
CCL.                          : Casing Collar Locator
TT3.usec                      : CBL 3' Travel Time
AMP3.mV                       : CBL 3' Amplitude
~Parameter Information Block
~A  Depth        GR         CCL         TT3         AMP3    
# ...
   970.0000    114.2234      0.0000    463.3969     12.9375
   970.2500    115.8772      0.0000    512.0656     12.7690
   970.5000    118.7234      0.0000    545.6208     12.6136
   970.7500    121.1501      0.0000    553.9070     12.5390
   971.0000    122.6383      0.0000    537.1504     12.5759
   971.2500    123.4516      0.0000    503.1264     12.6936
   971.5000    123.0348      0.0000    462.1250     12.8233
   971.7500    119.7967      0.0000    423.9711     12.9065
   972.0000    112.7010      0.0000    397.6307     12.9277
   972.2500    102.8040      0.0000    390.3782     12.9102
   972.5000     93.0527      0.0000    404.2114     12.8915
   972.7500     86.4132      0.0000    431.6807     12.9060
   973.0000     84.0539      0.0000    457.0781     12.9785
   973.2500     85.0999      0.0000    466.5435     13.1150
   973.5000     87.8267      0.0000    460.3916     13.2922
   973.7500     90.9639      0.0000    454.4268     13.4607
   974.0000     94.1556      0.0000    466.9226     13.5645
   974.2500     97.6169      0.0000    503.3079     13.5625
   974.5000    101.5336      0.0000    552.6380     13.4476
   974.7500    105.6679      0.0000    597.7313     13.2566
   975.0000    109.4896      0.0000    628.4113     13.0553
   975.2500    112.7397      0.0000    645.7319     12.8985
   975.5000    115.6435      0.0000    655.9318     12.7986
   975.7500    118.4250      0.0000    663.2515     12.7345
   976.0000    120.8448      0.0000    668.5036     12.6865
   976.2500    122.3856      0.0000    671.5068     12.6550
   976.5000    122.7494      0.0000    672.6985     12.6482
   976.7500    122.1165      0.0000    672.9230     12.6590
   977.0000    121.0782      0.0000    672.8494     12.6588
   977.2500    120.2888      0.0000    672.8084     12.6116
   977.5000    120.0305      0.0000    672.9069     12.5016
   977.7500    120.1196      0.0000    673.1208     12.3503
   978.0000    120.2460      0.0000    673.3643     12.2049
   978.2500    120.3428      0.0000    673.5500     12.1040
   978.5000    120.7381      0.0000    673.6463     12.0541
   978.7500    122.0432      0.0000    673.6801     12.0398
   979.0000    124.5777      0.0000    673.6939     12.0540
   979.2500    127.5574      0.0000    673.7036     12.1064
   979.5000    129.0929      0.0000    673.6913     12.2025
   979.7500    127.6103      0.0000    673.6335     12.3211
   980.0000    123.3888      0.0000    673.5369     12.4157
   980.2500    118.3897      0.0000    673.4475     12.4455
   980.5000    114.6144      0.0000    673.4219     12.4087
   980.7500    112.8086      0.0000    673.4832     12.3464
   981.0000    112.4992      0.0000    673.6104     12.3094
   981.2500    112.9001      0.0000    673.7635     12.3202
   981.5000    113.7215      0.0000    673.8809     12.3675
   981.7500    115.2356      0.0000    673.8357     12.4272
   982.0000    117.6893      0.0000    673.3950     12.4776
   982.2500    120.6892      0.0000    672.3131     12.4995
   982.5000    123.1862      0.0000    670.6367     12.4723
   982.7500    124.1698      0.0000    668.9714     12.3807
   983.0000    123.4524      0.0000    668.1925     12.2312
   983.2500    121.7519      0.0000    668.6384     12.0628
   983.5000    120.0355      0.0000    669.5978     11.9323
   983.7500    118.7482      0.0000    669.5279     11.8778
   984.0000    117.5474      0.0000    666.4102     11.8944
   984.2500    115.7593      0.0000    658.1005     11.9488
   984.5000    113.1434      0.0000    643.8584     12.0070
   984.7500    110.1891      0.0000    626.9834     12.0413
   985.0000    107.7685      0.0000    615.0342     12.0211
   985.2500    106.6718      0.0000    614.7815     11.9167
   985.5000    107.3692      0.0000    626.0035     11.7190
   985.7500    109.7813      0.0000    641.4713     11.4582
   986.0000    112.9556      0.0000    653.2625     11.1996
   986.2500    115.0680      0.0000    658.2150     11.0133
   986.5000    114.1465      0.0000    658.0590     10.9381
   986.7500    109.1019      0.0000    656.2343     10.9703
   987.0000    100.2962      0.0000    654.9479     11.0763
   987.2500     89.4248      0.0000    654.0633     11.2109
   987.5000     78.9665      0.0000    651.9213     11.3276
   987.7500     71.3335      0.0000    647.0293     11.3882
   988.0000     67.8769      0.0000    639.1819     11.3751
   988.2500     68.2927      0.0000    629.4412     11.3011
   988.5000     70.8819      0.0000    619.8508     11.2050
   988.7500     73.4668      0.0000    613.3779     11.1296
   989.0000     74.4379      0.0000    613.1692     11.0968
   989.2500     73.5101      0.0000    620.6423     11.0995
   989.5000     71.8201      0.0000    633.9016     11.1171
   989.7500     71.0644      0.0000    648.4625     11.1328
   990.0000     72.0361      0.0000    660.0428     11.1425
   990.2500     73.8246      0.0000    666.6188     11.1546
   990.5000     74.6571      0.0000    667.5445     11.1844
   990.7500     73.6227      0.0000    661.3033     11.2444
   991.0000     71.3887      0.0000    645.4841     11.3367
   991.2500     69.1669      0.0000    620.5740     11.4535
   991.5000     67.3560      0.0000    593.2838     11.5822
   991.7500     65.5112      0.0000    573.1071     11.7091
   992.0000     63.3464      0.0000    563.9901     11.8198
   992.2500     61.4032      0.0000    561.4548     11.8999
   992.5000     60.9052      0.0000    559.4977     11.9377
   992.7500     63.2663      0.0000    558.1925     11.9314
   993.0000     69.6017      0.0000    562.9489     11.8944
   993.2500     80.1931      0.0000    577.3006     11.8487
   993.5000     93.9035      0.0000    597.6558     11.8080
   993.7500    108.0537      0.0000    616.0220     11.7703
   994.0000    119.4870      0.0000    627.9084     11.7301
   994.2500    126.3780      0.0000    635.8083     11.6911
   994.5000    129.2289      0.0000    644.3195     11.6652
   994.7500    130.2054      0.0000    654.3171     11.6636
   995.0000    131.3594      0.0000    663.2275     11.6924
   995.2500    133.2279      0.0000    668.9841     11.7532
   995.5000    135.0535      0.0000    671.7608     11.8435
   995.7500    136.0438      0.0000    672.8691     11.9571
   996.0000    135.9918      0.0000    673.3777     12.0820
   996.2500    134.9150      0.0000    673.8216     12.1945
   996.5000    132.7026      0.0000    674.5539     12.2681
   996.7500    129.2789      0.0000    676.0497     12.2984
   997.0000    124.8700      0.0000    678.7950     12.3135
   997.2500    119.8352      0.0000    682.4272     12.3477
   997.5000    114.3293      0.0000    684.5892     12.4073
   997.7500    108.5362      0.0000    680.7690     12.4688
   998.0000    103.3233      0.0000    666.0125     12.5082
   998.2500    100.0235      0.0000    637.7375     12.5252
   998.5000     99.0659      0.0000    597.9921     12.5417
   998.7500     99.1905      0.0000    553.2652     12.5810
   999.0000     98.5579      0.0000    510.8835     12.6472
   999.2500     96.5906      0.0000    474.7769     12.7222
   999.5000     94.4046      0.0000    445.3293     12.7813
   999.7500     93.4982      0.0000    423.2253     12.8128
  1000.0000     94.3668      0.0000    411.7377     12.8203
  1000.2500     96.4617      0.0000    414.5397     12.8048
  1000.5000     99.1335      0.0000    431.5037     12.7471
  1000.7500    102.1552      0.0000    456.4970     12.6031
  1001.0000    105.2208      0.0000    479.5461     12.3259
  1001.2500    107.3345      0.0000    492.8382     11.9006
  1001.5000    107.3014      0.0000    496.1099     11.3544
  1001.7500    105.0271      0.0000    496.2586     10.7317
  1002.0000    102.0694      0.0000    501.1833     10.0863
  1002.2500    100.5897      0.0000    512.7693      9.5070
  1002.5000    101.6683      0.0000    524.7197      9.0954
  1002.7500    104.6234      0.0000    528.2439      8.8872
  1003.0000    107.8055      0.0000    520.9352      8.8279
  1003.2500    109.9058     -3.0000    509.0025      8.8472
