~Version Information
VERS.                      2.0: CWLS Log ASCII Standard - VERSION 2.0
WRAP.                       NO: One line per depth step
~Well Information Block
STRT.FT               480.0000: 
STOP.FT              1946.0000: 
STEP.FT                 0.2500: 
NULL.                -999.2500: 
COMP.          XTO Energy Inc.: COMPANY
WELL.          Golden Eagle 19-15: WELL
FLD.           Purgatoire River: FIELD
LOC.           1121' FSL & 2332' FEL--: LOCATION
CNTY.               Las Animas: COUNTY
SRVC.                Patterson: SERVICE COMPANY
DATE.          Sun Mar 12 15:00:51 2006: LOG DATE
UWI.           05 071 08717 00: UNIQUE WELL ID
STAT.                 Colorado: STATE
~Curve Information Block
DEPT.FT            0 000 00 00: Depth
SP.mV                         : DIL Spontaneous Potential
RILD.Ohm-m                    : DIL Deep Resistivity
RILM.Ohm-m                    : DIL Medium Resistivity
RLL3.Ohm-m                    : DIL Shallow Resistivity
GR.GAPI                       : Gamma Ray
~Parameter Information Block
~A  Depth        SP         RILD        RILM        RLL3         GR     
# ...
  1823.0000     39.9981      7.9100      7.8967      9.2257    127.3033
  1823.2500     39.8698      8.0842      8.0765      9.3782    127.0689
  1823.5000     39.7225      8.2509      8.3295      9.9137    125.4109
  1823.7500     39.5705      8.4091      8.6493     10.7556    123.4462
  1824.0000     39.4248      8.5679      9.0271     11.7907    120.0457
  1824.2500     39.2943      8.7420      9.4486     12.8698    117.9787
  1824.5000     39.1844      8.9472      9.8948     13.8290    115.6320
  1824.7500     39.0967      9.1957     10.3456     14.5304    114.6226
  1825.0000     39.0265      9.4934     10.7880     14.9043    113.5894
  1825.2500     38.9589      9.8381     11.2221     14.9695    112.7259
  1825.5000     38.8692     10.2180     11.6604     14.8236    110.2762
  1825.7500     38.7345     10.6111     12.1191     14.6024    107.8161
  1826.0000     38.5509     10.9855     12.6064     14.4295    103.9222
  1826.2500     38.3404     11.3024     13.1120     14.3772    102.0423
  1826.5000     38.1376     11.5229     13.6035     14.4558    100.9704
  1826.7500     37.9637     11.6179     14.0293     14.6287    101.1829
  1827.0000     37.8083     11.5787     14.3274     14.8383    102.1313
  1827.2500     37.6378     11.4216     14.4399     15.0242    102.9166
  1827.5000     37.4266     11.1826     14.3280     15.1265    104.2610
  1827.7500     37.1791     10.9042     13.9865     15.0826    105.4378
  1828.0000     36.9232     10.6228     13.4503     14.8305    108.2938
  1828.2500     36.6838     10.3599     12.7877     14.3292    111.3330
  1828.5000     36.4668     10.1223     12.0823     13.5875    117.5134
  1828.7500     36.2590      9.9059     11.4095     12.6830    122.0597
  1829.0000     36.0384      9.7020     10.8216     11.7528    128.1254
  1829.2500     35.7870      9.5016     10.3419     10.9512    131.1981
  1829.5000     35.5065      9.2969      9.9688     10.3943    134.3541
  1829.7500     35.2265      9.0816      9.6826     10.1184    135.8631
  1830.0000     34.9941      8.8509      9.4542     10.0757    138.3933
  1830.2500     34.8462      8.6046      9.2529     10.1661    140.9962
  1830.5000     34.7873      8.3500      9.0537     10.2833    146.6871
  1830.7500     34.7924      8.1021      8.8415     10.3480    151.1603
  1831.0000     34.8317      7.8790      8.6125     10.3173    157.4844
  1831.2500     34.8895      7.6963      8.3722     10.1750    160.8962
  1831.5000     34.9628      7.5627      8.1313      9.9213    164.5212
  1831.7500     35.0507      7.4798      7.9025      9.5707    165.9311
  1832.0000     35.1473      7.4440      7.6987      9.1545    166.5619
  1832.2500     35.2466      7.4489      7.5323      8.7220    165.9672
  1832.5000     35.3518      7.4868      7.4154      8.3375    163.4282
  1832.7500     35.4755      7.5479      7.3591      8.0770    160.6340
  1833.0000     35.6311      7.6207      7.3733      8.0253    154.9622
  1833.2500     35.8244      7.6932      7.4654      8.2693    150.2762
  1833.5000     36.0500      7.7563      7.6379      8.8776    142.0362
  1833.7500     36.2941      7.8070      7.8845      9.8638    136.0387
  1834.0000     36.5386      7.8495      8.1858     11.1469    127.3907
  1834.2500     36.7661      7.8935      8.5083     12.5358    122.6904
  1834.5000     36.9656      7.9508      8.8097     13.7636    118.3582
  1834.7500     37.1360      8.0316      9.0538     14.5728    117.4183
  1835.0000     37.2831      8.1416      9.2270     14.8179    118.0777
  1835.2500     37.4105      8.2800      9.3450     14.5319    118.9632
  1835.5000     37.5131      8.4384      9.4425     13.9188    119.2519
  1835.7500     37.5810      8.5994      9.5548     13.2719    117.9800
  1836.0000     37.6119      8.7390      9.6985     12.8552    113.2414
  1836.2500     37.6201      8.8344      9.8619     12.8042    108.3965
  1836.5000     37.6312      8.8745     10.0041     13.0819    100.3371
  1836.7500     37.6697      8.8658     10.0692     13.5052     96.0995
  1837.0000     37.7475      8.8282     10.0148     13.8290     93.9641
  1837.2500     37.8560      8.7837      9.8408     13.8564     95.7922
  1837.5000     37.9629      8.7463      9.5953     13.5299    101.9764
  1837.7500     38.0246      8.7189      9.3504     12.9576    106.6631
  1838.0000     38.0109      8.6967      9.1687     12.3567    111.4940
  1838.2500     37.9213      8.6722      9.0815     11.9381    112.3680
  1838.5000     37.7808      8.6397      9.0836     11.7983    110.8188
  1838.7500     37.6239      8.5973      9.1422     11.8799    108.8766
  1839.0000     37.4814      8.5471      9.2135     12.0226    105.8372
  1839.2500     37.3716      8.4951      9.2640     12.0683    104.0005
  1839.5000     37.2951      8.4505      9.2841     11.9500    101.6289
  1839.7500     37.2392      8.4238      9.2873     11.7113    100.2806
  1840.0000     37.1883      8.4234      9.2949     11.4553     98.5520
  1840.2500     37.1320      8.4526      9.3212     11.2688     97.6055
  1840.5000     37.0637      8.5076      9.3676     11.1757     96.4285
  1840.7500     36.9765      8.5795      9.4257     11.1465     95.7059
  1841.0000     36.8628      8.6575      9.4866     11.1450     94.7930
  1841.2500     36.7191      8.7326      9.5487     11.1746     94.6320
  1841.5000     36.5542      8.7991      9.6197     11.2896     95.7007
  1841.7500     36.3898      8.8527      9.7107     11.5633     97.2350
  1842.0000     36.2519      8.8886      9.8268     12.0319     99.5739
  1842.2500     36.1601      8.9012      9.9584     12.6492    100.1586
  1842.5000     36.1222      8.8872     10.0813     13.2816     98.7615
  1842.7500     36.1319      8.8482     10.1638     13.7524     96.8659
  1843.0000     36.1682      8.7916     10.1810     13.9124     94.7218
  1843.2500     36.2035      8.7281     10.1274     13.7016     94.8616
  1843.5000     36.2191      8.6666     10.0194     13.1693     97.8309
  1843.7500     36.2153      8.6100      9.8863     12.4473    100.9450
  1844.0000     36.2062      8.5540      9.7562     11.6963    105.4473
  1844.2500     36.2054      8.4896      9.6455     11.0515    107.5687
  1844.5000     36.2147      8.4080      9.5543     10.5877    109.2780
  1844.7500     36.2234      8.3051      9.4697     10.3104    109.7431
  1845.0000     36.2161      8.1840      9.3727     10.1697    109.8999
  1845.2500     36.1823      8.0546      9.2469     10.0884    109.8267
  1845.5000     36.1233      7.9303      9.0857      9.9923    109.9852
  1845.7500     36.0548      7.8241      8.8950      9.8319    110.7598
  1846.0000     36.0016      7.7447      8.6905      9.5917    113.4335
  1846.2500     35.9857      7.6940      8.4928      9.2878    115.9561
  1846.5000     36.0136      7.6675      8.3225      8.9610    119.6568
  1846.7500     36.0718      7.6564      8.1961      8.6674    121.4880
  1847.0000     36.1302      7.6510      8.1239      8.4679    123.0234
  1847.2500     36.1557      7.6433      8.1084      8.4128    123.3348
  1847.5000     36.1316      7.6282      8.1433      8.5256    122.9556
  1847.7500     36.0728      7.6033      8.2136      8.7893    122.2679
  1848.0000     36.0235      7.5695      8.2964      9.1447    120.5504
  1848.2500     36.0358      7.5314      8.3662      9.5031    118.7118
  1848.5000     36.1384      7.4969      8.4013      9.7712    114.9296
  1848.7500     36.3180      7.4757      8.3914      9.8795    112.5165
  1849.0000     36.5264      7.4765      8.3418      9.8021    111.1777
  1849.2500     36.7088      7.5039      8.2712      9.5617    112.4559
  1849.5000     36.8299      7.5571      8.2048      9.2198    116.6710
  1849.7500     36.8807      7.6299      8.1656      8.8587    119.7594
  1850.0000     36.8717      7.7111      8.1690      8.5625    123.2037
  1850.2500     36.8261      7.7875      8.2209      8.4001    124.4324
  1850.5000     36.7762      7.8462      8.3184      8.4134    124.5683
  1850.7500     36.7540      7.8776      8.4522      8.6110    123.2691
