~Version Information
VERS.                      2.0: CWLS Log ASCII Standard - VERSION 2.0
WRAP.                       NO: One line per depth step
~Well Information Block
STRT.FT               -10.0000: 
STOP.FT              1703.5000: 
STEP.FT                 0.2500: 
NULL.                -999.2500: 
COMP.          Pioneer Natural Resources: COMPANY
WELL.          Parrothead 31-31 Tr: WELL
FLD.           Purgatoire River: FIELD
LOC.           496' FNL & 1546' FEL--: LOCATION
PROV.                       CO: PROVINCE
CNTY.               Las Animas: COUNTRY
SRVC.          Patterson Wireline: SERVICE COMPANY
DATE.          Mon Nov 14 09:44:02 2005: LOG DATE
UWI.           05 071 08610 00: UNIQUE WELL ID
~Curve Information Block
DEPT.FT            0 000 00 00: Depth
CCL.                          : Casing Collar Locator
TT3.usec                      : CBL 3' Travel Time
AMP3.mV                       : CBL 3' Amplitude
GR.GAPI                       : Gamma Ray
~Parameter Information Block
~A  Depth       CCL         TT3         AMP3         GR     
# ...
   425.5000      0.0000    883.5397     11.6688    101.2941
   425.7500      0.0000    887.4859     11.6713    102.2592
   426.0000      0.0000    893.0605     11.6632    105.5153
   426.2500      0.0000    899.4746     11.6217    109.9816
   426.5000      0.0000    905.3820     11.5359    113.7175
   426.7500      0.0000    909.1002     11.4089    115.3850
   427.0000      0.0000    909.0300     11.2538    114.9091
   427.2500      0.0000    904.6608     11.0864    113.0415
   427.5000      0.0000    897.2827     10.9218    110.8485
   427.7500      0.0000    889.1701     10.7747    109.5272
   428.0000      0.0000    881.9454     10.6547    109.9792
   428.2500      0.0000    876.1226     10.5597    112.1933
   428.5000      0.0000    872.1036     10.4776    115.1044
   428.7500      0.0000    870.6669     10.3998    117.0266
   429.0000      0.0000    871.8306     10.3283    116.2329
   429.2500      0.0000    873.9295     10.2680    111.5943
   429.5000      0.0000    874.6088     10.2196    103.2481
   429.7500      0.0000    872.1077     10.1795     92.8674
   430.0000      0.0000    864.9899     10.1392     83.1099
   430.2500      0.0000    852.0852     10.0825     76.4047
   430.5000      0.0000    834.1425      9.9995     73.7033
   430.7500      0.0000    814.7418      9.9108     73.8525
   431.0000      0.0000    798.5059      9.8716     74.2181
   431.2500      0.0000    788.5590      9.9394     72.4352
   431.5000      0.0000    785.4026     10.1309     67.8754
   431.7500      0.0000    787.1823     10.4049     61.5256
   432.0000      0.0000    790.9074     10.6886     54.8351
   432.2500      0.0000    794.1403     10.9217     48.9513
   432.5000      0.0000    795.9835     11.0817     44.6564
   432.7500      0.0000    796.7639     11.1789     42.4380
   433.0000      0.0000    797.1263     11.2331     42.4184
   433.2500      0.0000    797.4502     11.2590     44.2209
   433.5000      0.0000    797.7627     11.2702     46.9110
   433.7500      0.0000    797.9313     11.2923     49.2840
   434.0000      0.0000    797.8835     11.3634     50.6127
   434.2500      0.0000    797.6915     11.5065     51.2476
   434.5000      0.0000    797.5046     11.6990     52.1242
   434.7500      0.0000    797.4378     11.8802     53.4016
   435.0000      0.0000    797.5146     11.9964     53.9934
   435.2500      0.0000    797.6769     12.0398     52.9344
   435.5000      0.0000    797.8340     12.0444     50.8171
   435.7500      0.0000    797.9252     12.0523     49.2535
   436.0000      0.0000    797.9583     12.0833     49.2563
   436.2500      0.0000    797.9879     12.1302     50.6611
   436.5000      0.0000    798.0519     12.1713     52.7010
   436.7500      0.0000    798.1396     12.1842     54.5226
   437.0000      0.0000    798.2239     12.1522     55.3998
   437.2500      0.0000    798.3065     12.0662     55.1042
   437.5000      0.0000    798.4172     11.9327     54.1774
   437.7500      0.0000    798.5745     11.7816     53.5442
   438.0000      0.0000    798.7277     11.6553     53.7876
   438.2500      0.0000    798.7099     11.5816     54.7802
   438.5000      0.0000    798.2181     11.5543     55.8914
   438.7500      0.0000    796.9361     11.5386     56.6563
   439.0000      0.0000    794.9109     11.4939     57.4475
   439.2500      0.0000    792.9199     11.4003     59.4047
   439.5000      0.0000    792.1669     11.2724     63.4426
   439.7500      0.0000    793.2571     11.1499     69.4421
   440.0000      0.0000    795.5581     11.0672     76.4762
   440.2500      0.0000    797.7850     11.0269     83.2741
   440.5000      0.0000    799.0689     10.9982     88.3403
   440.7500      0.0000    799.3139     10.9279     90.6540
   441.0000      0.0000    798.7942     10.7454     90.8249
   441.2500      0.0000    797.6608     10.3686     90.7584
   441.5000      0.0000    796.0948      9.7531     91.8065
   441.7500      0.0000    795.4153      8.9739     93.9871
   442.0000      0.0000    799.5628      8.2399     97.0368
   442.2500      0.0000    814.8862      7.7670    100.9762
   442.5000      0.0000    846.0292      7.6241    105.1869
   442.7500      0.0000    890.2648      7.7235    107.9786
   443.0000      0.0000    937.6661      7.9314    107.8047
   443.2500      0.0000    979.2916      8.1447    104.4992
   443.5000      0.0000   1013.4561      8.2953     99.0784
   443.7500      0.0000   1041.8235      8.3519     92.9519
   444.0000     -2.0000   1062.3871      8.3355     87.6090
   444.2500      0.0000   1068.6564      8.3216     84.3761
   444.5000      0.0000   1053.2117      8.4094     83.7407
   444.7500      0.0000   1012.1899      8.6553     84.8872
   445.0000      0.0000    950.5648      9.0145     86.2327
   445.2500      0.0000    883.2295      9.3785     86.4309
   445.5000      0.0000    827.3203      9.7013     84.8022
   445.7500      0.0000    792.2488     10.0384     81.3076
   446.0000      0.0000    777.1397     10.4271     76.7214
   446.2500      0.0000    775.4386     10.7979     72.5738
   446.5000      0.0000    780.0565     11.0532     70.3365
   446.7500      0.0000    785.8524     11.1806     70.5434
   447.0000      0.0000    790.2078     11.2485     72.7332
   447.2500      0.0000    792.5965     11.3188     75.9556
   447.5000      0.0000    793.5828     11.3986     79.0446
   447.7500      0.0000    793.8796     11.4677     80.6322
   448.0000      0.0000    793.9422     11.5253     79.5871
   448.2500      0.0000    793.9716     11.5944     75.8903
   448.5000      0.0000    794.0284     11.6879     70.9521
   448.7500      0.0000    794.1065     11.7871     66.7714
   449.0000      0.0000    794.1769     11.8603     64.5684
   449.2500      0.0000    794.1935     11.8936     63.9762
   449.5000      0.0000    794.0447     11.9025     63.4457
   449.7500      0.0000    793.4724     11.9158     61.5855
   450.0000      0.0000    792.1472     11.9503     58.3094
   450.2500      0.0000    790.0676     11.9994     54.8356
   450.5000      0.0000    787.9772     12.0433     52.8301
   450.7500      0.0000    787.0781     12.0699     53.4658
   451.0000      0.0000    787.9949     12.0822     56.8146
   451.2500      0.0000    790.1489     12.0885     61.7063
   451.5000      0.0000    792.3587     12.0903     66.2011
   451.7500      0.0000    793.8628     12.0836     68.6204
   452.0000      0.0000    794.6197     12.0698     68.4732
   452.2500      0.0000    794.8948     12.0575     66.4776
   452.5000      0.0000    794.8082     12.0521     63.6610
   452.7500      0.0000    794.1522     12.0463     60.4852
   453.0000      0.0000    792.4742     12.0219     56.8649
   453.2500      0.0000    789.3835     11.9612     52.8713
   453.5000      0.0000    784.8854     11.8563     49.1581
   453.7500      0.0000    779.3901     11.7137     46.7387
   454.0000      0.0000    773.4479     11.5565     46.6316
   454.2500      0.0000    767.6402     11.4212     49.6369
   454.5000      0.0000    762.6342     11.3438     55.9434
   454.7500      0.0000    758.9901     11.3439     64.6615
   455.0000      0.0000    756.8224     11.4204     74.0545
   455.2500      0.0000    755.7970     11.5605     82.6384
   455.5000      0.0000    755.4514     11.7522     90.1455
   455.7500      0.0000    755.4462     11.9895     97.3313
   456.0000      0.0000    755.6042     12.2710    104.7241
   456.2500      0.0000    755.8506     12.5942    111.6014
   456.5000      0.0000    756.1639     12.9500    116.3787
   456.7500      0.0000    756.5312     13.3219    117.9632
   457.0000      0.0000    756.9471     13.6913    116.5517
   457.2500      0.0000    757.4772     14.0453    113.4032
   457.5000      0.0000    758.3621     14.3767    110.2253
   457.7500      0.0000    759.9755     14.6729    108.4101
   458.0000      0.0000    762.4977     14.9029    108.2112
   458.2500      0.0000    765.6430     15.0278    108.6411
   458.5000      0.0000    768.9965     15.0403    108.4332
   458.7500      0.0000    772.6788     14.9938    106.9227
