~Version Information
 VERS.                                  2.0 : CWLS LAS VERSION
 WRAP.                                   NO : WRAPING MODE
 SWARE .                 MController 2.5.0N : SOFTWARE VERSION
~Well Information
 WELL.                       GAMMA 13-03 TR : WELL
 COMP.    PIONEER NATURAL RESOURCES USA INC : COMPANY
 FLD.                      PURGATOIRE RIVER : FIELD
 LOC.                 NW/SW SEC 3 T33S R67W : LOCATION
 DATE.                          09/18-19/05 : DATE(S) LOGGED
 SRVC.       BLANCO GEOLOGICAL SERVICES LLC : SERVICE COMPANY
 STAT.                             COLORADO : STATE
 CNTY.                           LAS ANIMAS : COUNTY
 CTRY.                                  USA : COUNTRY
 API.                       05-071-08524-00 : API NUMBER
 STRT.FT                             446.00 : START DEPTH
 STOP.FT                            1371.00 : STOP DEPTH
 STEP.FT                               1.00 : DEPTH INCREMENT
 NULL.                                -9999 : NULL VALUE
~Curve information
 DEPTH.FT                                   :
 ROP.MIN/FT                                 :
 GAS.UNITS                                  :
~ASCII Log data
# ...
       646.0         0.23          5.3 
       647.0         0.27          5.3 
       648.0         0.23          4.9 
       649.0         0.23          5.1 
       650.0         0.27          5.3 
       651.0         0.23          5.3 
       652.0         3.40          5.4 
       653.0         0.30          5.5 
       654.0         0.30          5.1 
       655.0         0.33          5.1 
       656.0         0.27          4.8 
       657.0         0.23          4.8 
       658.0         0.27          5.1 
       659.0         0.30          5.1 
       660.0         0.30          5.1 
       661.0         0.33          5.0 
       662.0         0.30          5.2 
       663.0         0.35          5.2 
       664.0         0.27          5.3 
       665.0         0.23          5.5 
       666.0         0.27          5.4 
       667.0         0.27          5.2 
       668.0         0.27          5.0 
       669.0         0.23          5.2 
       670.0         0.27          5.2 
       671.0         0.23          5.2 
       672.0         0.27          5.1 
       673.0         0.27          5.3 
       674.0         0.23          5.2 
       675.0         0.28          5.3 
       676.0         0.23          5.0 
       677.0         0.27          4.9 
       678.0         0.17          5.0 
       679.0         0.20          5.0 
       680.0         0.17          4.8 
       681.0         0.13          5.1 
       682.0         2.88          5.8 
       683.0         0.20          4.9 
       684.0         0.17          5.3 
       685.0         0.20          5.1 
       686.0         0.27          5.3 
       687.0         0.27          5.1 
       688.0         0.30          5.4 
       689.0         0.27          5.6 
       690.0         0.27          5.7 
       691.0         0.28          5.2 
       692.0         0.23          5.1 
       693.0         0.27          4.9 
       694.0         0.27          4.5 
       695.0         0.33          4.6 
       696.0         0.27          4.6 
       697.0         0.27          4.5 
       698.0         0.27          4.6 
       699.0         0.20          4.5 
       700.0         0.23          4.5 
       701.0         0.20          4.5 
       702.0         0.20          4.7 
       703.0         0.20          4.7 
       704.0         0.28          4.8 
       705.0         0.23          4.6 
       706.0         0.27          4.9 
       707.0         0.30          5.2 
       708.0         0.30          5.1 
       709.0         0.27          5.0 
       710.0         0.27          4.8 
       711.0         0.27          4.8 
       712.0         2.45          5.2 
       713.0         0.33          5.1 
       714.0         0.33          5.0 
       715.0         0.43          4.8 
       716.0         0.43          4.9 
       717.0         0.37          4.7 
       718.0         0.35          4.8 
       719.0         0.23          4.6 
       720.0         0.27          4.9 
       721.0         0.27          5.0 
       722.0         0.27          4.8 
       723.0         0.33          5.0 
       724.0         0.30          4.7 
       725.0         0.27          5.0 
       726.0         0.27          4.6 
       727.0         0.27          4.9 
       728.0         0.27          5.0 
       729.0         0.28          4.9 
       730.0         0.30          5.0 
       731.0         0.33          4.9 
       732.0         0.30          4.8 
       733.0         0.27          4.7 
       734.0         0.30          4.8 
       735.0         0.30          4.9 
       736.0         0.23          4.7 
       737.0         0.27          4.6 
       738.0         0.27          4.7 
       739.0         0.27          4.9 
       740.0         0.25          4.7 
       741.0         0.23          4.8 
       742.0         2.75          5.0 
       743.0         0.30          5.1 
       744.0         0.33          5.1 
       745.0         0.30          5.0 
       746.0         0.33          5.0 
       747.0         0.30          5.0 
       748.0         0.33          4.8 
       749.0         0.27          4.6 
       750.0         0.23          4.1 
       751.0         0.23          4.5 
       752.0         0.20          4.8 
       753.0         0.20          4.6 
       754.0         0.22          4.5 
       755.0         0.17          4.4 
       756.0         0.13          4.5 
       757.0         0.20          4.7 
       758.0         0.17          4.5 
       759.0         0.23          4.6 
       760.0         0.23          6.0 
       761.0         0.23          6.2 
       762.0         0.23          6.7 
       763.0         0.23          6.3 
       764.0         0.23          5.6 
       765.0         0.23          4.9 
       766.0         0.23          4.3 
       767.0         0.20          4.1 
       768.0         0.17          4.1 
       769.0         0.20          4.3 
       770.0         0.18          4.3 
       771.0         0.20          4.5 
       772.0         2.95          5.8 
       773.0         0.50          4.8 
       774.0         0.40          4.7 
       775.0         0.30          4.7 
       776.0         0.27          4.6 
       777.0         0.23          4.7 
       778.0         0.27          4.4 
       779.0         0.20          4.7 
       780.0         0.23          4.7 
       781.0         0.20          4.8 
       782.0         0.20          4.8 
       783.0         0.52          4.8 
       784.0         0.50          4.9 
       785.0         0.50          5.0 
       786.0         0.53          4.7 
       787.0         0.63          4.9 
       788.0         0.53          4.7 
       789.0         0.28          4.5 
       790.0         0.23          4.8 
       791.0         0.20          4.8 
       792.0         0.23          4.5 
       793.0         0.20          4.6 
       794.0         0.17          4.8 
       795.0         0.17          4.5 
       796.0         0.23          4.8 
       797.0         0.23          5.0 
       798.0         0.23          5.0 
       799.0         0.23          4.7 
       800.0         0.27          4.9 
       801.0         0.23          4.3 
       802.0         3.45          5.2 
       803.0         0.42          5.5 
       804.0         0.37          5.0 
       805.0         0.37          4.8 
       806.0         0.33          4.6 
       807.0         0.33          4.5 
       808.0         0.37          4.6 
       809.0         0.37          4.7 
       810.0         0.40          4.5 
       811.0         0.30          4.7 
       812.0         0.32          4.7 
       813.0         0.27          4.7 
       814.0         0.23          4.4 
       815.0         0.23          4.9 
       816.0         0.27          4.3 
       817.0         0.30          4.7 
       818.0         0.30          4.7 
       819.0         0.30          4.7 
       820.0         0.30          4.7 
       821.0         0.27          4.6 
       822.0         0.30          4.6 
       823.0         0.38          4.5 
       824.0         0.23          4.4 
       825.0         0.27          4.7 
       826.0         0.23          4.5 
       827.0         0.27          4.7 
       828.0         0.27          4.5 
       829.0         0.27          4.6 
       830.0         0.27          4.7 
       831.0         0.30          4.8 
       832.0         3.22          5.0 
       833.0         0.50          5.2 
       834.0         0.42          4.9 
       835.0         0.47          4.6 
       836.0         0.33          4.4 
       837.0         0.37          4.9 
       838.0         0.30          4.6 
       839.0         0.13          4.6 
       840.0         0.13          4.7 
       841.0         0.10          4.7 
       842.0         0.13          4.7 
       843.0         0.10          4.8 
       844.0         0.17          5.0 
       845.0         0.17          5.7 
