~Version Information
VERS.                      2.0: CWLS Log ASCII Standard - VERSION 2.0
WRAP.                       NO: One line per depth step
~Well Information Block
STRT.FT                -6.7500: 
STOP.FT              2034.2500: 
STEP.FT                 0.2500: 
NULL.                -999.2500: 
COMP.          Evergreen Operating Corp.: COMPANY
WELL.           Big Pine 32-15: WELL
FLD.           Purgatorie River: FIELD
LOC.           2590 FNL & 1442 FEL--: LOCATION
STAT.                       CO: State
CNTY.               Las Animas: COUNTY
CTRY. USA : Country
SECT. 15 : Section
TOWN. 33S : township
RANG. 67W : Range
SRVC.          Patterson Wireline, Inc.: SERVICE COMPANY
DATE.          Mon Mar 24 12:45:01 2003: LOG DATE
API.           05 071 07772 00: UNIQUE WELL ID
~Curve Information Block
DEPT.FT            0 000 00 00: Depth
HVOLTA.V                      : Head Voltage Apparent
CCL.                          : Casing Collar Locator
TT3.usec                      : CBL 3' Travel Time
AMP3.mV                       : CBL 3' Amplitude
GR.GAPI                       : Gamma Ray
~Parameter Information Block
~A  Depth      HVOLTA       CCL         TT3         AMP3         GR     
# ...
   945.2500    121.3660      0.0000    318.5275     19.3656     78.5607
   945.5000    121.3962      0.0000    319.2380     17.9856     75.9096
   945.7500    121.2540      0.0000    328.1653     16.8046     77.5681
   946.0000    121.1723      0.0000    343.5947     16.0289     82.0965
   946.2500    121.1998      0.0000    362.7518     15.2675     87.6305
   946.5000    121.4999      0.0000    389.2084     14.5646     92.7105
   946.7500    121.3406      0.0000    430.2579     14.1888     97.0527
   947.0000    121.4216      2.4014    477.4985     13.9590    101.5382
   947.2500    121.3907     -5.0000    514.6954     13.6295    107.0145
   947.5000    121.3763     -5.0000    552.8025     13.3183    113.3282
   947.7500    121.4525      0.0000    609.7483     13.1845    119.8495
   948.0000    121.9517      0.0000    654.7256     13.1219    126.2546
   948.2500    121.3117      0.0000    636.1560     13.0073    132.2664
   948.5000    121.2602      0.0000    562.1095     12.9339    137.4050
   948.7500    121.3419      0.0000    494.9904     12.9339    141.6746
   949.0000    121.2856      0.0000    476.0074     12.8931    145.9129
   949.2500    121.2877      0.0000    498.7289     12.9169    150.8215
   949.5000    121.4456      0.0000    544.1699     13.1548    155.8825
   949.7500    121.3955      0.0000    599.2064     13.4556    159.5068
   950.0000    121.3385      0.0000    646.3698     13.5754    160.2913
   950.2500    121.3110      0.0000    672.7722     13.3584    158.2885
   950.5000    121.2609      0.0000    682.0781     12.8129    155.1931
   950.7500    121.2334      0.0000    684.1004     12.1952    153.0456
   951.0000    121.2822      0.0000    684.4523     11.7161    152.5811
   951.2500    121.2534      0.0000    685.1595     11.3418    152.9059
   951.5000    121.3653      0.0000    687.2094     11.0552    152.6620
   951.7500    121.4175      0.0000    690.6071     10.8871    151.3676
   952.0000    121.3701      0.0000    693.8107     10.7671    149.7754
   952.2500    121.3701      0.0000    695.0345     10.7033    148.8311
   952.5000    121.3941      0.0000    693.7059     10.8457    148.1733
   952.7500    121.3124      0.0000    690.7447     11.1931    146.3504
   953.0000    121.2231      0.0000    688.7392     11.5394    142.9450
   953.2500    121.4415      0.0000    691.0767     11.7146    139.6264
   953.5000    121.3673      0.0000    700.2599     11.5839    138.5075
   953.7500    121.3392      0.0000    715.6982     11.0626    140.1490
   954.0000    121.2568      0.0000    732.3527     10.3492    143.4623
   954.2500    121.3351      0.0000    744.3621      9.7521    146.8718
   954.5000    121.3364      0.0000    750.1257      9.2868    149.3684
   954.7500    121.3660      0.0000    751.4207      8.7074    150.8081
   955.0000    121.2815      0.0000    749.3853      7.8836    151.4395
   955.2500    121.2870      0.0000    744.1368      6.9508    151.3926
   955.5000    121.3103      0.0000    737.2314      6.0083    150.7271
   955.7500    121.5452      0.0000    731.5753      5.0580    149.6527
   956.0000    121.2561      0.0000    728.5801      4.2782    148.4482
   956.2500    121.5026      0.0000    727.4753      3.8775    147.1186
   956.5000    121.2547      0.0000    727.1004      3.7919    145.2412
   956.7500    121.3660      0.0000    726.8724      3.7966    142.4557
   957.0000    121.3371      0.0000    726.5944      3.7462    139.1619
   957.2500    121.4182      0.0000    726.3395      3.5922    136.4382
   957.5000    121.3955      0.0000    726.6292      3.3321    135.3164
   957.7500    121.3934      0.0000    728.2574      3.0863    136.2883
   958.0000    121.2218      0.0000    730.9786      3.0407    139.0609
   958.2500    121.3406      0.0000    732.7875      3.2416    142.4468
   958.5000    121.3667      0.0000    732.5972      3.5636    145.0306
   958.7500    121.3900      0.0000    732.4647      3.8638    146.3917
   959.0000    121.2568      0.0000    734.4419      4.0773    147.2286
   959.2500    121.3941      0.0000    737.3564      4.1987    148.1080
   959.5000    121.3138      0.0000    738.6909      4.2694    148.5159
   959.7500    121.3687      0.0000    737.2668      4.3100    147.1409
   960.0000    121.2589      0.0000    733.6985      4.3042    143.0596
   960.2500    121.4779      0.0000    730.0227      4.2647    137.0027
   960.5000    121.3378      0.0000    727.9092      4.2214    131.2653
   960.7500    121.4209      0.0000    727.3047      4.2027    128.0227
   961.0000    121.2554      0.0000    727.8145      4.2276    127.9348
   961.2500    121.3969      0.0000    730.1036      4.2839    130.2828
   961.5000    121.3934      0.0000    734.4521      4.2968    133.7551
   961.7500    121.4202      0.0000    738.3647      4.1836    136.9937
   962.0000    121.4230      0.0000    738.2347      3.9391    139.1564
   962.2500    121.4223      0.0000    734.0774      3.6469    140.5578
   962.5000    121.3385      0.0000    729.4497      3.4663    142.7878
   962.7500    121.3625      0.0000    726.7814      3.4954    147.8669
   963.0000    121.3412      0.0000    725.8393      3.6333    156.9194
   963.2500    121.3927      0.0000    725.6537      3.6545    169.4646
   963.5000    121.2266      0.0000    725.6575      3.4764    183.5513
   963.7500    121.3406      0.0000    725.5842      3.2824    196.0224
   964.0000    121.2856      0.0000    725.3953      3.2272    203.1539
   964.2500    121.3667      0.0000    725.2817      3.2689    202.2223
   964.5000    121.3412      0.0000    725.3325      3.3501    192.9373
   964.7500    121.4463      0.0000    725.3564      3.4539    177.4366
   965.0000    121.3131      0.0000    725.2140      3.5391    159.3306
   965.2500    121.4772      0.0000    725.0281      3.6008    142.5304
   965.5000    121.4436      0.0000    724.9736      3.7200    129.7389
   965.7500    121.4484      0.0000    725.1202      3.8984    121.4561
   966.0000    121.4786      0.0000    725.7466      4.0092    116.6793
   966.2500    121.5308      0.0000    727.5096      3.9862    114.2442
   966.5000    121.3914      0.0000    730.1814      3.9080    113.0124
   966.7500    121.3941      0.0000    731.6056      3.8865    111.6400
   967.0000    121.3186      0.0000    730.1714      3.8855    109.4608
   967.2500    121.3948      0.0000    727.2618      3.8231    107.3322
   967.5000    121.4806      0.0000    725.0176      3.7842    106.6559
   967.7500    121.3412      0.0000    723.8912      3.8406    107.8869
   968.0000    121.2231      0.0000    723.3143      3.9013    110.6939
   968.2500    121.4497      0.0000    722.7092      3.8568    114.7552
   968.5000    121.5960      0.0000    721.8087      3.7172    119.4499
   968.7500    121.3948      0.0000    720.7303      3.6060    123.4446
   969.0000    121.7986      0.0000    719.3771      3.5515    125.5648
   969.2500    121.3914      0.0000    717.4553      3.5061    125.9213
   969.5000    121.3687      0.0000    716.7720      3.5552    125.8682
   969.7500    121.2568      0.0000    721.3675      3.7447    127.1966
   970.0000    121.3653      0.0000    731.1055      3.9421    131.4679
   970.2500    121.3406      0.0000    738.9078      4.0212    139.4602
   970.5000    121.4223      0.0000    739.2258      3.9932    150.4674
   970.7500    121.4209      0.0000    734.5619      3.9743    161.9896
   971.0000    121.4497      0.0000    731.2515      3.9906    170.7157
   971.2500    121.5047      0.0000    732.2573      3.9780    174.6183
   971.5000    121.4195      0.0000    735.4323      3.9704    174.3046
   971.7500    122.9865      0.0000    737.4540      3.9896    171.9669
   972.0000    121.3131      0.0000    737.3791      4.0058    169.0210
   972.2500    121.4223      0.0000    737.0507      4.0618    165.1710
   972.5000    121.3715      0.0000    739.3640      4.1313    159.8006
   972.7500    121.3886      0.0000    744.7405      4.1658    153.8010
   973.0000    121.2602      0.0000    750.8397      4.2928    149.4211
