~Version Information
VERS.                      2.0: CWLS Log ASCII Standard - VERSION 2.0
WRAP.                       NO: One line per depth step
~Well Information Block
STRT.FT                -7.5000: 
STOP.FT               988.5000: 
STEP.FT                 0.2500: 
NULL.                -999.2500: 
COMP.          Pioneer Natural Resources: COMPANY
WELL.          Stags Leap 13-30: WELL
FLD.           Purgatorie River: FIELD
LOC.           1813' FSL & 117' FWL--: LOCATION
PROV.                       CO: PROVINCE
CNTY.               Las Animas: COUNTRY
SRVC.          Patterson Wireline: SERVICE COMPANY
DATE.          Tue Dec 13 11:29:26 2005: LOG DATE
UWI.           05 071 08595 00: UNIQUE WELL ID
~Curve Information Block
DEPT.FT            0 000 00 00: Depth
CCL.                          : Casing Collar Locator
TT3.usec                      : CBL 3' Travel Time
AMP3.mV                       : CBL 3' Amplitude
GR.GAPI                       : Gamma Ray
~Parameter Information Block
~A  Depth       CCL         TT3         AMP3         GR     
# ...
   461.5000      0.0000    813.6598      9.1336    144.7877
   461.7500      0.0000    820.6509      9.1517    141.3908
   462.0000      0.0000    825.4595      9.1399    140.0506
   462.2500      0.0000    827.9791      9.0711    140.1389
   462.5000      0.0000    828.9913      8.9458    139.3782
   462.7500      0.0000    829.3349      8.7944    135.4485
   463.0000      0.0000    829.5309      8.6550    127.9450
   463.2500      0.0000    829.8459      8.5476    118.7010
   463.5000      0.0000    830.4940      8.4686    110.0626
   463.7500      0.0000    831.9282      8.4067    103.0448
   464.0000      0.0000    835.0721      8.3602     97.1124
   464.2500      0.0000    841.0303      8.3348     91.2782
   464.5000      0.0000    850.0608      8.3313     85.4242
   464.7500      0.0000    860.5106      8.3425     80.8599
   465.0000      0.0000    868.8948      8.3620     79.5085
   465.2500      0.0000    871.5024      8.3927     82.3503
   465.5000      0.0000    866.4743      8.4460     88.7595
   465.7500      0.0000    854.7899      8.5324     97.2511
   466.0000      0.0000    839.5849      8.6471    106.3849
   466.2500      0.0000    824.4930      8.7658    114.8983
   466.5000      0.0000    811.9804      8.8613    121.8573
   466.7500      0.0000    802.4255      8.9251    127.4059
   467.0000      0.0000    794.6567      8.9666    132.8001
   467.2500      0.0000    787.7173      8.9968    138.5665
   467.5000      0.0000    782.0089      9.0148    142.6435
   467.7500      0.0000    778.6641      9.0133    141.5610
   468.0000      0.0000    778.3477      8.9940    134.1219
   468.2500      0.0000    780.7228      8.9754    123.1641
   468.5000      0.0000    784.2025      8.9829    113.1732
   468.7500      0.0000    786.2113      9.0277    106.7258
   469.0000      0.0000    784.6806      9.0967    103.4951
   469.2500      0.0000    779.6073      9.1634    101.8207
   469.5000      0.0000    772.7790      9.2064    100.7980
   469.7500      0.0000    766.2587      9.2213    101.4301
   470.0000      0.0000    761.5264      9.2196    105.8773
   470.2500      0.0000    759.4564      9.2131    114.8645
   470.5000      0.0000    760.0901      9.1966    125.7506
   470.7500      0.0000    762.4114      9.1467    133.8911
   471.0000      0.0000    764.9470      9.0415    136.2391
   471.2500      0.0000    766.7899      8.8862    133.5622
   471.5000      0.0000    767.9714      8.7211    129.5247
   471.7500      0.0000    768.9011      8.5980    127.9322
   472.0000      0.0000    769.4516      8.5332    130.2112
   472.2500      0.0000    768.6512      8.4900    134.6397
   472.5000      0.0000    765.5561      8.4180    137.8632
   472.7500      0.0000    760.5051      8.3078    137.5496
   473.0000      0.0000    755.1259      8.1952    133.8793
   473.2500      0.0000    750.9830      8.1223    128.9441
   473.5000      0.0000    748.4857      8.1134    125.2405
   473.7500      0.0000    747.0336      8.1760    124.3497
   474.0000      0.0000    745.6996      8.3023    126.0497
   474.2500      0.0000    743.7483      8.4721    128.5800
   474.5000      0.0000    741.0543      8.6693    130.3448
   474.7500      0.0000    738.4243      8.8929    131.4099
   475.0000      0.0000    737.1611      9.1419    133.0507
   475.2500      0.0000    737.8228      9.3891    135.8352
   475.5000      0.0000    739.4551      9.5818    138.3168
   475.7500      0.0000    740.3672      9.6744    137.8541
   476.0000      0.0000    739.7410      9.6647    133.0480
   476.2500      0.0000    738.4733      9.5979    125.6759
   476.5000      0.0000    738.4952      9.5373    120.1421
   476.7500      0.0000    741.1309      9.5259    120.6384
   477.0000      0.0000    745.8983      9.5683    128.1103
   477.2500      0.0000    750.8071      9.6422    139.2341
   477.5000      0.0000    753.9204      9.7250    148.0739
   477.7500      0.0000    754.9500      9.8101    149.3987
   478.0000      0.0000    755.5182      9.8993    141.5823
   478.2500      0.0000    757.6474      9.9877    127.3033
   478.5000      0.0000    761.7527     10.0542    111.8849
   478.7500      0.0000    766.1173     10.0641    100.7836
   479.0000      0.0000    768.3153      9.9868     97.5692
   479.2500      0.0000    766.9617      9.8184    102.5614
   479.5000      0.0000    762.1133      9.5870    112.7052
   479.7500      0.0000    754.6216      9.3352    123.7974
   480.0000      0.0000    745.7302      9.1013    133.6549
   480.2500      0.0000    737.1880      8.9162    142.5671
   480.5000      0.0000    730.9870      8.8030    150.4523
   480.7500      0.0000    728.2131      8.7601    155.0876
   481.0000      0.0000    727.8551      8.7407    154.4523
   481.2500      0.0000    726.9440      8.6611    149.8746
   481.5000      0.0000    721.7623      8.4634    145.2848
   481.7500      0.0000    709.8021      8.1916    143.7080
   482.0000      0.0000    693.2411      7.9752    145.4121
   482.2500      0.0000    681.4010      7.8967    148.8266
   482.5000      0.0000    685.8312      7.9018    151.9104
   482.7500      0.0000    709.0469      7.8825    152.4332
   483.0000      0.0000    740.4263      7.8114    148.2811
   483.2500      0.0000    766.6068      7.7423    138.9186
   483.5000      0.0000    784.1074      7.7203    126.5495
   483.7500      0.0000    799.2593      7.7426    115.0828
   484.0000      2.0000    817.9347      7.7886    107.7664
   484.2500      0.0000    838.0543      7.8545    105.6167
   484.5000      0.0000    851.0884      7.9637    107.1249
   484.7500      0.0000    849.1965      8.1458    108.8670
   485.0000      0.0000    831.5655      8.3968    107.2291
   485.2500      0.0000    805.0773      8.6774    100.7581
   485.5000      0.0000    779.1768      8.9611     91.1734
   485.7500      0.0000    760.1060      9.2498     81.9055
   486.0000      0.0000    749.0181      9.5221     75.7564
   486.2500      0.0000    743.8152      9.7087     73.9784
   486.5000      0.0000    741.8107      9.7485     76.6593
   486.7500      0.0000    741.1448      9.6466     82.8431
   487.0000      0.0000    740.9355      9.4648     90.6378
   487.2500      0.0000    740.8572      9.2696     98.5281
   487.5000      0.0000    740.8019      9.0963    106.6523
   487.7500      0.0000    740.7360      8.9498    115.6920
   488.0000      0.0000    740.6720      8.8232    124.4475
   488.2500      0.0000    740.6582      8.7155    129.6998
   488.5000      0.0000    740.7384      8.6391    128.8378
   488.7500      0.0000    740.8772      8.6135    121.9724
   489.0000      0.0000    740.8456      8.6484    111.4252
   489.2500      0.0000    740.0862      8.7314     99.9120
   489.5000      0.0000    737.7077      8.8317     89.3992
   489.7500      0.0000    732.8898      8.9102     81.0430
   490.0000      0.0000    725.6792      8.9323     75.3989
   490.2500      0.0000    717.4762      8.8857     72.2874
   490.5000      0.0000    710.4445      8.7896     70.7840
   490.7500      0.0000    706.2439      8.6787     70.0082
   491.0000      0.0000    705.2516      8.5772     70.2485
   491.2500      0.0000    706.6498      8.4931     73.1071
   491.5000      0.0000    708.9384      8.4288     80.2356
   491.7500      0.0000    710.7769      8.3893     91.7575
   492.0000      0.0000    712.0055      8.3806    105.9730
   492.2500      0.0000    713.7133      8.4075    120.5668
   492.5000      0.0000    716.8382      8.4730    133.6480
   492.7500      0.0000    720.9819      8.5772    143.4582
   493.0000      0.0000    725.0903      8.7176    148.1573
   493.2500      0.0000    728.8079      8.8859    147.1196
   493.5000      0.0000    732.4413      9.0616    142.3201
   493.7500      0.0000    735.9625      9.2132    137.5540
   494.0000      0.0000    738.8250      9.3145    135.7351
   494.2500      0.0000    740.6136      9.3605    136.7853
   494.5000      0.0000    741.3167      9.3674    138.1889
   494.7500      0.0000    740.9917      9.3617    137.7576
