~Version Information
VERS.                      2.0: CWLS Log ASCII Standard - VERSION 2.0
WRAP.                       NO: One line per depth step
~Well Information Block
STRT.FT               262.8000: 
STOP.FT              1134.7000: 
STEP.FT                 0.1000: 
NULL.                -999.2500: 
COMP.          Pioneer Natural Resources: COMPANY
WELL.          Black Cat 13-32 Tr: WELL
FLD.           Purgatoire River: FIELD
LOC.           1679' FSL & 1150' FWL--: LOCATION
CNTY.               Las Animas: COUNTY
SRVC.                Patterson: SERVICE COMPANY
DATE.          Tue Mar 07 12:42:54 2006: LOG DATE
UWI.           05 071 08721 00: UNIQUE WELL ID
STAT.                 Colorado: STATE
~Curve Information Block
DEPT.FT            0 000 00 00: Depth
DCAL.in                       : CDL Caliper
RHOB.g/cc                     : CDL Bulk Density
RHOC.g/cc                     : CDL Density Correction
DPOR.pu                       : CDL Density Porosity
GR.GAPI                       : Gamma Ray
~Parameter Information Block
~A  Depth       DCAL        RHOB        RHOC        DPOR         GR     
# ...
   386.0000      7.9617      2.4460     -0.0154     12.3649     61.5525
   386.1000      7.9617      2.4564      0.0824     11.7343     59.8442
   386.2000      7.9617      2.4543      0.0365     11.8601     61.7494
   386.3000      7.9573      2.4433      0.0252     12.5265     65.3929
   386.4000      7.9573      2.4476     -0.0042     12.2676     69.0256
   386.5000      7.9529      2.4628      0.0948     11.3443     71.8810
   386.6000      7.9529      2.4572      0.0651     11.6874     72.1810
   386.7000      7.9529      2.4283      0.0053     13.4377     69.8316
   386.8000      7.9494      2.4068     -0.0173     14.7390     66.3835
   386.9000      7.9494      2.4033      0.0248     14.9494     63.5730
   387.0000      7.9481      2.4048      0.0165     14.8635     62.6188
   387.1000      7.9481      2.4069      0.0345     14.7306     61.1611
   387.2000      7.9481      2.4135      0.0513     14.3352     57.2975
   387.3000      7.9459      2.4211      0.0632     13.8699     53.5935
   387.4000      7.9459      2.4236      0.0432     13.7195     51.8849
   387.5000      7.9433      2.4163      0.0602     14.1614     52.2133
   387.6000      7.9433      2.4006      0.0403     15.1177     54.8057
   387.7000      7.9433      2.3919      0.0088     15.6419     58.8377
   387.8000      7.9464      2.4012     -0.0036     15.0799     61.6795
   387.9000      7.9464      2.4130      0.0250     14.3663     63.7071
   388.0000      7.9544      2.4049      0.0556     14.8543     66.7415
   388.1000      7.9544      2.3826      0.0251     16.2061     68.1504
   388.2000      7.9544      2.3718     -0.0005     16.8619     67.7473
   388.3000      7.9595      2.3762      0.0297     16.5948     68.8173
   388.4000      7.9595      2.3778      0.0204     16.4994     71.3450
   388.5000      7.9578      2.3789     -0.0323     16.4320     74.1572
   388.6000      7.9578      2.3947      0.0259     15.4723     76.7544
   388.7000      7.9578      2.4155      0.0432     14.2105     76.0522
   388.8000      7.9520      2.4247      0.0518     13.6549     70.5130
   388.9000      7.9520      2.4244      0.0299     13.6725     64.4820
   389.0000      7.9466      2.4239      0.0259     13.7008     60.9545
   389.1000      7.9466      2.4251      0.0414     13.6314     59.1478
   389.2000      7.9466      2.4313      0.0174     13.2517     60.4560
   389.3000      7.9430      2.4470      0.0525     12.3017     63.4388
   389.4000      7.9430      2.4564      0.1023     11.7312     64.0230
   389.5000      7.9417      2.4450      0.0654     12.4271     62.0120
   389.6000      7.9417      2.4284      0.0372     13.4277     60.6472
   389.7000      7.9417      2.4246      0.0478     13.6591     62.6994
   389.8000      7.9431      2.4321      0.0205     13.2053     66.7969
   389.9000      7.9431      2.4404      0.0613     12.7015     68.0698
   390.0000      7.9456      2.4389      0.0409     12.7936     65.0661
   390.1000      7.9456      2.4256      0.0549     13.6007     60.9611
   390.2000      7.9456      2.4034      0.0182     14.9437     58.8285
   390.3000      7.9468      2.3802     -0.0400     16.3517     58.9562
   390.4000      7.9468      2.3648      0.0088     17.2869     59.6349
   390.5000      7.9460      2.3610     -0.0250     17.5147     61.2153
   390.6000      7.9460      2.3717      0.0008     16.8653     64.9154
   390.7000      7.9460      2.3900     -0.0008     15.7569     65.9766
   390.8000      7.9435      2.4038      0.0180     14.9204     61.4841
   390.9000      7.9435      2.4075      0.0417     14.6972     58.9134
   391.0000      7.9414      2.4005      0.0445     15.1209     62.1573
   391.1000      7.9414      2.3883     -0.0009     15.8636     65.0574
   391.2000      7.9414      2.3789      0.0427     16.4287     64.8817
   391.3000      7.9430      2.3809      0.0247     16.3081     65.3912
   391.4000      7.9430      2.4019      0.0822     15.0383     66.6446
   391.5000      7.9432      2.4318      0.1094     13.2215     66.6405
   391.6000      7.9432      2.4532      0.1287     11.9284     66.3181
   391.7000      7.9432      2.4624      0.0706     11.3695     66.1134
   391.8000      7.9390      2.4640      0.1145     11.2723     65.7868
   391.9000      7.9390      2.4663      0.0677     11.1343     65.8727
   392.0000      7.9354      2.4849      0.0882     10.0079     68.2176
   392.1000      7.9354      2.5142      0.1316      8.2295     73.1430
   392.2000      7.9354      2.5263      0.1585      7.4980     76.3392
   392.3000      7.9346      2.5146      0.0822      8.2065     75.8645
   392.4000      7.9346      2.4962      0.0718      9.3208     75.2623
   392.5000      7.9335      2.4785      0.0588     10.3923     76.9123
   392.6000      7.9335      2.4603      0.0430     11.4943     79.4403
   392.7000      7.9335      2.4459      0.0258     12.3674     80.4822
   392.8000      7.9298      2.4369      0.0409     12.9132     79.4835
   392.9000      7.9298      2.4302      0.0386     13.3197     78.8575
   393.0000      7.9236      2.4275      0.0341     13.4867     80.4787
   393.1000      7.9236      2.4323      0.0172     13.1969     83.4680
   393.2000      7.9236      2.4360      0.0685     12.9687     86.0308
   393.3000      7.9203      2.4309      0.0199     13.2810     86.9396
   393.4000      7.9203      2.4281      0.0458     13.4504     84.6193
   393.5000      7.9214      2.4399      0.0324     12.7320     79.5789
   393.6000      7.9214      2.4643      0.0631     11.2554     72.9864
   393.7000      7.9214      2.4837      0.0682     10.0759     67.1753
   393.8000      7.9231      2.4896      0.0511      9.7197     66.2998
   393.9000      7.9231      2.4969      0.0584      9.2805     70.3549
   394.0000      7.9232      2.5087      0.0969      8.5608     74.7508
   394.1000      7.9232      2.5083      0.1005      8.5901     76.5085
   394.2000      7.9232      2.4911      0.0493      9.6306     75.5990
   394.3000      7.9226      2.4701      0.0410     10.9037     72.8580
   394.4000      7.9226      2.4590      0.0029     11.5787     70.9749
   394.5000      7.9232      2.4652      0.0374     11.2023     72.8568
   394.6000      7.9232      2.4799      0.0649     10.3061     74.0694
   394.7000      7.9232      2.4828      0.0690     10.1354     70.1022
   394.8000      7.9244      2.4697      0.0459     10.9282     65.5907
   394.9000      7.9244      2.4590      0.0187     11.5766     66.5895
   395.0000      7.9261      2.4637      0.0104     11.2934     72.6797
   395.1000      7.9261      2.4757      0.0330     10.5631     78.1169
   395.2000      7.9261      2.4853      0.0443      9.9842     81.0572
   395.3000      7.9282      2.4929      0.0433      9.5192     83.1465
   395.4000      7.9282      2.5010      0.0552      9.0320     82.0302
   395.5000      7.9276      2.5043      0.0571      8.8294     75.5978
   395.6000      7.9276      2.5025      0.0418      8.9367     68.2870
   395.7000      7.9276      2.5102      0.0128      8.4745     66.8676
   395.8000      7.9241      2.5213      0.1345      7.7994     72.3655
   395.9000      7.9241      2.5047      0.0744      8.8046     79.1436
   396.0000      7.9234      2.4660      0.0394     11.1534     81.1403
   396.1000      7.9234      2.4435      0.0002     12.5145     78.9385
   396.2000      7.9234      2.4465      0.0453     12.3340     77.1083
   396.3000      7.9270      2.4500      0.0479     12.1223     76.6104
   396.4000      7.9270      2.4394      0.0459     12.7622     74.3004
   396.5000      7.9279      2.4236      0.0267     13.7227     69.3234
   396.6000      7.9279      2.4157      0.0051     14.2027     64.1158
   396.7000      7.9279      2.4208      0.0237     13.8906     60.4367
   396.8000      7.9243      2.4341      0.0809     13.0873     59.3415
   396.9000      7.9243      2.4452      0.0643     12.4124     60.7666
   397.0000      7.9206      2.4482      0.0683     12.2292     62.2076
   397.1000      7.9206      2.4444      0.0461     12.4602     63.5506
