~Version Information
VERS.                      2.0: CWLS Log ASCII Standard - VERSION 2.0
WRAP.                       NO: One line per depth step
~Well Information Block
STRT.FT                -4.0000: 
STOP.FT              1544.0000: 
STEP.FT                 0.2500: 
NULL.                -999.2500: 
COMP.          Pioneer Natural Resources: COMPANY
WELL.           Screamin 12-29: WELL
FLD.           Purgatoire River: FIELD
LOC.           2038' FNL & 612' FWL--: LOCATION
CNTY.               Las Animas: COUNTY
SRVC.                Patterson: SERVICE COMPANY
DATE.          Fri Apr 14 00:36:42 2006: LOG DATE
UWI.           05 071 08661 00: UNIQUE WELL ID
STAT.                 Colorado: STATE
~Curve Information Block
DEPT.FT            0 000 00 00: Depth
GR.GAPI                       : Gamma Ray
CCL.                          : Casing Collar Locator
TT3.usec                      : CBL 3' Travel Time
AMP3.mV                       : CBL 3' Amplitude
~Parameter Information Block
~A  Depth        GR         CCL         TT3         AMP3    
# ...
  1302.5000     96.7102      0.0000    593.9888      6.0924
  1302.7500     98.2791      0.0000    588.5107      6.1297
  1303.0000    101.1743      0.0000    575.5464      6.1527
  1303.2500    102.4697      0.0000    565.7333      6.1400
  1303.5000    102.3634      0.0000    557.1715      6.0994
  1303.7500    100.7437      0.0000    560.1298      6.0736
  1304.0000     96.2374      0.0000    578.0751      6.0486
  1304.2500     92.3178      0.0000    594.3445      6.0417
  1304.5000     86.5203      0.0000    615.1434      6.0495
  1304.7500     83.7073      0.0000    623.4373      6.0685
  1305.0000     81.9919      0.0000    627.8692      6.1091
  1305.2500     82.2473      0.0000    627.3239      6.1311
  1305.5000     83.5058      0.0000    624.3397      6.1354
  1305.7500     84.4099      0.0000    621.9471      6.1166
  1306.0000     85.7334      0.0000    617.6085      6.0731
  1306.2500     86.7859      0.0000    613.3804      6.0487
  1306.5000     88.9621      0.0000    604.7789      6.0356
  1306.7500     90.6905      0.0000    598.9716      6.0458
  1307.0000     92.6722      0.0000    593.6588      6.0872
  1307.2500     92.9526      0.0000    593.3268      6.1251
  1307.5000     91.8848      0.0000    596.5890      6.1712
  1307.7500     90.9387      0.0000    600.0007      6.1810
  1308.0000     90.4533      0.0000    604.9583      6.1673
  1308.2500     90.8768      0.0000    607.1674      6.1555
  1308.5000     91.8939      0.0000    607.9511      6.1560
  1308.7500     92.3671      0.0000    607.2335      6.1669
  1309.0000     92.3930      0.0000    606.5250      6.1845
  1309.2500     91.7411      0.0000    607.5463      6.1940
  1309.5000     89.2704      0.0000    611.7733      6.2118
  1309.7500     86.7231      0.0000    615.5905      6.2294
  1310.0000     82.8185      0.0000    620.8236      6.2608
  1310.2500     80.9549      0.0000    623.2311      6.2820
  1310.5000     79.4914      0.0000    625.4194      6.3182
  1310.7500     79.0901      0.0000    626.8288      6.3530
  1311.0000     79.2640      0.0000    630.7031      6.4310
  1311.2500     80.0505      0.0000    634.9816      6.4992
  1311.5000     81.6687      0.0000    643.1266      6.6133
  1311.7500     82.1966      0.0000    648.3685      6.6884
  1312.0000     81.2192      0.0000    653.6480      6.7887
  1312.2500     79.5427      0.0000    655.2311      6.8449
  1312.5000     76.3536      0.0000    656.7668      6.9132
  1312.7500     74.3607      0.0000    658.5887      6.9471
  1313.0000     72.9102      0.0000    662.2964      6.9701
  1313.2500     73.7988      0.0000    663.8889      6.9576
  1313.5000     78.4007      0.0000    662.9576      6.8894
  1313.7500     83.1360      0.0000    660.7073      6.8144
  1314.0000     91.1124      0.0000    658.5168      6.6667
  1314.2500     96.0653      0.0000    659.9504      6.5463
  1314.5000    101.7471      0.0000    667.3083      6.3325
  1314.7500    104.0491      0.0000    674.2398      6.1674
  1315.0000    105.5039      0.0000    683.2997      5.8854
  1315.2500    105.5551      0.0000    686.1832      5.6775
  1315.5000    104.8310      0.0000    685.3096      5.3527
  1315.7500    103.9593      0.0000    683.7342      5.1471
  1316.0000    102.2144      0.0000    686.2676      4.9096
  1316.2500    100.8832      0.0000    693.2679      4.8387
  1316.5000     98.9461      0.0000    709.2626      4.8986
  1316.7500     98.0486      0.0000    719.8489      5.0224
  1317.0000     98.2476      2.0000    730.2638      5.2188
  1317.2500     99.7743      0.0000    732.8113      5.2905
  1317.5000    103.5035      0.0000    732.3778      5.2653
  1317.7500    106.0186      0.0000    731.0342      5.1874
  1318.0000    108.9485      2.0000    728.0154      5.0942
  1318.2500    110.6691      0.0000    724.0072      5.1192
  1318.5000    113.6488      0.0000    712.6666      5.3356
  1318.7500    115.5837      0.0000    701.7938      5.5670
  1319.0000    116.9789      0.0000    683.6340      5.9411
  1319.2500    116.6700      0.0000    672.4001      6.1605
  1319.5000    116.0575      0.0000    659.0670      6.4066
  1319.7500    116.8848      0.0000    652.8720      6.5096
  1320.0000    120.1026      0.0000    647.0981      6.5789
  1320.2500    121.9722      0.0000    644.9549      6.5809
  1320.5000    120.9239      0.0000    643.2565      6.5463
  1320.7500    116.8100      0.0000    642.8008      6.5131
  1321.0000    107.4028      0.0000    643.0424      6.4700
  1321.2500    101.4142      0.0000    643.8756      6.4537
  1321.5000     96.5372      0.0000    646.0959      6.4408
  1321.7500     96.5470      0.0000    648.1766      6.4257
  1322.0000     99.4131      0.0000    652.4004      6.3774
  1322.2500    101.4555      0.0000    656.1885      6.3341
  1322.5000    103.0361      0.0000    663.3631      6.2753
  1322.7500    103.2309      0.0000    668.8088      6.2481
  1323.0000    103.0443      0.0000    677.1531      6.2219
  1323.2500    102.7104      0.0000    682.2360      6.2063
  1323.5000    101.7630      0.0000    687.3538      6.1774
  1323.7500    101.0927      0.0000    687.6905      6.1586
  1324.0000    100.8977      0.0000    682.2111      6.1480
  1324.2500    101.5417      0.0000    675.2345      6.1583
  1324.5000    103.2165      0.0000    663.0308      6.1891
  1324.7500    104.2320      0.0000    655.7751      6.2077
  1325.0000    104.5505      0.0000    648.1685      6.2175
  1325.2500    103.6102      0.0000    645.3137      6.2090
  1325.5000    100.8952      0.0000    643.3130      6.1704
  1325.7500     99.0126      0.0000    642.8267      6.1283
  1326.0000     97.4191      0.0000    642.6183      6.0583
  1326.2500     97.3386      0.0000    642.5876      6.0243
  1326.5000     97.7646      0.0000    642.4645      6.0150
  1326.7500     97.6793      0.0000    642.2856      6.0403
  1327.0000     96.6037      0.0000    641.9507      6.1202
  1327.2500     95.7810      0.0000    641.7493      6.1920
  1327.5000     95.8773      0.0000    641.4978      6.2969
  1327.7500     97.1726      0.0000    641.3639      6.3443
  1328.0000     99.5103      0.0000    641.4202      6.3633
  1328.2500     99.8374      0.0000    641.9399      6.3463
  1328.5000     97.3958      0.0000    644.1008      6.3022
  1328.7500     94.7171      0.0000    646.5851      6.2801
  1329.0000     91.6762      0.0000    650.9171      6.3024
  1329.2500     91.0755      0.0000    652.9842      6.3860
  1329.5000     91.8679      0.0000    652.9450      6.6675
  1329.7500     92.8100      0.0000    650.7212      6.9832
  1330.0000     93.9931      0.0000    645.8275      7.6748
  1330.2500     94.6129      0.0000    642.8341      8.2873
  1330.5000     95.7747      0.0000    639.9691      9.4201
  1330.7500     96.7898      0.0000    639.1567     10.2910
  1331.0000     97.8596      0.0000    639.1683     11.6894
  1331.2500     97.5418      0.0000    639.8834     12.6160
  1331.5000     95.2680      0.0000    642.2267     13.8632
  1331.7500     93.4253      0.0000    644.7833     14.5318
  1332.0000     92.2923      0.0000    649.6731     15.2424
  1332.2500     93.0573      0.0000    652.7546     15.5429
  1332.5000     95.1234      0.0000    655.1871     15.8174
  1332.7500     95.9458      0.0000    654.7476     15.9236
  1333.0000     95.4908      0.0000    651.6960     15.9891
  1333.2500     94.2811      0.0000    649.2521     15.9645
  1333.5000     91.7712      0.0000    647.3110     15.8345
  1333.7500     89.9119      0.0000    648.2220     15.7199
  1334.0000     87.3061      0.0000    653.3660     15.5966
  1334.2500     86.0187      0.0000    658.5286     15.5859
  1334.5000     85.1065      0.0000    666.2753     15.6691
  1334.7500     84.9943      0.0000    670.0047     15.7396
  1335.0000     84.7392      0.0000    672.1328     15.7327
  1335.2500     84.2409      0.0000    671.0510     15.5705
  1335.5000     83.6945      0.0000    665.8881     14.9910
  1335.7500     84.2989      0.0000    660.6024     14.3752
