~Version Information
VERS.                      2.0: CWLS Log ASCII Standard - VERSION 2.0
WRAP.                       NO: One line per depth step
~Well Information Block
STRT.FT               875.0000: 
STOP.FT              2947.2500: 
STEP.FT                 0.2500: 
NULL.                -999.2500: 
COMP.          Pioneer Natural Resources: COMPANY
WELL.          Hanginstone 21-27: WELL
FLD.           Purgatoire River: FIELD
LOC.           1186' FNL & 1606' FWL--: LOCATION
PROV.                 Colorado: PROVINCE
CNTY.               Las Animas: COUNTRY
SRVC.                Patterson: SERVICE COMPANY
DATE.          Sat Jan 07 09:06:14 2006: LOG DATE
UWI.           05 071 08632 00: UNIQUE WELL ID
~Curve Information Block
DEPT.FT            0 000 00 00: Depth
SN.Ohm-m                      : IEL Short Normal
SP.mV                         : IEL Spontaneous Potential
DIR.Ohm-m                     : IEL Induction Resistivity
GR.GAPI                       : Gamma Ray
~Parameter Information Block
~A  Depth        SN          SP         DIR          GR     
# ...
  1009.0000     59.5596   -186.7120     46.5042     82.1883
  1009.2500     60.4212   -187.2281     48.6637     80.5577
  1009.5000     59.8807   -187.4224     49.9369     77.2357
  1009.7500     58.1883   -187.2768     50.3541     75.0290
  1010.0000     55.6849   -186.7918     50.0161     73.0981
  1010.2500     52.6859   -185.9891     48.9764     73.2846
  1010.5000     49.4114   -184.9115     47.2086     76.0204
  1010.7500     45.9944   -183.6201     44.7018     79.3572
  1011.0000     42.5377   -182.1899     41.5893     86.2682
  1011.2500     39.1551   -180.7022     38.1683     91.7808
  1011.5000     35.9618   -179.2368     34.7815    100.2767
  1011.7500     33.0429   -177.8634     31.6817    105.3884
  1012.0000     30.4414   -176.6350     28.9797    111.9114
  1012.2500     28.1669   -175.5839     26.6723    115.9459
  1012.5000     26.2049   -174.7213     24.6980    122.3029
  1012.7500     24.5261   -174.0406     22.9849    126.5158
  1013.0000     23.0987   -173.5237     21.4798    131.2910
  1013.2500     21.8991   -173.1475     20.1587    132.7075
  1013.5000     20.9088   -172.8904     19.0188    132.5304
  1013.7500     20.1031   -172.7354     18.0619    131.9910
  1014.0000     19.4471   -172.6692     17.2803    132.6249
  1014.2500     18.9040   -172.6792     16.6513    134.5467
  1014.5000     18.4447   -172.7493     16.1431    139.0044
  1014.7500     18.0476   -172.8566     15.7237    142.0179
  1015.0000     17.6891   -172.9714     15.3675    145.0142
  1015.2500     17.3382   -173.0603     15.0559    145.7182
  1015.5000     16.9634   -173.0922     14.7743    145.6496
  1015.7500     16.5474   -173.0448     14.5113    145.6883
  1016.0000     16.0927   -172.9091     14.2621    146.8753
  1016.2500     15.6143   -172.6919     14.0333    148.3484
  1016.5000     15.1307   -172.4140     13.8442    150.4383
  1016.7500     14.6622   -172.1049     13.7203    150.9937
  1017.0000     14.2343   -171.7963     13.6846    149.9270
  1017.2500     13.8778   -171.5150     13.7526    147.8984
  1017.5000     13.6268   -171.2779     13.9300    143.0626
  1017.7500     13.5221   -171.0908     14.2149    139.0240
  1018.0000     13.6256   -170.9495     14.6001    132.8702
  1018.2500     14.0297   -170.8443     15.0763    129.2282
  1018.5000     14.8315   -170.7647     15.6329    124.5353
  1018.7500     16.0686   -170.7038     16.2568    121.7005
  1019.0000     17.6635   -170.6604     16.9282    117.8876
  1019.2500     19.4251   -170.6390     17.6201    116.0530
  1019.5000     21.1054   -170.6478     18.3013    115.2638
  1019.7500     22.4824   -170.6960     18.9392    116.1618
  1020.0000     23.4331   -170.7919     19.5005    118.8242
  1020.2500     23.9642   -170.9398     19.9524    120.8283
  1020.5000     24.1794   -171.1395     20.2705    123.7799
  1020.7500     24.2093   -171.3848     20.4509    125.9404
  1021.0000     24.1502   -171.6626     20.5166    129.7938
  1021.2500     24.0351   -171.9524     20.5114    132.5140
  1021.5000     23.8277   -172.2269     20.4838    135.7513
  1021.7500     23.4362   -172.4539     20.4710    136.6924
  1022.0000     22.7506   -172.5994     20.4900    135.4862
  1022.2500     21.7008   -172.6324     20.5415    132.8629
  1022.5000     20.3140   -172.5289     20.6189    127.4164
  1022.7500     18.7470   -172.2759     20.7157    124.3576
  1023.0000     17.2720   -171.8736     20.8229    123.4586
  1023.2500     16.2081   -171.3364     20.9193    125.8725
  1023.5000     15.8065   -170.6912     20.9681    132.1922
  1023.7500     16.1335   -169.9744     20.9264    136.3095
  1024.0000     17.0176   -169.2278     20.7641    140.1356
  1024.2500     18.1199   -168.4931     20.4801    141.0940
  1024.5000     19.1082   -167.8071     20.1036    141.4239
  1024.7500     19.8136   -167.1982     19.6835    141.5841
  1025.0000     20.2557   -166.6848     19.2715    141.9831
  1025.2500     20.5437   -166.2752     18.9084    142.0834
  1025.5000     20.7620   -165.9699     18.6168    141.4398
  1025.7500     20.9284   -165.7642     18.4031    140.3095
  1026.0000     21.0233   -165.6501     18.2662    137.4974
  1026.2500     21.0407   -165.6188     18.2069    135.0314
  1026.5000     21.0209   -165.6608     18.2316    131.3231
  1026.7500     21.0444   -165.7663     18.3507    129.5774
  1027.0000     21.1939   -165.9250     18.5727    128.6298
  1027.2500     21.5092   -166.1268     18.9000    128.5647
  1027.5000     21.9646   -166.3618     19.3246    127.3254
  1027.7500     22.4844   -166.6213     19.8280    124.8703
  1028.0000     22.9845   -166.8997     20.3858    119.1900
  1028.2500     23.4102   -167.1944     20.9780    115.3322
  1028.5000     23.7504   -167.5063     21.5975    111.7305
  1028.7500     24.0290   -167.8394     22.2504    111.3910
  1029.0000     24.2860   -168.1981     22.9457    113.3941
  1029.2500     24.5542   -168.5854     23.6810    115.4942
  1029.5000     24.8447   -169.0000     24.4319    118.2985
  1029.7500     25.1480   -169.4343     25.1533    119.4291
  1030.0000     25.4501   -169.8739     25.7890    119.6974
  1030.2500     25.7468   -170.2999     26.2860    118.9698
  1030.5000     26.0411   -170.6922     26.6075    117.1400
  1030.7500     26.3297   -171.0358     26.7431    116.1388
  1031.0000     26.6009   -171.3259     26.7151    116.3008
  1031.2500     26.8434   -171.5710     26.5730    117.9008
  1031.5000     27.0442   -171.7934     26.3750    121.8458
  1031.7500     27.1721   -172.0250     26.1659    124.4565
  1032.0000     27.1700   -172.3001     25.9642    126.6920
  1032.2500     26.9741   -172.6478     25.7646    126.8314
  1032.5000     26.5467   -173.0842     25.5503    125.8926
  1032.7500     25.8948   -173.6085     25.3093    125.2435
  1033.0000     25.0622   -174.2013     25.0461    125.0522
  1033.2500     24.1104   -174.8272     24.7791    125.5242
  1033.5000     23.1125   -175.4393     24.5226    126.6028
  1033.7500     22.1620   -175.9861     24.2664    126.9471
  1034.0000     21.3647   -176.4195     23.9737    125.8319
  1034.2500     20.7996   -176.7015     23.6030    123.8660
  1034.5000     20.4699   -176.8098     23.1354    120.2713
  1034.7500     20.2879   -176.7402     22.5870    118.7522
  1035.0000     20.1149   -176.5054     22.0002    119.8724
  1035.2500     19.8316   -176.1326     21.4226    123.2684
  1035.5000     19.3935   -175.6601     20.8887    130.9909
  1035.7500     18.8498   -175.1346     20.4108    136.3564
  1036.0000     18.3285   -174.6089     19.9840    142.4720
  1036.2500     17.9913   -174.1391     19.6004    144.8389
  1036.5000     17.9637   -173.7799     19.2635    146.2827
  1036.7500     18.2717   -173.5767     18.9907    145.9701
  1037.0000     18.8208   -173.5572     18.8032    142.7858
  1037.2500     19.4356   -173.7246     18.7128    138.3985
  1037.5000     19.9415   -174.0554     18.7133    129.4158
  1037.7500     20.2423   -174.5034     18.7825    123.5437
  1038.0000     20.3465   -175.0098     18.8888    118.1327
  1038.2500     20.3307   -175.5153     18.9986    117.8194
  1038.5000     20.2738   -175.9706     19.0822    121.8968
  1038.7500     20.2090   -176.3439     19.1156    126.3940
  1039.0000     20.1171   -176.6227     19.0808    132.9748
  1039.2500     19.9530   -176.8106     18.9635    135.8772
  1039.5000     19.6797   -176.9231     18.7526    137.1231
  1039.7500     19.2948   -176.9817     18.4457    136.3856
  1040.0000     18.8333   -177.0089     18.0568    134.9089
  1040.2500     18.3508   -177.0250     17.6207    134.7287
  1040.5000     17.8982   -177.0466     17.1846    136.1235
  1040.7500     17.5066   -177.0852     16.7931    137.7316
  1041.0000     17.1852   -177.1474     16.4731    140.3810
  1041.2500     16.9296   -177.2349     16.2283    142.1663
  1041.5000     16.7303   -177.3462     16.0422    144.5854
  1041.7500     16.5790   -177.4776     15.8909    145.4657
  1042.0000     16.4698   -177.6253     15.7549    144.6877
  1042.2500     16.4002   -177.7876     15.6277    142.8612
