~Version Information
VERS.                      2.0: CWLS Log ASCII Standard - VERSION 2.0
WRAP.                       NO: One line per depth step
~Well Information Block
STRT.FT               245.0000: 
STOP.FT              1208.2000: 
STEP.FT                 0.1000: 
NULL.                -999.2500: 
COMP.          Pioneer Natural Resources: COMPANY
WELL.              Davida 34-8: WELL
FLD.           Purgatoire River: FIELD
LOC.           418' FSL & 1923' FEL--: LOCATION
CNTY.               Las Animas: COUNTY
SRVC.                Patterson: SERVICE COMPANY
DATE.          Mon Mar 20 08:22:01 2006: LOG DATE
UWI.           05 071 08722 00: UNIQUE WELL ID
STAT.                 Colorado: STATE
~Curve Information Block
DEPT.FT            0 000 00 00: Depth
DCAL.in                       : CDL Caliper
RHOB.g/cc                     : CDL Bulk Density
RHOC.g/cc                     : CDL Density Correction
DPOR.pu                       : CDL Density Porosity
NPOR.pu                       : Neutron Porosity
GR.GAPI                       : Gamma Ray
~Parameter Information Block
~A  Depth       DCAL        RHOB        RHOC        DPOR        NPOR         GR     
# ...
   677.0000      7.8769      2.6022      0.0346      2.8955     26.0423     99.6412
   677.1000      7.8769      2.5955      0.0516      3.3038     25.8039    109.5328
   677.2000      7.8769      2.5771      0.0082      4.4207     25.0152    118.6912
   677.3000      7.8881      2.5755     -0.0288      4.5170     24.0352    121.0996
   677.4000      7.8881      2.6043      0.0763      2.7709     23.2059    116.4858
   677.5000      7.9044      2.6359      0.1047      0.8562     22.5920    110.2934
   677.6000      7.9044      2.6474      0.0627      0.1557     22.2047    109.3563
   677.7000      7.9044      2.6451      0.0788      0.2988     22.0918    115.6832
   677.8000      7.9201      2.6441      0.0372      0.3573     22.1104    122.0809
   677.9000      7.9201      2.6553      0.0793     -0.3205     22.2822    120.9818
   678.0000      7.9282      2.6709      0.1055     -1.2674     22.7975    115.1599
   678.1000      7.9282      2.6760      0.0702     -1.5733     23.4165    111.7504
   678.2000      7.9282      2.6744      0.0618     -1.4808     23.7919    111.3742
   678.3000      7.9291      2.6902      0.0295     -2.4390     24.0759    109.1049
   678.4000      7.9291      2.7273      0.0851     -4.6877     24.3081    106.2140
   678.5000      7.9263      2.7532      0.1050     -6.2574     24.1867    107.6941
   678.6000      7.9263      2.7492      0.0933     -6.0130     23.9540    110.3206
   678.7000      7.9263      2.7287      0.0818     -4.7676     24.0338    109.5050
   678.8000      7.9180      2.7044      0.0664     -3.2988     24.2196    106.2345
   678.9000      7.9180      2.6763      0.0303     -1.5921     24.2028    101.8157
   679.0000      7.9051      2.6439      0.0431      0.3709     24.1137     97.7284
   679.1000      7.9051      2.6207     -0.0338      1.7750     24.2016     96.7815
   679.2000      7.9051      2.6154      0.0313      2.0941     24.2714     96.9186
   679.3000      7.8924      2.6104      0.0493      2.4023     24.1645     96.0302
   679.4000      7.8924      2.5939      0.0188      3.4027     24.0756     96.1323
   679.5000      7.8822      2.5848     -0.0007      3.9491     23.9776     96.4166
   679.6000      7.8822      2.6022     -0.0211      2.8988     23.6598     96.4240
   679.7000      7.8822      2.6330      0.0483      1.0308     23.2463     99.2399
   679.8000      7.8821      2.6434      0.1028      0.3982     23.0001    101.6581
   679.9000      7.8821      2.6265      0.0559      1.4250     23.1600    100.4577
   680.0000      7.8865      2.6054      0.0256      2.7011     23.6405     98.8279
   680.1000      7.8865      2.5912      0.0103      3.5629     23.9718     98.6364
   680.2000      7.8865      2.5799      0.0130      4.2494     24.1701    100.9544
   680.3000      7.8793      2.5743     -0.0094      4.5889     24.5571    104.3298
   680.4000      7.8793      2.5823     -0.0274      4.1060     24.8539    105.9879
   680.5000      7.8714      2.5964      0.0646      3.2501     24.7532    104.3384
   680.6000      7.8714      2.6046      0.0098      2.7512     24.5774    101.5199
   680.7000      7.8714      2.6142      0.0071      2.1694     24.6814    104.5671
   680.8000      7.8765      2.6221      0.0959      1.6939     24.9043    113.1635
   680.9000      7.8765      2.6078      0.0454      2.5606     24.9731    122.3210
   681.0000      7.8876      2.5722      0.0211      4.7180     24.9063    130.8957
   681.1000      7.8876      2.5410     -0.0113      6.6061     24.7701    137.6131
   681.2000      7.8876      2.5409      0.0057      6.6130     24.5484    139.7353
   681.3000      7.8917      2.5691      0.0380      4.9052     24.1352    138.1586
   681.4000      7.8917      2.5965      0.0300      3.2453     23.5507    135.4655
   681.5000      7.8885      2.6032      0.0866      2.8393     23.1137    133.6700
   681.6000      7.8885      2.5997      0.0111      3.0513     23.0385    133.0139
   681.7000      7.8885      2.6059      0.0686      2.6751     23.3122    130.7252
   681.8000      7.8800      2.6073      0.0511      2.5900     23.7640    127.6037
   681.9000      7.8800      2.5814     -0.0230      4.1602     24.0549    125.4979
   682.0000      7.8669      2.5450     -0.0374      6.3643     24.1535    122.9644
   682.1000      7.8669      2.5236     -0.0016      7.6620     24.2430    118.3828
   682.2000      7.8669      2.5132     -0.0077      8.2937     24.3155    114.6339
   682.3000      7.8605      2.4980     -0.0257      9.2124     24.4475    118.5616
   682.4000      7.8605      2.4635      0.0116     11.3028     24.5658    128.4038
   682.5000      7.8660      2.4087     -0.0711     14.6256     24.5038    133.4231
   682.6000      7.8660      2.3589     -0.0989     17.6396     24.2822    133.4541
   682.7000      7.8660      2.3286     -0.0311     19.4767     23.9903    134.5712
   682.8000      7.8768      2.3048     -0.0873     20.9205     23.6265    134.7330
   682.9000      7.8768      2.2747     -0.0026     22.7479     23.1051    131.2236
   683.0000      7.8901      2.2339     -0.0389     25.2187     22.5393    125.3314
   683.1000      7.8901      2.1914     -0.0428     27.7942     21.9896    120.1707
   683.2000      7.8901      2.1623     -0.0278     29.5593     20.9914    119.5147
   683.3000      7.9052      2.1600     -0.0063     29.6983     19.3564    123.1748
   683.4000      7.9052      2.1869      0.0800     28.0665     17.7629    125.6654
   683.5000      7.9150      2.2234      0.0816     25.8537     16.6030    124.1659
   683.6000      7.9150      2.2523      0.0575     24.1024     15.5854    124.3642
   683.7000      7.9150      2.2829      0.0298     22.2491     14.5630    128.5861
   683.8000      7.9101      2.3241      0.1529     19.7510     13.6467    130.4943
   683.9000      7.9101      2.3629      0.1642     17.3977     13.1086    127.0243
   684.0000      7.8987      2.3952      0.1359     15.4405     13.1169    122.1941
   684.1000      7.8987      2.4348      0.1256     13.0406     13.4094    119.5645
   684.2000      7.8987      2.4864      0.1574      9.9138     13.8992    118.2355
   684.3000      7.9066      2.5303      0.1337      7.2555     14.6246    116.2127
   684.4000      7.9066      2.5403      0.1165      6.6464     15.1288    114.6591
   684.5000      7.9199      2.5168      0.0653      8.0755     15.1379    112.1821
   684.6000      7.9199      2.4899      0.0365      9.7036     15.0937    107.4018
   684.7000      7.9199      2.4820      0.0298     10.1819     15.3299    103.6496
   684.8000      7.9082      2.4894      0.0131      9.7341     15.8460    102.8063
   684.9000      7.9082      2.5027      0.0538      8.9253     16.6389    102.7331
   685.0000      7.8913      2.5165      0.0653      8.0904     17.4177    101.4981
   685.1000      7.8913      2.5239      0.0826      7.6425     17.6710     99.6920
   685.2000      7.8913      2.5280      0.0086      7.3961     17.4030     96.7217
   685.3000      7.8950      2.5412      0.0400      6.5909     17.0491     92.0851
   685.4000      7.8950      2.5563      0.0516      5.6761     17.0554     89.8736
   685.5000      7.9075      2.5598      0.0529      5.4653     17.7405     93.4351
   685.6000      7.9075      2.5573      0.0621      5.6152     18.9068    100.3379
   685.7000      7.9075      2.5552      0.0775      5.7462     19.6486    104.8718
   685.8000      7.9107      2.5477      0.0831      6.1998     19.4667    106.1114
   685.9000      7.9107      2.5361      0.0374      6.9001     19.0299    104.8244
   686.0000      7.9041      2.5325      0.0578      7.1202     18.9734    100.0202
   686.1000      7.9041      2.5359      0.0444      6.9148     19.2540     94.8393
   686.2000      7.9041      2.5331      0.0864      7.0875     19.6628     94.0833
   686.3000      7.8972      2.5200      0.0703      7.8770     19.8924     95.8211
   686.4000      7.8972      2.5166      0.0108      8.0819     19.5783     95.0476
   686.5000      7.8996      2.5364      0.0939      6.8828     18.9469     93.7660
