~Version Information
VERS.                      2.0: CWLS Log ASCII Standard - VERSION 2.0
WRAP.                       NO: One line per depth step
~Well Information Block
STRT.FT                -4.0000: 
STOP.FT              1544.0000: 
STEP.FT                 0.2500: 
NULL.                -999.2500: 
COMP.          Pioneer Natural Resources: COMPANY
WELL.           Screamin 12-29: WELL
FLD.           Purgatoire River: FIELD
LOC.           2038' FNL & 612' FWL--: LOCATION
CNTY.               Las Animas: COUNTY
SRVC.                Patterson: SERVICE COMPANY
DATE.          Fri Apr 14 00:36:42 2006: LOG DATE
UWI.           05 071 08661 00: UNIQUE WELL ID
STAT.                 Colorado: STATE
~Curve Information Block
DEPT.FT            0 000 00 00: Depth
GR.GAPI                       : Gamma Ray
CCL.                          : Casing Collar Locator
TT3.usec                      : CBL 3' Travel Time
AMP3.mV                       : CBL 3' Amplitude
~Parameter Information Block
~A  Depth        GR         CCL         TT3         AMP3    
# ...
   599.0000    107.7883      0.0000    745.2541      6.1411
   599.2500    107.2383      0.0000    744.6642      6.1509
   599.5000    103.4868      0.0000    745.2610      6.1537
   599.7500     99.6009      0.0000    746.3337      6.1535
   600.0000     93.7300      0.0000    747.2002      6.1557
   600.2500     90.9621      0.0000    746.1523      6.1508
   600.5000     89.4218      0.0000    741.5588      6.1131
   600.7500     89.9299      0.0000    737.1671      6.0649
   601.0000     91.9634      0.0000    730.6152      5.9763
   601.2500     93.5274      0.0000    727.2789      5.9224
   601.5000     95.5223      0.0000    724.6229      5.8661
   601.7500     96.6469      0.0000    724.4046      5.8448
   602.0000     98.6070      0.0000    725.8254      5.8267
   602.2500    100.3445      0.0000    727.3541      5.8175
   602.5000    103.2839      0.0000    729.5046      5.8056
   602.7500    105.0040      0.0000    730.6241      5.8038
   603.0000    106.5836      0.0000    732.1841      5.8210
   603.2500    106.7194      0.0000    733.2742      5.8470
   603.5000    105.0146      0.0000    734.3786      5.9014
   603.7500    102.2850      0.0000    734.3085      5.9433
   604.0000     95.7792      0.0000    733.2043      6.0107
   604.2500     90.2911      0.0000    732.5319      6.0588
   604.5000     81.7753      0.0000    732.9466      6.1363
   604.7500     76.9719      0.0000    734.5593      6.1905
   605.0000     72.7449      0.0000    738.6635      6.2668
   605.2500     72.3378      0.0000    741.7445      6.3066
   605.5000     74.6030      0.0000    744.9141      6.3412
   605.7500     76.9731      0.0000    745.0969      6.3513
   606.0000     80.0856      0.0000    742.2082      6.3634
   606.2500     81.4264      0.0000    738.8631      6.3751
   606.5000     82.6102      0.0000    733.3332      6.3946
   606.7500     83.1370      0.0000    729.9916      6.4046
   607.0000     83.4065      0.0000    726.4666      6.4121
   607.2500     82.9054      0.0000    725.8863      6.4104
   607.5000     81.1666      0.0000    728.7376      6.3911
   607.7500     79.9022      0.0000    732.7531      6.3655
   608.0000     78.6019      0.0000    739.4998      6.3154
   608.2500     77.8748      0.0000    743.0678      6.2833
   608.5000     75.9734      0.0000    746.5024      6.2505
   608.7500     74.1055      0.0000    748.1376      6.2440
   609.0000     71.5720      0.0000    750.5705      6.2633
   609.2500     70.7417      0.0000    752.1443      6.2961
   609.5000     70.6905      0.0000    753.7059      6.3632
   609.7500     70.9522      0.0000    753.6973      6.4025
   610.0000     71.4337      0.0000    751.3411      6.4175
   610.2500     71.9221      0.0000    748.2323      6.3832
   610.5000     72.6846      0.0000    742.8221      6.2612
   610.7500     72.7774      0.0000    739.9455      6.1441
   611.0000     71.8177      0.0000    736.6998      5.9478
   611.2500     70.5338      0.0000    733.4357      5.8196
   611.5000     68.0739      0.0000    723.6129      5.6417
   611.7500     66.4263      0.0000    714.0204      5.5328
   612.0000     64.8335      0.0000    699.5955      5.3848
   612.2500     64.8074      0.0000    692.9995      5.2936
   612.5000     66.2654      0.0000    690.5656      5.1495
   612.7500     67.7639      0.0000    694.5779      5.0399
   613.0000     70.0323      0.0000    709.4119      4.8752
   613.2500     71.3050      0.0000    724.1086      4.7921
   613.5000     72.3119      0.0000    747.8281      4.7357
   613.7500     71.9305      2.0000    760.6875      4.7372
   614.0000     69.6339      0.0000    771.5864      4.7758
   614.2500     67.7263      0.0000    773.1483      4.8290
   614.5000     66.5711      0.0000    767.7584      5.0053
   614.7500     67.8057      0.0000    759.2720      5.2298
   615.0000     72.0724      0.0000    740.1089      5.7350
   615.2500     75.2640      0.0000    723.7952      6.1199
   615.5000     78.5433      0.0000    694.8459      6.6082
   615.7500     79.2674      0.0000    673.5378      6.8206
   616.0000     78.6230      0.0000    643.2542      6.9862
   616.2500     77.7813      0.0000    627.8924      7.0280
   616.5000     77.4630      0.0000    615.5675      7.0250
   616.7500     78.4625      0.0000    613.5134      6.9923
   617.0000     81.1506      0.0000    614.9168      6.9295
   617.2500     82.5894      0.0000    616.3024      6.9016
   617.5000     82.8002      0.0000    617.0963      6.9035
   617.7500     81.8423      0.0000    616.9136      6.9268
   618.0000     79.9645      0.0000    616.8027      6.9573
   618.2500     78.7153      0.0000    617.5075      6.9591
   618.5000     76.5801      0.0000    620.2136      6.9457
   618.7500     75.0821      0.0000    623.0570      6.9447
   619.0000     73.8347      0.0000    628.4611      6.9664
   619.2500     74.3521      0.0000    632.3887      6.9869
   619.5000     77.3051      0.0000    637.4474      7.0138
   619.7500     80.1482      0.0000    639.2274      7.0365
   620.0000     84.2915      0.0000    638.2831      7.0994
   620.2500     86.3700      0.0000    635.5308      7.1643
   620.5000     88.2477      0.0000    630.6390      7.2832
   620.7500     88.9550      0.0000    628.7075      7.3642
   621.0000     90.0099      0.0000    629.8029      7.4669
   621.2500     91.1214      0.0000    633.0820      7.5157
   621.5000     93.4211      0.0000    639.7927      7.5623
   621.7500     94.8348      0.0000    643.9959      7.5826
   622.0000     95.5546      0.0000    648.3476      7.6074
   622.2500     94.9071      0.0000    649.8403      7.6245
   622.5000     93.4296      0.0000    650.6232      7.6596
   622.7500     93.1585      0.0000    650.6531      7.6910
   623.0000     94.6557      0.0000    650.5494      7.7431
   623.2500     96.5636      0.0000    650.5539      7.7752
   623.5000     99.5342      0.0000    650.7640      7.8147
   623.7500    101.0616      0.0000    651.0817      7.8352
   624.0000    102.5845      0.0000    652.0300      7.8571
   624.2500    103.3703      0.0000    653.1813      7.8650
   624.5000    104.4761      0.0000    655.8949      7.8631
   624.7500    104.8123      0.0000    658.2026      7.8507
   625.0000    103.5393      0.0000    661.6320      7.8178
   625.2500    101.1997      0.0000    663.3267      7.7914
   625.5000     96.4464      0.0000    664.1320      7.7585
   625.7500     93.4747      0.0000    663.2887      7.7508
   626.0000     90.1465      0.0000    660.6720      7.7749
   626.2500     88.3153      0.0000    659.1728      7.8113
   626.5000     85.0427      0.0000    659.3021      7.8644
   626.7500     82.1749      0.0000    661.1905      7.8759
   627.0000     76.9589      0.0000    664.8812      7.8401
   627.2500     73.2447      0.0000    666.0090      7.7869
   627.5000     68.3391      0.0000    662.0970      7.6863
   627.7500     66.0781      0.0000    653.9667      7.6191
   628.0000     64.5021      0.0000    631.6934      7.5394
   628.2500     64.3783      0.0000    609.5062      7.5074
   628.5000     64.6688      0.0000    563.9901      7.4872
   628.7500     64.6395      0.0000    525.8698      7.4831
   629.0000     63.8500      0.0000    463.7643      7.4821
   629.2500     63.0556      0.0000    426.1284      7.4871
   629.5000     62.3526      0.0000    385.2316      7.5084
   629.7500     62.5799      0.0000    369.4754      7.5296
   630.0000     63.7770      0.0000    358.3906      7.5631
   630.2500     64.6414      0.0000    355.6902      7.5858
   630.5000     65.2261      0.0000    354.3607      7.6270
   630.7500     64.9955      0.0000    354.1248      7.6624
   631.0000     63.8936      0.0000    354.0559      7.7244
   631.2500     62.7722      0.0000    354.0836      7.7671
   631.5000     60.7540      0.0000    354.1675      7.8219
   631.7500     59.5062      0.0000    354.2368      7.8445
   632.0000     58.7073      0.0000    354.3591      7.8478
   632.2500     59.4361      0.0000    354.4608      7.8307
