~Version Information
VERS.                      2.0: CWLS Log ASCII Standard - VERSION 2.0
WRAP.                       NO: One line per depth step
~Well Information Block
STRT.FT                10.0000: 
STOP.FT              1044.5000: 
STEP.FT                 0.1000: 
NULL.                -999.2500: 
COMP.          Pioneer Natural Resources: COMPANY
WELL.          Stags Leap 13-30: WELL
FLD.           Purgatorie River: FIELD
LOC.           1813' FSL & 117' FWL: LOCATION
PROV.                 Colorado: PROVINCE
CNTY.               Las Animas: COUNTRY
SRVC.                Patterson: SERVICE COMPANY
DATE.          Fri Dec 09 09:46:17 2005: LOG DATE
UWI.                          : UNIQUE WELL ID
~Curve Information Block
DEPT.FT            0 000 00 00: Depth
DCAL.in                       : CDL Caliper
RHOB.g/cc                     : CDL Bulk Density
RHOC.g/cc                     : CDL Density Correction
DPOR.pu                       : CDL Density Porosity
GR.GAPI                       : Gamma Ray
NPOR.pu                       : Neutron Porosity
~Parameter Information Block
~A  Depth       DCAL        RHOB        RHOC        DPOR         GR         NPOR    
# ...
    77.2000     -3.1029      2.1882      1.6676     -0.0092     60.8241     22.5259
    77.3000     -3.1029      2.1530      1.6159     -0.0099     59.1708     22.4173
    77.4000     -3.1029      2.1496      1.6686     -0.0100     60.3204     22.0863
    77.5000     -3.1029      2.1610      1.6474     -0.0098     63.2713     21.4863
    77.6000     -3.1029      2.1656      1.6914     -0.0097     65.6847     21.0377
    77.7000     -3.1029      2.1694      1.6510     -0.0096     67.1844     21.1250
    77.8000     -3.1029      2.1843      1.6585     -0.0093     68.4480     21.4918
    77.9000     -3.1029      2.2029      1.6909     -0.0089     69.8396     21.7306
    78.0000     -3.1029      2.2150      1.6680     -0.0087     71.6922     21.8781
    78.1000     -3.1029      2.2220      1.7191     -0.0086     73.2643     22.1638
    78.2000     -3.1029      2.2281      1.7165     -0.0084     73.5106     22.4708
    78.3000     -3.1029      2.2385      1.7301     -0.0082     71.7581     22.5580
    78.4000     -3.1029      2.2520      1.7393     -0.0080     68.9826     22.4269
    78.5000     -3.1029      2.2593      1.7358     -0.0078     67.5764     22.1763
    78.6000     -3.1029      2.2631      1.6576     -0.0077     68.5992     22.0559
    78.7000     -3.1029      2.2751      1.7547     -0.0075     70.6526     22.2643
    78.8000     -3.1029      2.3015      1.6738     -0.0070     72.1625     22.5108
    78.9000     -3.1029      2.3384      1.8298     -0.0062     72.6134     22.5434
    79.0000     -3.1029      2.3576      1.8419     -0.0059     71.4432     22.6640
    79.1000     -3.1029      2.3497      1.7369     -0.0060     69.3623     22.8279
    79.2000     -3.1029      2.3411      1.6887     -0.0062     67.5727     22.9035
    79.3000     -3.1029      2.3302      1.8033     -0.0064     65.9562     23.1132
    79.4000     -3.1029      2.2945      1.7458     -0.0071     64.2139     23.2824
    79.5000     -3.1029      2.2563      1.6319     -0.0079     63.4948     23.2618
    79.6000     -3.1029      2.2559      1.6654     -0.0079     65.6238     23.2888
    79.7000     -3.1029      2.2879      1.6862     -0.0072     69.0889     23.3362
    79.8000     -3.1029      2.3069      1.7503     -0.0069     70.5892     23.2896
    79.9000     -3.1029      2.2838      1.7037     -0.0073     69.3601     23.2537
    80.0000     -3.1029      2.2392      1.6930     -0.0082     67.6725     23.0233
    80.1000     -3.1029      2.2051      1.6856     -0.0089     67.7012     22.3068
    80.2000     -3.1029      2.1795      1.6939     -0.0094     68.4042     21.4869
    80.3000     -3.1029      2.1447      1.6528     -0.0101     68.7742     21.3163
    80.4000     -3.1029      2.1047      1.6747     -0.0109     69.9425     21.9142
    80.5000     -3.1029      2.0797      1.6735     -0.0114     70.6151     22.6125
    80.6000     -3.1029      2.0799      1.6285     -0.0114     67.6846     22.9796
    80.7000     -3.1029      2.0923      1.6980     -0.0112     62.2123     23.1644
    80.8000     -3.1029      2.0989      1.6890     -0.0110     59.4170     23.0961
    80.9000     -3.1029      2.1053      1.6581     -0.0109     60.7132     22.7026
    81.0000     -3.1029      2.1211      1.7163     -0.0106     61.3768     22.1669
    81.1000     -3.1029      2.1391      1.7445     -0.0102     59.6912     21.7125
    81.2000     -3.1029      2.1506      1.7699     -0.0100     59.5081     21.3862
    81.3000     -3.1029      2.1627      1.6857     -0.0098     61.4081     21.0414
    81.4000     -3.1029      2.1770      1.8034     -0.0095     62.4537     20.7068
    81.5000     -3.1029      2.1747      1.7804     -0.0095     61.6665     20.6138
    81.6000     -3.1029      2.1541      1.7517     -0.0099     60.5450     20.7236
    81.7000     -3.1029      2.1307      1.7352     -0.0104     60.6965     20.8078
    81.8000     -3.1029      2.1134      1.6452     -0.0107     62.8070     20.7873
    81.9000     -3.1029      2.0932      1.7151     -0.0111     65.7746     20.6722
    82.0000     -3.1029      2.0650      1.6769     -0.0117     66.6525     20.4713
    82.1000     -3.1029      2.0663      1.6158     -0.0117     63.7965     20.2874
    82.2000     -3.1029      2.1168      1.7618     -0.0107     58.8890     20.4554
    82.3000     -3.1029      2.1716      1.7378     -0.0096     54.8212     21.1682
    82.4000     -3.1029      2.2043      1.7255     -0.0089     53.0570     21.9863
    82.5000     -3.1029      2.2403      1.7674     -0.0082     53.5348     22.3832
    82.6000     -3.1029      2.2865      1.8698     -0.0073     55.3960     22.3015
    82.7000     -3.1029      2.3042      1.9313     -0.0069     57.3969     22.2238
    82.8000     -3.1029      2.2740      1.7845     -0.0075     59.0082     22.4255
    82.9000     -3.1029      2.2314      1.7429     -0.0084     60.3167     22.5003
    83.0000     -3.1029      2.2107      1.7518     -0.0088     60.9707     22.0876
    83.1000     -3.1029      2.2087      1.7296     -0.0088     61.7454     21.5046
    83.2000     -3.1029      2.2034      1.8030     -0.0089     65.3096     21.3446
    83.3000     -3.1029      2.1779      1.7666     -0.0094     71.9349     21.6905
    83.4000     -3.1029      2.1393      1.7039     -0.0102     76.1441     22.0988
    83.5000     -3.1029      2.1091      1.6919     -0.0108     73.8413     22.0579
    83.6000     -3.1029      2.1056      1.6200     -0.0109     70.3041     21.4387
    83.7000     -3.1029      2.1259      1.7635     -0.0105     71.4306     20.9073
    83.8000     -3.1029      2.1484      1.7137     -0.0100     76.2466     21.1363
    83.9000     -3.1029      2.1661      1.7353     -0.0097     80.9925     21.9102
    84.0000     -3.1029      2.1835      1.7346     -0.0093     82.3185     22.7268
    84.1000     -3.1029      2.1933      1.7785     -0.0091     80.3242     23.4163
    84.2000     -3.1029      2.1793      1.7815     -0.0094     77.8572     23.9829
    84.3000     -3.1029      2.1446      1.6861     -0.0101     77.4565     24.3726
    84.4000     -3.1029      2.1135      1.7091     -0.0107     79.9335     24.3277
    84.5000     -3.1029      2.1003      1.6980     -0.0110     82.3826     24.0566
    84.6000     -3.1029      2.1045      1.7185     -0.0109     82.2612     24.0380
    84.7000     -3.1029      2.1277      1.7264     -0.0105     80.0212     24.2325
    84.8000     -3.1029      2.1642      1.7913     -0.0097     76.9471     24.2036
    84.9000     -3.1029      2.1822      1.8862     -0.0094     73.6589     23.6496
    85.0000     -3.1029      2.1593      1.8121     -0.0098     71.6614     22.9839
    85.1000     -3.1029      2.1205      1.7481     -0.0106     71.9261     22.7546
    85.2000     -3.1029      2.1056      1.7477     -0.0109     71.4613     22.6448
    85.3000     -3.1029      2.1197      1.7604     -0.0106     68.6398     22.2797
    85.4000     -3.1029      2.1344      1.8147     -0.0103     65.9159     22.0227
    85.5000     -3.1029      2.1340      1.7601     -0.0103     64.6700     21.9685
    85.6000     -3.1029      2.1321      1.7782     -0.0104     63.8378     21.8675
    85.7000     -3.1029      2.1276      1.8560     -0.0105     63.1456     21.7526
    85.8000     -3.1029      2.1052      1.7691     -0.0109     63.3282     21.7507
    85.9000     -3.1029      2.0822      1.7450     -0.0114     63.5811     22.0984
    86.0000     -3.1029      2.0836      1.7520     -0.0113     62.1231     22.8788
    86.1000     -3.1029      2.1012      1.7735     -0.0110     60.0084     23.5031
    86.2000     -3.1029      2.1090      1.8166     -0.0108     59.7581     23.3628
    86.3000     -3.1029      2.0970      1.7854     -0.0111     60.8591     22.6110
    86.4000     -3.1029      2.0804      1.7299     -0.0114     60.7874     21.9923
    86.5000     -3.1029      2.0833      1.6598     -0.0113     58.7816     21.9415
    86.6000     -3.1029      2.1042      1.8571     -0.0109     57.1353     22.1422
    86.7000     -3.1029      2.1207      1.8094     -0.0106     58.2367     22.1952
