~Version Information
VERS.                      2.0: CWLS Log ASCII Standard - VERSION 2.0
WRAP.                       NO: One line per depth step
~Well Information Block
STRT.FT                -8.7500: 
STOP.FT              1860.5000: 
STEP.FT                 0.2500: 
NULL.                -999.2500: 
COMP.          Pioneer Natural Resources: COMPANY
WELL.          Cortina 23-25 Tr: WELL
FLD.           Purgatorie River: FIELD
LOC.           --2521' FSL & 2345' FWL------: LOCATION
STAT.                       CO: PROVINCE
CNTY.               Las Animas: COUNTY
CTRY. USA : country
SECT. 25 : Section
TOWN. 32S : Township
RANG. 67W : Range
SRVC.          Patterson Wireline: SERVICE COMPANY
DATE.          Thu Sep 29 11:30:45 2005: LOG DATE
API.           05 071 08534 00: UNIQUE WELL ID
~Curve Information Block
DEPT.FT            0 000 00 00: Depth
CCL.                          : Casing Collar Locator
TT3.usec                      : CBL 3' Travel Time
AMP3.mV                       : CBL 3' Amplitude
GR.GAPI                       : Gamma Ray
~Parameter Information Block
~A  Depth       CCL         TT3         AMP3         GR     
# ...
  1699.7500      0.0000    750.1540     13.5931    141.3880
  1700.0000      0.0000    758.2227     13.7167    138.0025
  1700.2500      0.0000    756.2487     13.8155    129.5854
  1700.5000      0.0000    744.6923     13.8032    117.7122
  1700.7500      0.0000    728.2971     13.6055    104.7927
  1701.0000      0.0000    716.5948     13.1998     93.3139
  1701.2500      0.0000    716.9523     12.6397     85.7978
  1701.5000      0.0000    728.3891     12.0225     84.1129
  1701.7500      0.0000    743.9758     11.3980     88.0360
  1702.0000      0.0000    757.5757     10.7327     94.9522
  1702.2500      0.0000    766.6469     10.0207    101.6885
  1702.5000      0.0000    770.8714      9.4208    106.5953
  1702.7500      0.0000    770.7763      9.1933    109.7371
  1703.0000      0.0000    767.0666      9.4662    111.7821
  1703.2500      2.0000    760.0765     10.1069    113.5242
  1703.5000      0.0000    750.2473     10.8321    116.1664
  1703.7500      0.0000    739.2670     11.4050    120.9120
  1704.0000      0.0000    728.0508     11.7767    127.7134
  1704.2500      0.0000    712.0219     12.1227    134.8607
  1704.5000      0.0000    683.3612     12.7047    140.2516
  1704.7500      0.0000    643.5716     13.5931    143.0643
  1705.0000      0.0000    610.2137     14.5488    143.9972
  1705.2500      0.0000    603.3121     15.2632    143.9080
  1705.5000      0.0000    625.4526     15.6642    142.6864
  1705.7500      0.0000    660.5768     15.8998    139.8979
  1706.0000      0.0000    690.7826     16.0954    136.1175
  1706.2500      0.0000    709.1003     16.2422    133.0019
  1706.5000      0.0000    717.9653     16.2867    131.9784
  1706.7500      0.0000    722.1654     16.2255    133.0851
  1707.0000      0.0000    725.0209     16.0967    135.2162
  1707.2500      0.0000    727.9120     15.9380    137.4657
  1707.5000      0.0000    730.7263     15.7778    139.8402
  1707.7500      0.0000    732.7727     15.6412    142.5434
  1708.0000      0.0000    733.7186     15.5422    145.2829
  1708.2500      0.0000    733.7309     15.4704    147.6725
  1708.5000      0.0000    732.9353     15.3931    149.5335
  1708.7500      0.0000    731.0152     15.2712    150.4350
  1709.0000      0.0000    727.6215     15.0807    149.7378
  1709.2500      0.0000    723.2573     14.8303    147.4954
  1709.5000      0.0000    719.3242     14.5553    144.6908
  1709.7500      0.0000    716.3283     14.2901    142.2763
  1710.0000      0.0000    711.5977     14.0497    140.5870
  1710.2500      0.0000    699.7667     13.8362    140.0598
  1710.5000      0.0000    677.7258     13.6532    141.6800
  1710.7500      0.0000    650.6743     13.5058    145.9404
  1711.0000      0.0000    631.9504     13.3938    151.5149
  1711.2500      0.0000    633.4388     13.3098    155.4032
  1711.5000      0.0000    654.9039     13.2440    154.6794
  1711.7500      0.0000    684.3783     13.1902    148.5446
  1712.0000      0.0000    708.9791     13.1496    139.1798
  1712.2500      0.0000    723.5988     13.1294    130.6883
  1712.5000      0.0000    730.3708     13.1358    126.7261
  1712.7500      0.0000    733.6013     13.1658    128.4033
  1713.0000      0.0000    736.5045     13.2049    133.8761
  1713.2500      0.0000    740.6539     13.2319    139.7566
  1713.5000      0.0000    746.3469     13.2326    143.3030
  1713.7500      0.0000    753.0734     13.2143    144.0437
  1714.0000      0.0000    760.0511     13.2053    143.7858
  1714.2500      0.0000    766.5256     13.2311    144.8087
  1714.5000      0.0000    771.8224     13.2907    147.5190
  1714.7500      0.0000    775.5049     13.3603    149.7850
  1715.0000      0.0000    777.6069     13.4191    148.9989
  1715.2500      0.0000    778.5393     13.4652    144.9960
  1715.5000      0.0000    778.7485     13.5072    140.4955
  1715.7500      0.0000    778.5274     13.5465    138.4305
  1716.0000      0.0000    778.0240     13.5685    139.2446
  1716.2500      0.0000    777.2151     13.5456    140.9774
  1716.5000      0.0000    775.7761     13.4471    141.4852
  1716.7500      0.0000    773.1213     13.2538    140.0614
  1717.0000      0.0000    768.9362     12.9653    137.3110
  1717.2500      0.0000    763.9893     12.5992    134.2618
  1717.5000      0.0000    760.1260     12.1890    131.6107
  1717.7500      0.0000    758.7181     11.7812    129.2191
  1718.0000      0.0000    758.9390     11.4231    126.2957
  1718.2500      0.0000    758.3471     11.1496    122.4205
  1718.5000      0.0000    755.7738     10.9834    118.4383
  1718.7500      0.0000    753.2150     10.9394    116.1422
  1719.0000      0.0000    754.0995     11.0154    116.7981
  1719.2500      0.0000    759.7731     11.1699    119.7703
  1719.5000      0.0000    768.2897     11.3114    122.7569
  1719.7500      0.0000    776.3005     11.3232    123.5520
  1720.0000      0.0000    781.2133     11.1237    121.3613
  1720.2500      0.0000    782.0079     10.7302    116.4990
  1720.5000      0.0000    779.8146     10.2692    109.6361
  1720.7500      0.0000    777.9564      9.9045    101.7405
  1721.0000      0.0000    779.4039      9.7362     94.2480
  1721.2500      0.0000    782.8418      9.7570     88.7838
  1721.5000      0.0000    782.8353      9.8924     86.4955
  1721.7500      0.0000    775.6333     10.0655     87.3999
  1722.0000      0.0000    763.6650     10.2257     90.3484
  1722.2500      0.0000    753.0031     10.3483     93.8678
  1722.5000      0.0000    747.8592     10.4340     97.0958
  1722.7500      0.0000    748.3877     10.5092     99.9210
  1723.0000      0.0000    751.8002     10.6111    102.6693
  1723.2500      0.0000    754.3727     10.7661    105.9752
  1723.5000      0.0000    753.7627     10.9811    110.5573
  1723.7500      0.0000    750.3052     11.2545    116.4284
  1724.0000      0.0000    745.4941     11.5996    122.0757
  1724.2500      0.0000    738.5127     12.0533    124.9625
  1724.5000      0.0000    724.6544     12.6453    123.5401
  1724.7500      0.0000    697.7604     13.3500    118.7734
  1725.0000      0.0000    654.9334     14.0870    113.4171
  1725.2500      0.0000    599.5536     14.7759    110.1172
  1725.5000      0.0000    541.1863     15.3833    110.3752
  1725.7500      0.0000    492.6883     15.9177    114.5126
  1726.0000      0.0000    463.6372     16.4026    121.6167
  1726.2500      0.0000    452.3175     16.8680    129.4852
  1726.5000      0.0000    445.6505     17.3525    135.2814
  1726.7500      0.0000    430.6642     17.8876    136.6965
  1727.0000      0.0000    405.5929     18.4611    133.0388
  1727.2500      0.0000    379.3417     18.9793    125.8645
  1727.5000      0.0000    363.7621     19.2733    118.6558
  1727.7500      0.0000    368.3919     19.1874    115.2224
  1728.0000      0.0000    398.6048     18.6997    117.4162
  1728.2500      0.0000    452.5687     17.9535    123.7621
  1728.5000      0.0000    517.0103     17.1601    130.6119
  1728.7500      0.0000    568.2871     16.4742    135.2768
  1729.0000      0.0000    583.7183     15.9450    137.9838
  1729.2500      0.0000    556.8389     15.5471    140.6086
  1729.5000      0.0000    502.5846     15.2315    143.9949
  1729.7500      0.0000    446.1510     14.9610    147.0290
  1730.0000      0.0000    405.9607     14.7307    147.9280
  1730.2500      0.0000    385.7551     14.5732    145.9476
  1730.5000      0.0000    378.9789     14.5429    142.1552
  1730.7500      0.0000    377.2472     14.6761    138.9179
  1731.0000      0.0000    375.5281     14.9503    138.3981
  1731.2500      0.0000    372.7491     15.2804    141.0153
  1731.5000      0.0000    369.8486     15.5612    145.0504
  1731.7500      0.0000    367.8203     15.7129    147.6229
  1732.0000      0.0000    367.1064     15.6902    146.3752
  1732.2500      0.0000    368.0565     15.4690    140.9438
  1732.5000      0.0000    371.3459     15.0572    133.2675
  1732.7500      0.0000    377.7799     14.5235    126.4967
  1733.0000      0.0000    387.8382     13.9941    123.5082
