~Version Information
VERS.                      2.0: CWLS Log ASCII Standard - VERSION 2.0
WRAP.                       NO: One line per depth step
~Well Information Block
STRT.FT               310.0000: 
STOP.FT               815.0000: 
STEP.FT                 0.2500: 
NULL.                -999.2500: 
COMP.          Pioneer Natural Resources: COMPANY
WELL.           Weissach 32-32: WELL
FLD.           Purgatorie River: FIELD
LOC.           2193' FNL & 2256' FEL: LOCATION
STAT.                 Colorado: State
CNTY.               Las Animas: COUNTY
CTRY. USA : Country
SECT. 32 : Section
TOWN. 33S : Township
RANG. 65W : Range
SRVC.                Patterson: SERVICE COMPANY
DATE.          Mon Sep 26 09:20:51 2005: LOG DATE
API. 05-071-08523                         : UNIQUE WELL ID
~Curve Information Block
DEPT.FT            0 000 00 00: Depth
SN.Ohm-m                      : IEL Short Normal
SP.mV                         : IEL Spontaneous Potential
DIR.Ohm-m                     : IEL Induction Resistivity
GR.GAPI                       : Gamma Ray
~Parameter Information Block
~A  Depth        SN          SP         DIR          GR     
# ...
   477.5000     11.9372    147.6068     15.5637    120.3297
   477.7500     12.4098    147.7381     12.8044    113.8927
   478.0000     12.7591    148.2282     13.8269    123.3925
   478.2500     11.7493    148.7088     11.3362    113.5708
   478.5000     11.4098    149.4918     11.4552     94.6917
   478.7500     11.2199    150.5199     13.0341    111.5457
   479.0000     10.7266    151.5630     10.9106     99.9678
   479.2500     10.6028    152.7989     10.9527    102.8482
   479.5000     10.7418    154.1042     11.9404    103.1433
   479.7500     11.4827    154.8056     13.7336    108.5634
   480.0000     11.7779    154.7958     14.0485    104.6058
   480.2500     12.4864    155.4862     16.0768     98.2309
   480.5000     11.5331    156.1694     15.4620    114.6820
   480.7500     11.5952    155.7771     11.4200    105.6422
   481.0000     13.3792    155.6129     11.1375    113.5028
   481.2500     11.9760    155.4838     11.1860    115.7452
   481.5000     11.6060    155.4180     11.8016     85.1573
   481.7500     12.1377    155.6211     11.9288     99.2033
   482.0000     12.5134    155.2256     12.1479     97.7140
   482.2500     12.7847    154.3732     12.4032     96.0677
   482.5000     14.2279    154.0054     13.5357     99.9209
   482.7500     13.4439    154.2417     17.5546    107.7915
   483.0000     13.4663    154.4705     13.5834    106.6315
   483.2500     13.1551    154.4254     13.2820    107.1145
   483.5000     13.1428    154.3288     13.4382    103.1356
   483.7500     15.0939    154.9939     14.5707    115.0238
   484.0000     13.8599    155.2348     13.5690    106.7049
   484.2500     13.9955    155.9862     13.8550    115.2988
   484.5000     14.1093    156.5365     14.0787    101.0773
   484.7500     14.9101    156.1085     14.7170     96.5379
   485.0000     15.4792    156.1539     15.6966     99.3294
   485.2500     15.3797    156.5449     19.5558     99.7235
   485.5000     15.3747    156.8828     25.6626    112.2648
   485.7500     17.3422    157.1371     17.8883    100.4853
   486.0000     18.6356    157.5835     20.4184     90.8920
   486.2500     17.3745    157.8257     21.3199     92.5323
   486.5000     17.4212    158.1666     17.6893    113.7948
   486.7500     17.4198    158.7986     22.3656     95.1923
   487.0000     16.7418    159.5908     17.5157    100.3231
   487.2500     16.9741    160.6331     18.6934     89.6956
   487.5000     16.7847    160.4949     17.6842    114.7749
   487.7500     18.0802    160.9689     19.5588    100.6009
   488.0000     19.4103    161.6295     26.4579     84.9711
   488.2500     19.7397    162.5326     19.6836     83.0188
   488.5000     20.6364    163.3278     19.3375    110.4184
   488.7500     21.8016    163.3076     18.7471    119.3290
   489.0000     23.4862    163.2749     19.4738    124.2617
   489.2500     23.2137    163.2312     19.3407    112.1870
   489.5000     22.8902    163.2060     19.4382     96.1980
   489.7500     24.1938    162.1757     20.0830     88.5775
   490.0000     25.8523    161.4740     19.8062     78.2329
   490.2500     25.2666    160.7384     20.1788     72.4669
   490.5000     25.1315    159.9939     20.3135     81.1779
   490.7500     24.7686    159.5475     22.6616     75.1757
   491.0000     24.3399    159.4789     21.4669     79.4331
   491.2500     24.1725    158.6483     20.6795     97.6908
   491.5000     25.9379    158.0544     21.8886     88.3881
   491.7500     26.0479    158.4296     23.0160     73.8814
   492.0000     25.9996    158.6078     22.5892     92.0695
   492.2500     26.8667    158.0906     23.6092    112.7976
   492.5000     27.1480    158.3927     22.8307    107.0578
   492.7500     27.9757    158.6165     23.2259     86.9039
   493.0000     30.9988    159.5092     24.2978     87.8087
   493.2500     33.5542    159.9760     28.3319     95.0479
   493.5000     33.4779    161.0990     25.3580     80.4621
   493.7500     34.9638    162.2671     24.5799     80.4074
   494.0000     38.3312    162.9166     25.0935     84.2471
   494.2500     38.9141    163.6372     25.9343     74.2481
   494.5000     39.0576    164.0302     26.6969     48.8692
   494.7500     40.6785    164.3072     29.6528     43.6656
   495.0000     39.2896    164.4899     33.9279     26.8992
   495.2500     40.1027    164.7052     51.9160     30.0717
   495.5000     39.4609    165.2455     30.1978     50.8194
   495.7500     38.0401    165.8061     29.4829     54.4651
   496.0000     36.4843    166.2652     29.3639     56.1594
   496.2500     35.4359    166.7910     29.0803     57.2091
   496.5000     34.6278    167.5428     27.9180     58.9107
   496.7500     34.7371    167.6687     27.5417     72.0167
   497.0000     34.3276    168.0383     28.1965     64.5426
   497.2500     34.3196    168.7242     31.1911     66.7077
   497.5000     35.1658    169.6123     33.3990     63.0572
   497.7500     35.1019    169.8887     76.8256     56.9552
   498.0000     34.7633    170.2429     29.5550     60.2727
   498.2500     35.0709    171.0096     28.2287     48.2446
   498.5000     35.8727    172.0154     27.7600     58.9760
   498.7500     35.1237    173.6874     27.8890     70.4375
   499.0000     35.3419    175.0214     27.6403     53.5999
   499.2500     37.0369    174.3125     27.6945     42.5654
   499.5000     39.0515    174.4629     28.0512     49.1475
   499.7500     36.5196    174.8341     28.2496     42.7618
   500.0000     35.7796    175.0786     28.9075     44.3042
   500.2500     37.1971    175.3669     30.0897     40.2413
   500.5000     38.1013    175.9169     32.3410     60.6704
   500.7500     37.0449    177.0360     30.9174     61.9092
   501.0000     35.7947    178.0984     31.4736     46.4011
   501.2500     35.8422    178.3742     27.8721     53.0337
   501.5000     37.9828    178.8545     26.9744     40.4290
   501.7500     35.2583    179.4252     25.9255     52.6214
   502.0000     34.4873    179.8681     25.9443     54.0851
   502.2500     34.1301    180.2919     25.1750     52.8193
   502.5000     32.2575    180.8671     24.5338     44.0953
   502.7500     31.2654    181.6602     24.1974     53.4344
   503.0000     29.8664    182.8288     23.8042     67.7452
   503.2500     27.8782    183.7199     23.6841     67.4703
   503.5000     27.2012    185.0063     23.9069     53.4750
   503.7500     27.2554    184.8994     22.7291     51.6674
   504.0000     27.1018    185.1082     22.0680     70.7411
   504.2500     26.4805    185.3067     21.2610     70.7938
   504.5000     23.9766    185.4848     21.5264     65.5622
   504.7500     23.7816    185.4026     21.1152     75.3354
   505.0000     24.6176    185.3858     20.8777     72.4502
   505.2500     24.1593    185.3835     20.8896     58.7990
   505.5000     23.6950    185.5253     20.5673     55.0189
   505.7500     23.1982    185.7124     20.4056     59.1512
   506.0000     23.8175    186.0058     20.0499     68.4821
   506.2500     24.3952    186.6461     20.1932     83.7835
   506.5000     24.3233    186.8810     20.2437     89.6829
   506.7500     24.6829    187.5228     19.6595     83.9950
   507.0000     24.3314    187.6551     19.0734     84.9003
   507.2500     23.9788    188.1307     19.1598     83.5801
   507.5000     23.8307    188.7404     19.3249     81.0438
   507.7500     22.9934    189.5007     19.2187     88.4790
   508.0000     22.6380    190.2398     18.9901     88.5078
   508.2500     23.2809    190.7432     18.7832     90.0444
   508.5000     22.7053    191.1827     18.4572     77.7897
   508.7500     22.0258    191.5712     18.5398     59.7674
   509.0000     21.5334    191.8083     18.6412     60.4461
   509.2500     20.7336    191.9247     19.2282     78.4782
   509.5000     20.4635    191.9683     22.4921    102.0663
   509.7500     21.1193    191.9073     18.1028     86.0222
   510.0000     21.8617    191.7337     17.4893     92.5818
   510.2500     21.2526    191.4273     17.4838     84.4827
   510.5000     20.9868    190.9952     19.3887     76.9187
   510.7500     20.8689    190.5672     21.4612     86.4330
