~Version Information
VERS.                      2.0: CWLS Log ASCII Standard - VERSION 2.0
WRAP.                       NO: One line per depth step
~Well Information Block
STRT.FT                -6.5000: 
STOP.FT              1758.0000: 
STEP.FT                 0.2500: 
NULL.                -999.2500: 
COMP.          Pioneer Natural Resources: COMPANY
WELL.           Rolls 14-14 Tr: WELL
FLD.           Purgatorie River: FIELD
LOC.           473' FSL & 817' FWL--: LOCATION
PROV.                       CO: PROVINCE
CNTY.               Las Animas: COUNTRY
SRVC.          Patterson Wireline: SERVICE COMPANY
DATE.          Mon Aug 08 11:51:25 2005: LOG DATE
UWI.           05 071 08454 00: UNIQUE WELL ID
~Curve Information Block
DEPT.FT            0 000 00 00: Depth
CCL.                          : Casing Collar Locator
TT3.usec                      : CBL 3' Travel Time
AMP3.mV                       : CBL 3' Amplitude
GR.GAPI                       : Gamma Ray
~Parameter Information Block
~A  Depth       CCL         TT3         AMP3         GR     
# ...
   462.5000      0.0000    782.6664      7.1853     50.5863
   462.7500      0.0000    780.8506      7.3019     51.0877
   463.0000      0.0000    779.8994      7.3114     50.4327
   463.2500      0.0000    781.5800      7.2517     49.0405
   463.5000      0.0000    785.7602      7.1452     47.5460
   463.7500      0.0000    790.3112      7.0186     46.4802
   464.0000      0.0000    793.4189      6.9097     46.0026
   464.2500      0.0000    794.7840      6.8491     45.8419
   464.5000      0.0000    795.0395      6.8398     45.8202
   464.7500      0.0000    794.8788      6.8604     46.4066
   465.0000      0.0000    794.7245      6.8858     48.3324
   465.2500      0.0000    794.7398      6.9037     51.6622
   465.5000      0.0000    794.9110      6.9119     55.6617
   465.7500      0.0000    795.1380      6.9085     59.6372
   466.0000      0.0000    795.3268      6.8885     63.5502
   466.2500      0.0000    795.4713      6.8494     67.7249
   466.5000      0.0000    795.6771      6.7986     72.2866
   466.7500      0.0000    796.1707      6.7546     77.0434
   467.0000      0.0000    797.3629      6.7382     81.5793
   467.2500      0.0000    799.8287      6.7551     85.3148
   467.5000      0.0000    803.8376      6.7897     87.9438
   467.7500      0.0000    808.5302      6.8191     89.9506
   468.0000      0.0000    811.8138      6.8316     92.0908
   468.2500      0.0000    811.7761      6.8274     94.1788
   468.5000      0.0000    808.4274      6.8079     95.1366
   468.7500      0.0000    803.7044      6.7715     94.4964
   469.0000      0.0000    799.7346      6.7198     93.2050
   469.2500      0.0000    797.3984      6.6623     92.5492
   469.5000      0.0000    796.4001      6.6134     92.6138
   469.7500      0.0000    796.1245      6.5871     92.1029
   470.0000      0.0000    796.1739      6.5903     89.7184
   470.2500      0.0000    796.3654      6.6195     85.7927
   470.5000      0.0000    796.5705      6.6659     82.4850
   470.7500      0.0000    796.7083      6.7251     82.0453
   471.0000      0.0000    796.8640      6.8010     84.6967
   471.2500      0.0000    797.3220      6.9013     88.4664
   471.5000      0.0000    798.3508      7.0301     91.1256
   471.7500      0.0000    799.7466      7.1820     91.7166
   472.0000      0.0000    800.6500      7.3408     90.0830
   472.2500      0.0000    800.3011      7.4875     86.0295
   472.5000      0.0000    799.1592      7.6158     79.8195
   472.7500      0.0000    798.5897      7.7389     72.8267
   473.0000      0.0000    798.8879      7.8786     66.8035
   473.2500      0.0000    798.4348      8.0439     62.6556
   473.5000      0.0000    795.8309      8.2167     60.2604
   473.7500      0.0000    792.5454      8.3644     59.1037
   474.0000      0.0000    792.2867      8.4663     58.7670
   474.2500      0.0000    797.4213      8.5310     59.0023
   474.5000      0.0000    806.7171      8.5866     59.6133
   474.7500      0.0000    816.7495      8.6581     60.4690
   475.0000      0.0000    824.6716      8.7524     61.7425
   475.2500      0.0000    829.4796      8.8598     63.8720
   475.5000      0.0000    831.5089      8.9638     66.8944
   475.7500      0.0000    831.2996      9.0496     69.9269
   476.0000      0.0000    828.6597      9.1055     71.8540
   476.2500      0.0000    822.6002      9.1204     72.5952
   476.5000      0.0000    812.7263      9.0868     73.0794
   476.7500      0.0000    801.2624      9.0114     73.7428
   477.0000      0.0000    793.0773      8.9198     73.6226
   477.2500      0.0000    792.4520      8.8455     71.2996
   477.5000      0.0000    799.5016      8.8127     66.4033
   477.7500      0.0000    810.2266      8.8305     59.9547
   478.0000      0.0000    819.8889      8.8941     53.6253
   478.2500      0.0000    826.0234      8.9847     48.9359
   478.5000      0.0000    828.8101      9.0730     46.7301
   478.7500      0.0000    829.6229      9.1313     46.8281
   479.0000      0.0000    829.6428      9.1448     48.1804
   479.2500      0.0000    829.4413      9.1161     49.7467
   479.5000      0.0000    829.2057      9.0655     51.5121
   479.7500      0.0000    828.9675      9.0256     54.4349
   480.0000      0.0000    828.5293      9.0248     59.1321
   480.2500      0.0000    827.4291      9.0686     64.8259
   480.5000      0.0000    825.3477      9.1384     69.9152
   480.7500      0.0000    822.6802      9.2106     73.4594
   481.0000      0.0000    820.2374      9.2743     75.8778
   481.2500      0.0000    818.0049      9.3321     78.3363
   481.5000      0.0000    814.5924      9.3854     81.7241
   481.7500      0.0000    808.6221      9.4296     86.1803
   482.0000      0.0000    800.6282      9.4617     91.1366
   482.2500      0.0000    793.0919      9.4853     95.4200
   482.5000      0.0000    788.6371      9.5024     97.5609
   482.7500      0.0000    788.6066      9.5059     96.6207
   483.0000      0.0000    793.0919      9.4854     92.9420
   483.2500      0.0000    801.2224      9.4352     87.9250
   483.5000      0.0000    811.0320      9.3581     83.0801
   483.7500      0.0000    819.9326      9.2662     79.3868
   484.0000      0.0000    825.9993      9.1799     77.3907
   484.2500      0.0000    828.6452      9.1186     77.5085
   484.5000      0.0000    828.1879      9.0890     79.8302
   484.7500      0.0000    825.3262      9.0839     83.5186
   485.0000      0.0000    821.1311      9.0896     86.7347
   485.2500      0.0000    816.9675      9.0897     87.7210
   485.5000      0.0000    813.9492      9.0649     86.2895
   485.7500      0.0000    812.4828      9.0013     84.0915
   486.0000      0.0000    812.4025      8.9042     83.1565
   486.2500      0.0000    813.2931      8.7968     84.2553
   486.5000      0.0000    814.3571      8.7033     86.7154
   486.7500      0.0000    814.1185      8.6361     89.4298
   487.0000      0.0000    810.9816      8.5981     91.6882
   487.2500      0.0000    804.6549      8.5874     93.2609
   487.5000      0.0000    796.6677      8.5945     94.2134
   487.7500      0.0000    789.0009      8.6024     94.9323
   488.0000      0.0000    782.5267      8.5963     96.0629
   488.2500      0.0000    777.0859      8.5730     98.0463
   488.5000      0.0000    772.4774      8.5380    100.5830
   488.7500      0.0000    768.7389      8.4956    102.7701
   489.0000      0.0000    765.8951      8.4425    103.9214
   489.2500      0.0000    764.1162      8.3701    103.9533
   489.5000      0.0000    763.9847      8.2711    102.7558
   489.7500      0.0000    765.7859      8.1455     99.8760
   490.0000      0.0000    768.3357      8.0023     95.4072
   490.2500      0.0000    769.2354      7.8562     90.6867
   490.5000      0.0000    766.9457      7.7209     87.4872
   490.7500      0.0000    762.4642      7.6049     86.7435
   491.0000      0.0000    758.6821      7.5103     88.2626
   491.2500      0.0000    758.0714      7.4326     91.1770
   491.5000      0.0000    760.9487      7.3647     94.3192
   491.7500      0.0000    765.9192      7.3001     96.6221
   492.0000      0.0000    772.2184      7.2332     97.7808
   492.2500      0.0000    781.5081      7.1559     98.4009
   492.5000      0.0000    796.4536      7.0640     99.1121
   492.7500      0.0000    816.5656      6.9672     99.7766
   493.0000      0.0000    835.9413      6.8856     99.8663
   493.2500      0.0000    846.5981      6.8350     99.3125
   493.5000      0.0000    844.4847      6.8158     98.6938
   493.7500      0.0000    831.4824      6.8148     98.7885
   494.0000      0.0000    812.3029      6.8127    100.0974
   494.2500      0.0000    791.4854      6.7934    102.6794
   494.5000      0.0000    772.9044      6.7532    106.2536
   494.7500      0.0000    759.3613      6.7012    110.2675
   495.0000      0.0000    751.5234      6.6486    113.7015
   495.2500      0.0000    748.0522      6.5978    115.1458
   495.5000      0.0000    747.0388      6.5456    113.7802
   495.7500      0.0000    747.0717      6.4924    110.3582
