~Version Information
VERS.                      2.0: CWLS Log ASCII Standard - VERSION 2.0
WRAP.                       NO: One line per depth step
~Well Information Block
STRT.FT                 0.0000: 
STOP.FT              1906.7500: 
STEP.FT                 0.2500: 
NULL.                -999.2500: 
COMP.          Petrogulf Corporation: COMPANY
WELL.             Kraft 17-23R: WELL
FLD.           Purgatorie River: FIELD
LOC.           1509' FSL & 1673' FWL: LOCATION
STAT.                 Colorado: State
CNTY.               Las Animas: COUNTY
CTRY. USA : Country
SECT. 17 : Section
TOWN. 33S : Township
RANG. 67W : Range
SRVC.                Patterson: SERVICE COMPANY
DATE.          Fri Jan 06 08:59:54 2006: LOG DATE
API. 05-071-08560                         : UNIQUE WELL ID
~Curve Information Block
DEPT.FT            0 000 00 00: Depth
CCL.                          : Casing Collar Locator
TT3.usec                      : CBL 3' Travel Time
AMP3.mV                       : CBL 3' Amplitude
AMP3.mV                       : CBL 3' Amplitude
GR.GAPI                       : Gamma Ray
AMP3.mV                       : CBL 3' Amplitude
~Parameter Information Block
~A  Depth       CCL         TT3         AMP3        AMP3         GR        .AMP3    
# ...
  1872.0000      0.0000    638.7219      0.4903      0.4903     88.8186      0.4903
  1872.2500      0.0000    637.5900      0.4619      0.4619     77.0895      0.4619
  1872.5000      2.0000    636.7258      0.4376      0.4376     65.9103      0.4376
  1872.7500      0.0000    636.1458      0.4623      0.4623     57.2627      0.4623
  1873.0000      0.0000    635.6074      0.5234      0.5234     51.6149      0.5234
  1873.2500      0.0000    634.9995      0.5718      0.5718     48.3052      0.5718
  1873.5000      0.0000    634.5235      0.6067      0.6067     46.2906      0.6067
  1873.7500      0.0000    634.3788      0.6465      0.6465     44.8520      0.6465
  1874.0000      0.0000    634.4084      0.6330      0.6330     43.9319      0.6330
  1874.2500      0.0000    634.3785      0.5064      0.5064     43.8225      0.5064
  1874.5000      0.0000    634.3899      0.3413      0.3413     44.5417      0.3413
  1874.7500      0.0000    634.7286      0.2616      0.2616     45.7327      0.2616
  1875.0000      0.0000    635.6634      0.2889      0.2889     47.1285      0.2889
  1875.2500      0.0000    637.8091      0.3557      0.3557     48.8497      0.3557
  1875.5000      0.0000    642.6383      0.4061      0.4061     51.2259      0.4061
  1875.7500      0.0000    651.2502      0.4428      0.4428     54.5058      0.4428
  1876.0000      0.0000    661.7095      0.5017      0.5017     58.5911      0.5017
  1876.2500      0.0000    669.9174      0.6052      0.6052     62.8451      0.6052
  1876.5000      0.0000    673.8939      0.7424      0.7424     66.2735      0.7424
  1876.7500      0.0000    674.5046      0.8922      0.8922     68.1810      0.8922
  1877.0000      0.0000    672.3346      1.0511      1.0511     68.7784      1.0511
  1877.2500      0.0000    666.0720      1.2143      1.2143     69.0087      1.2143
  1877.5000      0.0000    654.7043      1.3460      1.3460     69.5912      1.3460
  1877.7500      0.0000    640.9552      1.4337      1.4337     70.4133      1.4337
  1878.0000      0.0000    629.6376      1.5211      1.5211     71.0482      1.5211
  1878.2500      0.0000    621.9980      1.6390      1.6390     71.5055      1.6390
  1878.5000      0.0000    615.8254      1.7841      1.7841     72.0921      1.7841
  1878.7500      0.0000    611.3681      1.9453      1.9453     72.8430      1.9453
  1879.0000      0.0000    613.2515      2.0879      2.0879     73.6539      2.0879
  1879.2500      0.0000    625.4657      2.1737      2.1737     74.9644      2.1737
  1879.5000      0.0000    645.9470      2.1963      2.1963     77.8068      2.1963
  1879.7500      0.0000    667.0584      2.1638      2.1638     82.9255      2.1638
  1880.0000      0.0000    680.7743      2.0868      2.0868     89.8043      2.0868
  1880.2500      0.0000    682.6390      1.9877      1.9877     96.4277      1.9877
  1880.5000      0.0000    673.7790      1.8991      1.8991     99.9710      1.8991
  1880.7500      0.0000    661.4957      1.8472      1.8472     98.2399      1.8472
  1881.0000      0.0000    653.6729      1.8345      1.8345     91.2295      1.8345
  1881.2500      0.0000    651.3185      1.8453      1.8453     81.6063      1.8453
  1881.5000      0.0000    649.9771      1.8726      1.8726     73.2117      1.8726
  1881.7500      0.0000    646.1167      1.9349      1.9349     68.5348      1.9349
  1882.0000      0.0000    641.6485      2.0652      2.0652     67.4987      2.0652
  1882.2500      0.0000    643.5690      2.2814      2.2814     68.5799      2.2814
  1882.5000      0.0000    654.3881      2.5647      2.5647     70.5576      2.5647
  1882.7500      0.0000    666.0441      2.8770      2.8770     72.8803      2.8770
  1883.0000      0.0000    669.8721      3.1813      3.1813     75.0582      3.1813
  1883.2500      0.0000    666.3491      3.4471      3.4471     76.6478      3.4471
  1883.5000      0.0000    662.1776      3.6557      3.6557     77.7846      3.6557
  1883.7500      0.0000    661.9615      3.7991      3.7991     79.1566      3.7991
  1884.0000      0.0000    664.4077      3.8850      3.8850     81.3590      3.8850
  1884.2500      0.0000    665.9676      3.9344      3.9344     84.5310      3.9344
  1884.5000      0.0000    664.1361      3.9322      3.9322     88.4960      3.9322
  1884.7500      0.0000    657.6584      3.8237      3.8237     92.7831      3.8237
  1885.0000      0.0000    648.1314      3.5953      3.5953     96.4631      3.5953
  1885.2500      0.0000    639.7584      3.3019      3.3019     98.4455      3.3019
  1885.5000      0.0000    635.4207      3.0118      3.0118     98.2568      3.0118
  1885.7500      0.0000    635.6878      2.7753      2.7753     96.4471      2.7753
  1886.0000      0.0000    641.1908      2.6101      2.6101     94.1838      2.6101
  1886.2500      0.0000    652.1991      2.4804      2.4804     92.5121      2.4804
  1886.5000      0.0000    665.5794      2.3385      2.3385     91.8838      2.3385
  1886.7500      0.0000    675.9603      2.1900      2.1900     92.2520      2.1900
  1887.0000      0.0000    681.0090      2.0690      2.0690     93.4809      2.0690
  1887.2500      0.0000    682.4584      1.9767      1.9767     95.4290      1.9767
  1887.5000      0.0000    682.4363      1.8953      1.8953     97.6423      1.8953
  1887.7500      0.0000    681.6493      1.8235      1.8235     99.4176      1.8235
  1888.0000      0.0000    680.3406      1.7575      1.7575    100.4198      1.7575
  1888.2500      0.0000    678.9396      1.6711      1.6711    100.9524      1.6711
  1888.5000      0.0000    677.7415      1.5452      1.5452    101.3078      1.5452
  1888.7500      0.0000    676.7538      1.4059      1.4059    101.1007      1.4059
  1889.0000      0.0000    675.9190      1.3011      1.3011     99.7054      1.3011
  1889.2500      0.0000    675.2966      1.2515      1.2515     97.2981      1.2515
  1889.5000      0.0000    675.0909      1.2555      1.2555     94.9571      1.2555
  1889.7500      0.0000    675.4805      1.3113      1.3113     93.4611      1.3113
  1890.0000      0.0000    676.2825      1.4122      1.4122     91.9041      1.4122
  1890.2500      0.0000    676.5579      1.5399      1.5399     87.4759      1.5399
  1890.5000      0.0000    674.2172      1.6629      1.6629     77.1315      1.6629
  1890.7500      0.0000    666.8762      1.7504      1.7504     60.3649      1.7504
  1891.0000      0.0000    656.3845      1.7921      1.7921     40.5015      1.7921
  1891.2500      0.0000    651.2943      1.7974      1.7974     22.7024      1.7974
  1891.5000      0.0000    656.9875      1.7873      1.7873     10.4341      1.7873
  1891.7500      0.0000    666.8184      1.7882      1.7882      3.8789      1.7882
  1892.0000      0.0000    671.0281      1.8136      1.8136      1.1546      1.8136
  1892.2500      0.0000    666.8130      1.8484      1.8484      0.2729      1.8484
  1892.5000      0.0000    657.2321      1.8567      1.8567      0.0503      1.8567
  1892.7500      0.0000    648.4857      1.7924      1.7924      0.0067      1.7924
  1893.0000      0.0000    647.3751      1.6208      1.6208      0.0000      1.6208
  1893.2500      0.0000    655.3126      1.3574      1.3574   -999.2500      1.3574
  1893.5000      0.0000    667.3380      1.0594      1.0594   -999.2500      1.0594
  1893.7500      0.0000    680.1312      0.7758      0.7758   -999.2500      0.7758
  1894.0000      0.0000    692.8526      0.5422      0.5422   -999.2500      0.5422
  1894.2500      0.0000    698.5175      0.3971      0.3971   -999.2500      0.3971
  1894.5000      0.0000    688.5994      0.3517      0.3517   -999.2500      0.3517
  1894.7500      0.0000    669.7472      0.3499      0.3499   -999.2500      0.3499
  1895.0000      0.0000    659.4689      0.3095      0.3095   -999.2500      0.3095
  1895.2500      0.0000    663.0418      0.2170      0.2170   -999.2500      0.2170
  1895.5000      0.0000    668.3753      0.1306      0.1306   -999.2500      0.1306
  1895.7500      0.0000    653.0022      0.0600      0.0600   -999.2500      0.0600
