~Version Information
VERS.                      2.0: CWLS Log ASCII Standard - VERSION 2.0
WRAP.                       NO: One line per depth step
~Well Information Block
STRT.FT               330.0000: 
STOP.FT              2874.7000: 
STEP.FT                 0.1000: 
NULL.                -999.2500: 
COMP.          Pioneer Natural Resources: COMPANY
WELL.                AMX 13-13: WELL
FLD.           Purgatoire River: FIELD
LOC.           2316' FSL & 865' FWL--: LOCATION
PROV.                 Colorado: PROVINCE
CNTY.               Las Animas: COUNTRY
SRVC.                Patterson: SERVICE COMPANY
DATE.          Tue Dec 20 09:57:28 2005: LOG DATE
UWI.           05 071 08630 00: UNIQUE WELL ID
~Curve Information Block
DEPT.FT            0 000 00 00: Depth
DCAL.in                       : CDL Caliper
RHOB.g/cc                     : CDL Bulk Density
RHOC.g/cc                     : CDL Density Correction
DPOR.pu                       : CDL Density Porosity
NPOR.pu                       : Neutron Porosity
GR.GAPI                       : Gamma Ray
~Parameter Information Block
~A  Depth       DCAL        RHOB        RHOC        DPOR        NPOR         GR     
# ...
  1501.2000      8.0344      2.5672      0.0383      5.0189     21.4175    101.8316
  1501.3000      8.0364      2.5430     -0.0106      6.4855     21.2956    106.4580
  1501.4000      8.0364      2.5375     -0.0054      6.8204     21.2097    112.8199
  1501.5000      8.0374      2.5627      0.0370      5.2912     21.1780    116.8780
  1501.6000      8.0374      2.6002      0.0644      3.0186     21.2911    117.7414
  1501.7000      8.0374      2.6283      0.0392      1.3176     21.3975    116.7751
  1501.8000      8.0361      2.6378      0.0605      0.7424     21.5009    114.4290
  1501.9000      8.0361      2.6322      0.0605      1.0761     21.7083    110.8576
  1502.0000      8.0342      2.6223      0.0361      1.6789     21.8117    105.5633
  1502.1000      8.0342      2.6085      0.0454      2.5130     21.7794     99.8845
  1502.2000      8.0342      2.5867      0.0232      3.8351     21.7107     98.2920
  1502.3000      8.0342      2.5683     -0.0276      4.9496     21.4965    100.0306
  1502.4000      8.0342      2.5663     -0.0310      5.0727     21.2621    101.1044
  1502.5000      8.0372      2.5753     -0.0139      4.5281     21.2612    100.6162
  1502.6000      8.0372      2.5900     -0.0120      3.6393     21.3353     97.4449
  1502.7000      8.0372      2.6133      0.0014      2.2272     21.2328     93.5341
  1502.8000      8.0378      2.6310      0.0524      1.1490     21.0252     92.7123
  1502.9000      8.0378      2.6236      0.0157      1.5976     21.0267     93.4489
  1503.0000      8.0353      2.6083     -0.0217      2.5266     21.5177     90.9855
  1503.1000      8.0353      2.6146      0.0157      2.1448     22.2065     86.8789
  1503.2000      8.0353      2.6398      0.0463      0.6211     22.6229     87.1142
  1503.3000      8.0342      2.6591      0.0877     -0.5496     22.7670     90.6099
  1503.4000      8.0342      2.6562      0.0642     -0.3756     22.9086     91.9217
  1503.5000      8.0333      2.6405      0.0171      0.5774     23.0199     91.0629
  1503.6000      8.0333      2.6329      0.0130      1.0346     22.8259     91.4763
  1503.7000      8.0333      2.6292      0.0703      1.2626     22.3013     92.2060
  1503.8000      8.0324      2.6134      0.0157      2.2205     21.7032     89.3003
  1503.9000      8.0324      2.6013     -0.0284      2.9524     21.3649     84.5203
  1504.0000      8.0334      2.6122      0.0345      2.2930     21.4353     82.6568
  1504.1000      8.0334      2.6356      0.0276      0.8742     21.6869     82.8615
  1504.2000      8.0334      2.6544      0.0263     -0.2664     21.7589     82.9708
  1504.3000      8.0359      2.6584      0.0584     -0.5093     21.5404     83.4607
  1504.4000      8.0359      2.6564     -0.0141     -0.3867     21.2486     86.2940
  1504.5000      8.0376      2.6676      0.0141     -1.0674     21.0766     91.1439
  1504.6000      8.0376      2.6806      0.0739     -1.8536     21.0199     92.8001
  1504.7000      8.0376      2.6732      0.0440     -1.4043     21.0113     90.4111
  1504.8000      8.0367      2.6536      0.0471     -0.2198     20.8486     89.2605
  1504.9000      8.0367      2.6439     -0.0214      0.3695     20.4341     90.4144
  1505.0000      8.0355      2.6497      0.0164      0.0185     19.9479     90.6010
  1505.1000      8.0355      2.6596      0.0253     -0.5794     19.7536     86.7756
  1505.2000      8.0355      2.6654      0.0118     -0.9334     20.2186     79.1113
  1505.3000      8.0368      2.6741     -0.0052     -1.4615     21.1055     71.6111
  1505.4000      8.0368      2.6868      0.0629     -2.2304     21.7060     67.0608
  1505.5000      8.0382      2.6938      0.0386     -2.6550     21.9293     63.5153
  1505.6000      8.0382      2.6935      0.0594     -2.6383     22.2530     59.7947
  1505.7000      8.0382      2.6822      0.0741     -1.9518     22.7788     59.1356
  1505.8000      8.0388      2.6581     -0.0036     -0.4893     23.1650     62.8118
  1505.9000      8.0388      2.6397     -0.0354      0.6232     23.2227     67.3948
  1506.0000      8.0392      2.6471     -0.0594      0.1779     23.1101     68.9493
  1506.1000      8.0392      2.6785     -0.0498     -1.7250     22.8833     67.0412
  1506.2000      8.0392      2.7095      0.0455     -3.6054     22.6934     65.0223
  1506.3000      8.0396      2.7183     -0.0390     -4.1378     22.5813     67.0356
  1506.4000      8.0396      2.7124      0.0142     -3.7847     22.0506     73.1630
  1506.5000      8.0393      2.7107      0.0108     -3.6790     20.9138     78.3793
  1506.6000      8.0393      2.7133      0.0384     -3.8384     19.7439     78.5936
  1506.7000      8.0393      2.7042      0.0753     -3.2827     18.9381     75.6990
  1506.8000      8.0368      2.6847      0.0223     -2.1012     18.5246     74.6321
  1506.9000      8.0368      2.6674      0.0188     -1.0548     18.4234     75.9865
  1507.0000      8.0336      2.6489     -0.0031      0.0653     18.4292     75.4886
  1507.1000      8.0336      2.6314     -0.0132      1.1285     18.4588     73.2164
  1507.2000      8.0336      2.6389     -0.0078      0.6756     18.3563     74.8830
  1507.3000      8.0332      2.6754      0.0830     -1.5407     17.9082     80.5160
  1507.4000      8.0332      2.7008      0.0790     -3.0789     17.4443     83.7929
  1507.5000      8.0351      2.6866      0.0633     -2.2210     17.3028     83.3452
  1507.6000      8.0351      2.6543      0.0237     -0.2621     17.4569     83.0681
  1507.7000      8.0351      2.6429     -0.0210      0.4329     17.9073     83.3112
  1507.8000      8.0363      2.6594      0.0499     -0.5712     18.5379     80.9924
  1507.9000      8.0363      2.6793      0.0418     -1.7747     19.0838     74.4041
  1508.0000      8.0374      2.6891      0.0594     -2.3692     19.4353     65.5542
  1508.1000      8.0374      2.6908      0.0652     -2.4757     19.5916     60.8530
  1508.2000      8.0374      2.6828      0.0557     -1.9887     19.5417     63.0695
  1508.3000      8.0386      2.6664      0.0308     -0.9946     19.4435     65.6018
  1508.4000      8.0386      2.6481      0.0435      0.1179     19.4593     63.9000
  1508.5000      8.0419      2.6330      0.0126      1.0306     19.5353     61.4429
  1508.6000      8.0419      2.6290      0.0228      1.2726     19.7189     60.8205
  1508.7000      8.0419      2.6362      0.0247      0.8357     20.0046     60.3873
  1508.8000      8.0467      2.6478      0.0119      0.1333     20.1401     59.4762
  1508.9000      8.0467      2.6549      0.0338     -0.2968     19.9946     59.0953
  1509.0000      8.0488      2.6466      0.0138      0.2054     19.5886     59.1509
  1509.1000      8.0488      2.6341     -0.0531      0.9667     19.0334     58.8717
  1509.2000      8.0488      2.6388      0.0184      0.6813     18.5173     58.6880
  1509.3000      8.0465      2.6538      0.0438     -0.2297     18.2789     60.8692
  1509.4000      8.0465      2.6610      0.0444     -0.6673     18.4327     66.7309
  1509.5000      8.0399      2.6555      0.0409     -0.3360     18.8147     72.5821
  1509.6000      8.0399      2.6460      0.0296      0.2419     19.1463     74.4617
  1509.7000      8.0399      2.6442      0.0490      0.3513     19.1098     73.2523
  1509.8000      8.0349      2.6473      0.0395      0.1630     18.8246     71.9548
  1509.9000      8.0349      2.6416      0.0318      0.5067     18.8344     71.1767
  1510.0000      8.0362      2.6284     -0.0169      1.3069     19.2543     69.0563
  1510.1000      8.0362      2.6244      0.0167      1.5540     19.7337     63.6161
  1510.2000      8.0362      2.6315      0.0422      1.1220     19.8585     57.1202
  1510.3000      8.0388      2.6362      0.0192      0.8352     19.5843     54.1073
  1510.4000      8.0388      2.6269      0.0400      1.4025     19.3678     55.2359
  1510.5000      8.0387      2.6012     -0.0066      2.9547     19.4951     57.1858
  1510.6000      8.0387      2.5741     -0.0209      4.5973     19.6790     57.4176
  1510.7000      8.0387      2.5672     -0.0498      5.0153     19.6199     57.0897
