~Version Information
VERS.                      2.0: CWLS Log ASCII Standard - VERSION 2.0
WRAP.                       NO: One line per depth step
~Well Information Block
STRT.FT               595.0000: 
STOP.FT              1693.0000: 
STEP.FT                 0.1000: 
NULL.                -999.2500: 
COMP.          Pioneer Natural Resources: COMPANY
WELL.          Rollerball 34-30: WELL
FLD.           Purgatoire River: FIELD
LOC.           893' FSL & 2408' FEL: LOCATION
CNTY.               Las Animas: COUNTY
SRVC.                Patterson: SERVICE COMPANY
DATE.          Tue Feb 14 15:43:01 2006: LOG DATE
UWI.           05 071 08581 00: UNIQUE WELL ID
STAT.                 Colorado: STATE
~Curve Information Block
DEPT.FT            0 000 00 00: Depth
DCAL.in                       : CDL Caliper
RHOB.g/cc                     : CDL Bulk Density
RHOC.g/cc                     : CDL Density Correction
DPOR.pu                       : CDL Density Porosity
GR.GAPI                       : Gamma Ray
NPOR.pu                       : Neutron Porosity
~Parameter Information Block
~A  Depth       DCAL        RHOB        RHOC        DPOR         GR         NPOR    
# ...
   671.8000      8.0531      2.5713      0.0547      4.7698     86.3537     22.9651
   671.9000      8.0531      2.5921      0.0718      3.5102     81.5585     22.6599
   672.0000      8.0534      2.5999      0.0916      3.0363     75.7011     22.3841
   672.1000      8.0534      2.5994      0.0638      3.0638     74.0276     22.1423
   672.2000      8.0534      2.6086      0.0431      2.5063     77.4363     21.7706
   672.3000      8.0540      2.6280      0.0986      1.3305     80.9115     21.3782
   672.4000      8.0540      2.6338      0.0862      0.9795     81.3244     20.8713
   672.5000      8.0541      2.6104      0.0599      2.3975     81.7325     20.3768
   672.6000      8.0541      2.5666      0.0043      5.0559     85.2322     20.9520
   672.7000      8.0541      2.5243     -0.0065      7.6188     90.9464     22.9634
   672.8000      8.0545      2.5031     -0.0700      8.9012     96.3256     24.9557
   672.9000      8.0545      2.5077     -0.0072      8.6250    101.4570     25.5335
   673.0000      8.0572      2.5263     -0.0369      7.4974    108.4778     25.1400
   673.1000      8.0572      2.5436      0.0204      6.4468    116.2948     24.9331
   673.2000      8.0572      2.5479      0.0382      6.1892    121.8305     25.2215
   673.3000      8.0897      2.5383      0.0475      6.7713    126.3006     25.6441
   673.4000      8.0897      2.5278      0.0114      7.4060    131.5615     26.2042
   673.5000      8.1092      2.5267      0.0282      7.4708    134.9289     27.2341
   673.6000      8.1092      2.5269      0.0467      7.4616    136.5598     28.1562
   673.7000      8.1092      2.5187      0.0326      7.9585    140.8142     28.2440
   673.8000      8.0999      2.5077     -0.0061      8.6246    145.7058     27.8863
   673.9000      8.0999      2.5035     -0.0309      8.8779    145.5980     27.7138
   674.0000      8.0849      2.5031     -0.0075      8.9009    140.7049     27.9921
   674.1000      8.0849      2.4939      0.0177      9.4619    137.8000     28.7674
   674.2000      8.0849      2.4772     -0.0245     10.4738    140.1983     29.6559
   674.3000      8.0921      2.4658      0.0004     11.1610    141.9417     30.1043
   674.4000      8.0921      2.4683     -0.0269     11.0093    138.6579     30.0840
   674.5000      8.0973      2.4918      0.0001      9.5900    132.1152     29.8695
   674.6000      8.0973      2.5259      0.0162      7.5217    128.6007     29.5872
   674.7000      8.0973      2.5477      0.0374      6.1987    135.0425     29.1995
   674.8000      8.0984      2.5529      0.0330      5.8819    145.1614     28.4953
   674.9000      8.0984      2.5496      0.0532      6.0862    147.6658     27.5985
   675.0000      8.1006      2.5407      0.0354      6.6263    145.3050     27.1976
   675.1000      8.1006      2.5320      0.0263      7.1500    144.5020     27.3843
   675.2000      8.1006      2.5275      0.0319      7.4239    141.9686     27.6981
   675.3000      8.1050      2.5269      0.0341      7.4606    134.7995     28.0461
   675.4000      8.1050      2.5308      0.0532      7.2215    128.1364     28.6475
   675.5000      8.1043      2.5352      0.0420      6.9594    125.1780     28.9300
   675.6000      8.1043      2.5378      0.0351      6.8019    126.3755     28.2992
   675.7000      8.1043      2.5454      0.0437      6.3368    132.2568     27.3950
   675.8000      8.1042      2.5550      0.0603      5.7559    139.6418     26.7663
   675.9000      8.1042      2.5494      0.0677      6.0993    145.1194     26.1836
   676.0000      8.1046      2.5283      0.0349      7.3727    146.0746     25.5536
   676.1000      8.1046      2.5164      0.0179      8.0978    137.8412     24.6531
   676.2000      8.1046      2.5308      0.0411      7.2233    126.4692     23.4178
   676.3000      8.1056      2.5584      0.0815      5.5494    124.1085     22.5640
   676.4000      8.1056      2.5719      0.0765      4.7363    130.0517     22.3008
   676.5000      8.1079      2.5578      0.0865      5.5856    134.6822     21.6222
   676.6000      8.1079      2.5251      0.0246      7.5703    133.7324     20.3259
   676.7000      8.1079      2.4874      0.0096      9.8573    133.1548     19.2332
   676.8000      8.1100      2.4418      0.0131     12.6206    136.0071     18.5274
   676.9000      8.1100      2.3812     -0.0601     16.2934    136.2315     18.0049
   677.0000      8.1330      2.3006     -0.0302     21.1737    131.9212     17.6593
   677.1000      8.1330      2.1919     -0.0588     27.7624    128.9529     17.4953
   677.2000      8.1330      2.0725     -0.1334     34.9996    129.4003     17.3907
   677.3000      8.1224      1.9861     -0.1370     40.2382    130.7531     17.3709
   677.4000      8.1224      1.9489     -0.1076     42.4886    132.6340     17.6554
   677.5000      8.2172      1.9430     -0.0987     42.8466    136.1021     18.4834
   677.6000      8.2172      1.9605     -0.0946     41.7897    140.8528     19.3370
   677.7000      8.2172      2.0025      0.0191     39.2446    141.9548     19.4302
   677.8000      8.3521      2.0545      0.0962     36.0900    135.1221     18.9965
   677.9000      8.3521      2.1027      0.1414     33.1688    127.2134     18.9683
   678.0000      8.3656      2.1464      0.1914     30.5228    125.3803     19.8355
   678.1000      8.3656      2.1859      0.2232     28.1300    126.8374     20.9904
   678.2000      8.3656      2.2197      0.1433     26.0786    130.0057     21.3495
   678.3000      8.0446      2.2394      0.1051     24.8832    134.8732     21.1534
   678.4000      8.0446      2.2259      0.0784     25.7036    138.2040     21.5803
   678.5000      7.9977      2.1771      0.0378     28.6582    139.1348     22.9006
   678.6000      7.9977      2.1167     -0.0026     32.3200    139.3834     24.5438
   678.7000      7.9977      2.0643     -0.0103     35.4959    137.3657     25.8698
   678.8000      8.0001      2.0268     -0.0485     37.7703    134.3288     26.5828
   678.9000      8.0001      2.0136     -0.0973     38.5696    136.0807     26.8906
   679.0000      8.0009      2.0305     -0.0708     37.5455    142.9094     27.1352
   679.1000      8.0009      2.0681      0.0002     35.2640    150.3003     27.5943
   679.2000      8.0009      2.1144      0.0172     32.4630    153.9193     28.2540
   679.3000      7.9986      2.1710      0.0526     29.0274    151.8362     28.8924
   679.4000      7.9986      2.2507      0.1041     24.1999    146.9633     29.4046
   679.5000      7.9899      2.3473      0.1915     18.3464    146.1797     29.6362
   679.6000      7.9899      2.4282      0.1715     13.4445    153.4603     29.4834
   679.7000      7.9899      2.4747      0.1237     10.6228    161.8369     29.1847
   679.8000      7.9854      2.4984      0.0814      9.1873    161.3679     29.1659
   679.9000      7.9854      2.5136      0.0525      8.2650    153.6871     29.0772
   680.0000      7.9846      2.5245      0.0703      7.6036    146.2830     28.1749
   680.1000      7.9846      2.5299      0.0574      7.2810    141.6955     27.0760
   680.2000      7.9846      2.5267      0.0825      7.4710    141.1847     26.7063
   680.3000      7.9846      2.5192      0.0166      7.9290    142.6485     26.3840
   680.4000      7.9846      2.5210      0.0011      7.8179    140.5235     25.3211
   680.5000      7.9848      2.5355      0.0078      6.9383    135.1358     24.1280
   680.6000      7.9848      2.5452      0.0762      6.3492    131.3407     23.6867
   680.7000      7.9848      2.5377      0.0334      6.8090    131.8885     24.1219
   680.8000      7.9862      2.5250      0.0236      7.5728    134.4715     25.1723
   680.9000      7.9862      2.5219      0.0119      7.7631    135.1240     26.3437
   681.0000      7.9851      2.5265      0.0125      7.4850    134.4907     26.8703
   681.1000      7.9851      2.5284      0.0355      7.3689    135.6932     26.7220
   681.2000      7.9851      2.5221     -0.0051      7.7534    138.2635     26.4432
   681.3000      7.9850      2.5110      0.0140      8.4243    137.6381     26.3805
