~Version Information
VERS.                      2.0: CWLS Log ASCII Standard - VERSION 2.0
WRAP.                       NO: One line per depth step
~Well Information Block
STRT.FT               860.0000: 
STOP.FT              2362.5000: 
STEP.FT                 0.2500: 
NULL.                -999.2500: 
COMP.          Pioneer Natural Resources: COMPANY
WELL.            Cayenne 23-23: WELL
FLD.           Purgatoire River: FIELD
LOC.           2555' FSL & 2386' FWL: LOCATION
PROV.                 Colorado: PROVINCE
CNTY.               Las Animas: COUNTRY
SRVC.                Patterson: SERVICE COMPANY
DATE.          Wed Aug 17 06:47:40 2005: LOG DATE
UWI.           05 071 08476 00: UNIQUE WELL ID
~Curve Information Block
DEPT.FT            0 000 00 00: Depth
SN.Ohm-m                      : IEL Short Normal
SP.mV                         : IEL Spontaneous Potential
DIR.Ohm-m                     : IEL Induction Resistivity
GR.GAPI                       : Gamma Ray
~Parameter Information Block
~A  Depth        SN          SP         DIR          GR     
# ...
  1161.5000     14.9752   -100.1613     88.8122    117.7902
  1161.7500     15.5109    -99.8710    138.4215    113.9360
  1162.0000     16.2258    -99.7186   6896.9683    106.8066
  1162.2500     17.0778    -99.7324 100000.0000    102.2754
  1162.5000     17.9076    -99.9039 100000.0000     98.3796
  1162.7500     18.6150   -100.1769 100000.0000     98.4974
  1163.0000     19.2111   -100.4584 100000.0000    101.6346
  1163.2500     19.6655   -100.6479 100000.0000    104.0165
  1163.5000     19.9216   -100.6746 100000.0000    105.4534
  1163.7500     20.0445   -100.5211 100000.0000    104.5899
  1164.0000     20.1034   -100.2173     51.8093    101.8828
  1164.2500     20.0093    -99.8104     26.1015    100.4617
  1164.5000     19.6853    -99.3430     18.5914    100.8441
  1164.7500     19.2108    -98.8635     15.5053    103.3026
  1165.0000     18.7151    -98.4429     14.1827    109.9494
  1165.2500     18.3376    -98.1588     13.7626    115.5163
  1165.5000     18.2001    -98.0525     13.8919    123.4877
  1165.7500     18.2702    -98.1044     14.3996    127.2940
  1166.0000     18.3909    -98.2429     15.1722    129.3151
  1166.2500     18.4565    -98.3699     16.0931    128.2567
  1166.5000     18.4723    -98.3878     17.0301    124.9077
  1166.7500     18.5354    -98.2276     17.8600    122.9464
  1167.0000     18.7482    -97.8785     18.4988    121.3645
  1167.2500     19.0665    -97.4001     18.9063    120.4682
  1167.5000     19.3131    -96.8945     19.0790    117.7132
  1167.7500     19.3483    -96.4502     19.0525    115.0549
  1168.0000     19.1533    -96.1002     18.8980    111.9981
  1168.2500     18.7654    -95.8279     18.6981    111.8938
  1168.5000     18.2155    -95.6033     18.5146    115.0614
  1168.7500     17.5596    -95.4109     18.3761    118.4074
  1169.0000     16.8710    -95.2553     18.2854    122.7652
  1169.2500     16.1720    -95.1521     18.2300    124.1597
  1169.5000     15.4349    -95.1114     18.1902    123.5859
  1169.7500     14.6246    -95.1184     18.1444    121.8978
  1170.0000     13.7808    -95.1221     18.0767    118.7460
  1170.2500     13.1110    -95.0493     17.9809    116.9105
  1170.5000     12.8606    -94.8362     17.8562    115.0042
  1170.7500     13.0224    -94.4543     17.7011    114.0999
  1171.0000     13.3509    -93.9158     17.5136    112.4865
  1171.2500     13.6783    -93.2653     17.2996    110.8431
  1171.5000     14.0366    -92.5703     17.0824    107.8058
  1171.7500     14.5563    -91.9084     16.8981    106.3243
  1172.0000     15.3384    -91.3511     16.7790    106.9494
  1172.2500     16.2505    -90.9499     16.7355    109.8320
  1172.5000     16.9175    -90.7275     16.7488    116.7790
  1172.7500     17.1020    -90.6647     16.7763    121.5973
  1173.0000     16.9405    -90.6877     16.7642    126.2238
  1173.2500     16.6977    -90.6775     16.6610    126.4809
  1173.5000     16.4653    -90.5165     16.4331    122.3934
  1173.7500     16.1595    -90.1600     16.0793    117.4414
  1174.0000     15.6743    -89.6819     15.6334    108.7293
  1174.2500     14.9766    -89.2538     15.1496    103.2753
  1174.5000     14.1411    -89.0565     14.6763     97.3039
  1174.7500     13.3631    -89.1846     14.2388     95.3842
  1175.0000     12.8743    -89.6137     13.8405     95.6464
  1175.2500     12.7670    -90.2458     13.4784     97.4306
  1175.5000     12.9128    -90.9780     13.1575    101.1983
  1175.7500     13.0535    -91.7371     12.8909    103.6761
  1176.0000     12.9729    -92.4740     12.6859    106.8355
  1176.2500     12.6227    -93.1473     12.5312    108.9082
  1176.5000     12.1070    -93.7164     12.3976    112.7066
  1176.7500     11.6006    -94.1503     12.2555    115.6363
  1177.0000     11.2661    -94.4414     12.0925    119.9076
  1177.2500     11.1529    -94.6144     11.9184    122.3822
  1177.5000     11.1818    -94.7184     11.7540    125.4689
  1177.7500     11.2084    -94.8029     11.6185    127.1746
  1178.0000     11.1079    -94.8940     11.5225    129.3856
  1178.2500     10.9023    -94.9871     11.4681    130.7060
  1178.5000     10.7425    -95.0639     11.4518    132.3368
  1178.7500     10.7159    -95.1164     11.4654    133.0544
  1179.0000     10.7446    -95.1605     11.4967    133.7372
  1179.2500     10.6895    -95.2305     11.5308    134.2987
  1179.5000     10.5328    -95.3624     11.5512    135.7857
  1179.7500     10.3933    -95.5747     11.5427    137.0523
  1180.0000     10.3620    -95.8576     11.4956    138.5292
  1180.2500     10.4079    -96.1785     11.4110    138.8974
  1180.5000     10.4329    -96.5001     11.3039    138.7335
  1180.7500     10.3919    -96.7955     11.1982    138.4079
  1181.0000     10.3320    -97.0542     11.1171    137.4359
  1181.2500     10.3012    -97.2823     11.0740    136.1285
  1181.5000     10.2556    -97.5024     11.0705    133.2841
  1181.7500     10.1011    -97.7480     11.0992    131.4936
  1182.0000      9.8486    -98.0507     11.1506    130.3851
  1182.2500      9.6346    -98.4307     11.2176    131.0983
  1182.5000      9.5517    -98.8954     11.2985    134.1324
  1182.7500      9.6019    -99.4434     11.3978    136.9726
  1183.0000      9.8223   -100.0645     11.5245    141.0256
  1183.2500     10.2864   -100.7373     11.6901    142.4883
  1183.5000     10.9361   -101.4349     11.9055    141.4092
  1183.7500     11.5453   -102.1329     12.1769    138.6034
  1184.0000     11.9429   -102.8136     12.5035    133.0608
  1184.2500     12.1781   -103.4596     12.8791    129.7121
  1184.5000     12.4173   -104.0441     13.2980    126.2461
  1184.7500     12.7587   -104.5283     13.7599    124.8849
  1185.0000     13.1690   -104.8726     14.2645    123.6854
  1185.2500     13.5351   -105.0544     14.7964    123.1813
  1185.5000     13.7793   -105.0804     15.3098    122.8011
  1185.7500     13.9453   -104.9851     15.7385    123.0756
  1186.0000     14.1265   -104.8236     16.0366    125.0657
  1186.2500     14.3453   -104.6570     16.2181    127.6059
  1186.5000     14.6022   -104.5310     16.3515    132.1125
  1186.7500     14.9501   -104.4547     16.5119    134.3142
  1187.0000     15.3938   -104.3970     16.7352    134.9191
  1187.2500     15.8174   -104.3080     17.0034    133.7814
  1187.5000     16.0666   -104.1509     17.2622    131.5989
  1187.7500     16.0567   -103.9254     17.4523    130.7565
  1188.0000     15.8058   -103.6694     17.5347    130.6558
  1188.2500     15.3955   -103.4415     17.4956    130.8590
  1188.5000     14.9472   -103.2985     17.3376    130.6913
  1188.7500     14.5820   -103.2834     17.0740    130.3109
  1189.0000     14.3604   -103.4243     16.7300    130.3644
  1189.2500     14.2963   -103.7256     16.3437    131.2630
  1189.5000     14.3626   -104.1537     15.9569    133.2631
  1189.7500     14.4798   -104.6448     15.5996    134.2077
  1190.0000     14.5422   -105.1367     15.2831    134.6505
  1190.2500     14.4667   -105.5952     15.0050    134.9029
  1190.5000     14.2712   -106.0097     14.7602    136.3052
  1190.7500     14.0546   -106.3799     14.5465    137.9345
  1191.0000     13.8708   -106.7114     14.3619    140.7072
  1191.2500     13.7203   -107.0181     14.2016    142.4303
  1191.5000     13.6131   -107.3178     14.0606    144.6371
  1191.7500     13.5312   -107.6194     13.9401    145.8953
  1192.0000     13.4073   -107.9081     13.8487    147.6034
  1192.2500     13.2056   -108.1429     13.7963    148.5767
  1192.5000     12.9809   -108.2763     13.7839    149.1151
  1192.7500     12.8498   -108.2854     13.7997    148.1745
  1193.0000     12.8663   -108.1897     13.8246    144.0917
  1193.2500     12.9527   -108.0424     13.8431    140.0227
  1193.5000     13.0144   -107.9046     13.8521    134.0768
  1193.7500     13.0554   -107.8198     13.8605    131.5785
  1194.0000     13.1249   -107.8004     13.8815    131.0998
  1194.2500     13.2375   -107.8308     13.9258    132.7376
  1194.5000     13.3924   -107.8854     14.0002    137.0540
  1194.7500     13.5915   -107.9469     14.1104    140.5221
