~Version Information
 VERS.                                  2.0 : CWLS LAS VERSION
 WRAP.                                   NO : WRAPING MODE
 SWARE .                 MController 2.5.0N : SOFTWARE VERSION
~Well Information
 WELL.                       Beringer 33-18 : WELL
 COMP.       Pioneer Natural Resources, USA : COMPANY
 FLD.                       Purgatory River : FIELD
 LOC.                 NW/SE Sec18 T34S R34W : LOCATION
 DATE.                              3/26/06 : DATE(S) LOGGED
 SRVC.      Blanco Geological Services, LLC : SERVICE COMPANY
 STAT.                             Colorado : STATE
 CNTY.                           Las Animas : COUNTY
 CTRY.                                  USA : COUNTRY
 API.                       05-071-08725-00 : API NUMBER
 STRT.FT                             178.00 : START DEPTH
 STOP.FT                             850.00 : STOP DEPTH
 STEP.FT                               1.00 : DEPTH INCREMENT
 NULL.                                -9999 : NULL VALUE
~Curve information
 DEPTH.FT                                   :
 ROP.MIN/FT                                 :
 GAS.UNITS                                  :
~ASCII Log data
# ...
       382.0         2.82          4.4 
       383.0         0.27          5.7 
       384.0         0.47          5.5 
       385.0         0.43          5.1 
       386.0         0.38          4.8 
       387.0         0.40          4.7 
       388.0         0.37          4.7 
       389.0         0.40          4.5 
       390.0         0.43          5.3 
       391.0         0.40          4.8 
       392.0         0.43          4.9 
       393.0         0.40          4.6 
       394.0         0.37          4.6 
       395.0         0.42          4.9 
       396.0         0.40          4.8 
       397.0         0.43          5.1 
       398.0         0.33          5.2 
       399.0         0.30          5.3 
       400.0         0.37          5.2 
       401.0         0.33          4.8 
       402.0         0.27          4.8 
       403.0         0.17          4.8 
       404.0         0.20          4.9 
       405.0         0.28          4.8 
       406.0         0.23          4.8 
       407.0         0.37          5.2 
       408.0         0.37          5.5 
       409.0         0.37          5.2 
       410.0         0.37          5.2 
       411.0         0.37          4.9 
       412.0         3.05          5.0 
       413.0         0.43          5.0 
       414.0         0.40          4.9 
       415.0         0.40          4.8 
       416.0         0.45          4.7 
       417.0         0.33          4.7 
       418.0         0.43          4.9 
       419.0         0.40          5.1 
       420.0         0.27          4.9 
       421.0         0.27          4.9 
       422.0         0.33          2.2 
       423.0         0.27          1.7 
       424.0         0.23          2.0 
       425.0         0.23          1.9 
       426.0         0.23          1.8 
       427.0         0.28          1.7 
       428.0         0.30          1.8 
       429.0         0.30          2.6 
       430.0         0.50          2.6 
       431.0         0.47          2.3 
       432.0         0.20          2.2 
       433.0         0.27          2.5 
       434.0         0.33          2.3 
       435.0         0.23          2.4 
       436.0         0.20          2.7 
       437.0         0.30          2.8 
       438.0         0.55          3.5 
       439.0         0.50          4.7 
       440.0         0.30          5.1 
       441.0         0.33          4.7 
       442.0         2.22          3.6 
       443.0         0.17          2.2 
       444.0         0.30          2.3 
       445.0         0.40          2.6 
       446.0         0.37          2.4 
       447.0         0.20          2.2 
       448.0         0.23          2.6 
       449.0         0.20          2.5 
       450.0         0.27          2.7 
       451.0         0.20          5.1 
       452.0         0.37         15.4 
       453.0         0.35         28.0 
       454.0         0.27         28.4 
       455.0         0.27         24.9 
       456.0         0.23         21.7 
       457.0         0.27         19.3 
       458.0         0.30         15.7 
       459.0         0.57         12.7 
       460.0         0.63         10.8 
       461.0         0.50          9.6 
       462.0         0.45          9.0 
       463.0         0.43          8.2 
       464.0         0.43          7.6 
       465.0         0.33          7.4 
       466.0         0.37          8.2 
       467.0         0.43          7.8 
       468.0         0.40          8.3 
       469.0         0.40          8.1 
       470.0         0.45          7.6 
       471.0         0.40          7.3 
       472.0         2.67          7.4 
       473.0         0.38          2.2 
       474.0         0.40          9.8 
       475.0         0.40         10.3 
       476.0         0.37          8.7 
       477.0         0.37          7.4 
       478.0         0.43          6.5 
       479.0         0.37          5.9 
       480.0         0.37          5.8 
       481.0         0.38          6.1 
       482.0         0.43          6.6 
       483.0         0.47          6.6 
       484.0         0.43          8.5 
       485.0         0.40         11.1 
       486.0         0.37         13.4 
       487.0         0.43         14.6 
       488.0         0.37         14.2 
       489.0         0.42         14.5 
       490.0         0.33         14.5 
       491.0         0.27         14.6 
       492.0         0.20         14.1 
       493.0         0.27         14.4 
       494.0         0.37         16.2 
       495.0         0.37         19.7 
       496.0         0.27         22.1 
       497.0         0.30         23.4 
       498.0         0.30         23.6 
       499.0         0.30         23.2 
       500.0         0.30         21.8 
       501.0         0.38         21.7 
       502.0         2.37         21.3 
       503.0         0.20          3.2 
       504.0         0.27          2.8 
       505.0         0.35         15.7 
       506.0         0.30         29.3 
       507.0         0.33         27.8 
       508.0         0.37         24.1 
       509.0         0.37         20.3 
       510.0         0.40         18.4 
       511.0         0.37         16.8 
       512.0         0.40         16.4 
       513.0         0.40         16.3 
       514.0         0.42         14.5 
       515.0         0.50         15.6 
       516.0         0.40         16.1 
       517.0         0.37         16.0 
       518.0         0.50         16.3 
       519.0         0.37         15.4 
       520.0         0.47         15.3 
       521.0         0.37         15.6 
       522.0         0.38         14.8 
       523.0         0.37         15.0 
       524.0         0.33         15.2 
       525.0         0.33         15.5 
       526.0         0.43         15.2 
       527.0         0.40         14.4 
       528.0         0.43         12.5 
       529.0         0.37         12.1 
       530.0         0.40         13.0 
       531.0         0.42         12.2 
       532.0         3.12         13.2 
       533.0         0.27          2.8 
       534.0         0.27          3.9 
       535.0         0.23         16.7 
       536.0         0.37         22.1 
       537.0         0.30         19.2 
       538.0         0.30         16.7 
       539.0         0.33         15.3 
       540.0         0.47         14.3 
       541.0         0.43         13.3 
       542.0         0.42         11.8 
       543.0         0.40         11.0 
       544.0         0.40         12.5 
       545.0         0.30         13.5 
       546.0         0.20         12.8 
       547.0         0.17         12.9 
       548.0         0.13         12.7 
       549.0         0.37         12.5 
       550.0         0.43         19.5 
       551.0         0.43         28.1 
       552.0         0.42         28.4 
       553.0         0.33         24.7 
       554.0         0.33         20.3 
       555.0         0.37         15.8 
       556.0         0.40         13.3 
       557.0         0.23         12.3 
       558.0         0.20         11.7 
       559.0         0.33         11.2 
       560.0         0.30         10.6 
       561.0         0.37         13.8 
       562.0         2.95         18.2 
       563.0         0.17          2.2 
       564.0         0.13          4.2 
       565.0         0.17         18.8 
       566.0         0.17         28.1 
       567.0         0.17         28.3 
       568.0         0.18         26.0 
       569.0         0.17         22.5 
       570.0         0.37         26.7 
       571.0         0.40         37.1 
       572.0         0.43         48.4 
       573.0         0.43         49.3 
       574.0         0.40         46.0 
       575.0         0.40         38.1 
       576.0         0.47         29.5 
       577.0         0.45         24.7 
       578.0         0.37         21.4 
       579.0         0.30         18.9 
       580.0         0.37         18.1 
       581.0         0.37         17.8 
