~Version Information
VERS.                      2.0: CWLS Log ASCII Standard - VERSION 2.0
WRAP.                       NO: One line per depth step
~Well Information Block
STRT.FT                10.0000: 
STOP.FT              1044.5000: 
STEP.FT                 0.1000: 
NULL.                -999.2500: 
COMP.          Pioneer Natural Resources: COMPANY
WELL.          Stags Leap 13-30: WELL
FLD.           Purgatorie River: FIELD
LOC.           1813' FSL & 117' FWL: LOCATION
PROV.                 Colorado: PROVINCE
CNTY.               Las Animas: COUNTRY
SRVC.                Patterson: SERVICE COMPANY
DATE.          Fri Dec 09 09:46:17 2005: LOG DATE
UWI.                          : UNIQUE WELL ID
~Curve Information Block
DEPT.FT            0 000 00 00: Depth
DCAL.in                       : CDL Caliper
RHOB.g/cc                     : CDL Bulk Density
RHOC.g/cc                     : CDL Density Correction
DPOR.pu                       : CDL Density Porosity
GR.GAPI                       : Gamma Ray
NPOR.pu                       : Neutron Porosity
~Parameter Information Block
~A  Depth       DCAL        RHOB        RHOC        DPOR         GR         NPOR    
# ...
   211.6000     -3.1029      2.2681      2.4526     -0.0076    131.6716     27.4932
   211.7000     -3.1029      2.2742      2.4495     -0.0075    134.8187     27.3134
   211.8000     -3.1029      2.2802      2.4740     -0.0074    137.7008     27.0760
   211.9000     -3.1029      2.2740      2.4752     -0.0075    136.3355     26.7373
   212.0000     -3.1029      2.2540      2.4660     -0.0079    132.6336     26.4818
   212.1000     -3.1029      2.2352      2.4120     -0.0083    130.1732     26.5301
   212.2000     -3.1029      2.2308      2.4306     -0.0084    129.5057     26.7058
   212.3000     -3.1029      2.2343      2.4523     -0.0083    131.3664     26.7489
   212.4000     -3.1029      2.2371      2.4266     -0.0083    140.4864     26.7056
   212.5000     -3.1029      2.2454      2.4136     -0.0081    156.3632     26.6718
   212.6000     -3.1029      2.2595      2.4484     -0.0078    168.2363     26.4623
   212.7000     -3.1029      2.2658      2.4591     -0.0077    169.7114     26.1469
   212.8000     -3.1029      2.2610      2.4321     -0.0078    164.5774     26.1554
   212.9000     -3.1029      2.2541      2.4168     -0.0079    156.5572     26.5220
   213.0000     -3.1029      2.2516      2.4074     -0.0080    148.1327     26.8004
   213.1000     -3.1029      2.2558      2.4264     -0.0079    144.5960     26.6289
   213.2000     -3.1029      2.2612      2.4404     -0.0078    145.8035     26.4009
   213.3000     -3.1029      2.2575      2.4499     -0.0079    147.5137     26.7723
   213.4000     -3.1029      2.2437      2.4103     -0.0081    147.2984     27.5860
   213.5000     -3.1029      2.2273      2.3981     -0.0085    141.9160     28.1505
   213.6000     -3.1029      2.2119      2.4112     -0.0088    131.9745     28.0462
   213.7000     -3.1029      2.1964      2.4086     -0.0091    125.0508     27.6473
   213.8000     -3.1029      2.1776      2.4202     -0.0095    123.1918     27.6105
   213.9000     -3.1029      2.1527      2.4028     -0.0100    120.4389     27.9401
   214.0000     -3.1029      2.1282      2.3859     -0.0104    115.3036     28.3610
   214.1000     -3.1029      2.1160      2.3337     -0.0107    113.2694     28.5870
   214.2000     -3.1029      2.1121      2.4210     -0.0108    115.3807     28.4778
   214.3000     -3.1029      2.1021      2.3811     -0.0110    118.5062     28.2615
   214.4000     -3.1029      2.0880      2.3653     -0.0112    121.8247     28.0640
   214.5000     -3.1029      2.0769      2.3993     -0.0115    125.6698     27.9319
   214.6000     -3.1029      2.0709      2.3856     -0.0116    130.1874     28.0491
   214.7000     -3.1029      2.0719      2.3584     -0.0116    132.6498     28.3988
   214.8000     -3.1029      2.0758      2.3784     -0.0115    128.5854     28.8035
   214.9000     -3.1029      2.0797      2.3557     -0.0114    120.3477     29.1025
   215.0000     -3.1029      2.0943      2.3478     -0.0111    115.9717     29.3651
   215.1000     -3.1029      2.1223      2.3970     -0.0106    118.4327     29.6299
   215.2000     -3.1029      2.1438      2.4298     -0.0101    123.4754     29.6034
   215.3000     -3.1029      2.1449      2.3994     -0.0101    123.7412     29.2219
   215.4000     -3.1029      2.1287      2.4010     -0.0104    115.4971     28.8247
   215.5000     -3.1029      2.1002      2.3798     -0.0110    103.9874     28.7504
   215.6000     -3.1029      2.0717      2.2988     -0.0116     94.5135     29.2365
   215.7000     -3.1029      2.0570      2.3537     -0.0119     85.4757     30.0487
   215.8000     -3.1029      2.0543      2.3377     -0.0119     75.6202     30.4778
   215.9000     -3.1029      2.0604      2.3568     -0.0118     67.3257     29.9814
   216.0000     -3.1029      2.0741      2.3804     -0.0115     60.4484     29.0863
   216.1000     -3.1029      2.0856      2.4055     -0.0113     54.5075     28.8579
   216.2000     -3.1029      2.0891      2.3566     -0.0112     52.8625     29.0879
   216.3000     -3.1029      2.0936      2.3635     -0.0111     56.2916     29.1147
   216.4000     -3.1029      2.1026      2.3838     -0.0110     61.6846     29.0942
   216.5000     -3.1029      2.1053      2.3766     -0.0109     66.6602     29.1033
   216.6000     -3.1029      2.0969      2.3734     -0.0111     70.2393     28.9320
   216.7000     -3.1029      2.0842      2.3508     -0.0113     73.5168     28.8379
   216.8000     -3.1029      2.0746      2.3268     -0.0115     77.0193     28.9565
   216.9000     -3.1029      2.0721      2.3122     -0.0116     77.2104     29.0117
   217.0000     -3.1029      2.0772      2.3418     -0.0115     73.6045     28.9433
   217.1000     -3.1029      2.0790      2.3631     -0.0114     71.3636     28.6856
   217.2000     -3.1029      2.0651      2.3443     -0.0117     72.7211     28.1594
   217.3000     -3.1029      2.0403      2.3338     -0.0122     77.2725     27.7038
   217.4000     -3.1029      2.0149      2.3396     -0.0127     83.8213     27.7542
   217.5000     -3.1029      1.9946      2.2781     -0.0131     88.1848     28.2969
   217.6000     -3.1029      1.9878      2.2906     -0.0133     88.0947     28.8782
   217.7000     -3.1029      2.0051      2.2681     -0.0129     85.3706     28.9796
   217.8000     -3.1029      2.0443      2.3718     -0.0121     82.8820     28.6338
   217.9000     -3.1029      2.0805      2.4151     -0.0114     83.4789     28.2643
   218.0000     -3.1029      2.0904      2.4194     -0.0112     87.2275     27.8797
   218.1000     -3.1029      2.0824      2.3553     -0.0114     90.5143     27.4982
   218.2000     -3.1029      2.0879      2.3405     -0.0112     92.6288     27.5116
   218.3000     -3.1029      2.1216      2.3678     -0.0106     94.3495     27.9370
   218.4000     -3.1029      2.1668      2.4074     -0.0097     94.7554     28.3258
   218.5000     -3.1029      2.2046      2.3994     -0.0089     94.0226     28.4879
   218.6000     -3.1029      2.2316      2.3949     -0.0084     94.5900     28.5586
   218.7000     -3.1029      2.2424      2.4588     -0.0082     97.8492     28.5247
   218.8000     -3.1029      2.2278      2.4356     -0.0084    101.2679     28.3193
   218.9000     -3.1029      2.1971      2.4024     -0.0091    101.8415     28.0713
   219.0000     -3.1029      2.1684      2.3831     -0.0096     98.5622     27.8841
   219.1000     -3.1029      2.1502      2.3787     -0.0100     95.2322     27.6298
   219.2000     -3.1029      2.1502      2.3277     -0.0100     95.2485     27.1165
   219.3000     -3.1029      2.1752      2.3879     -0.0095     97.7552     26.6942
   219.4000     -3.1029      2.2200      2.4190     -0.0086    102.8037     26.7820
   219.5000     -3.1029      2.2728      2.4853     -0.0075    107.9187     27.0565
   219.6000     -3.1029      2.3186      2.5235     -0.0066    108.7961     26.9370
   219.7000     -3.1029      2.3412      2.5502     -0.0062    106.9725     26.4668
   219.8000     -3.1029      2.3393      2.5337     -0.0062    106.6240     26.0328
   219.9000     -3.1029      2.3320      2.4747     -0.0064    110.0234     25.5612
   220.0000     -3.1029      2.3396      2.4758     -0.0062    114.0817     25.0057
   220.1000     -3.1029      2.3613      2.4961     -0.0058    113.7176     24.8991
   220.2000     -3.1029      2.3770      2.5470     -0.0055    111.7694     25.2915
   220.3000     -3.1029      2.3729      2.4904     -0.0055    113.4191     25.3330
   220.4000     -3.1029      2.3538      2.4682     -0.0059    117.9373     24.9497
   220.5000     -3.1029      2.3176      2.4732     -0.0067    122.7791     24.7335
   220.6000     -3.1029      2.2446      2.4995     -0.0081    125.6346     24.8406
   220.7000     -3.1029      2.1262      2.4187     -0.0105    127.1958     25.1103
   220.8000     -3.1029      1.9806      2.3817     -0.0134    131.1768     25.2997
   220.9000     -3.1029      1.8421      2.2844     -0.0162    137.2533     25.2306
   221.0000     -3.1029      1.7492      2.2132     -0.0180    142.1901     25.0571
   221.1000     -3.1029      1.7174      2.3028     -0.0187    145.4744     24.9725
