~Version Information
VERS.                      2.0: CWLS Log ASCII Standard - VERSION 2.0
WRAP.                       NO: One line per depth step
~Well Information Block
STRT.FT               580.0000: 
STOP.FT              1179.0000: 
STEP.FT                 0.1000: 
NULL.                -999.2500: 
COMP.          Pioneer Natural Resources: COMPANY
WELL.          Tin Barn 14-20 TR: WELL
FLD.           Purgatorie River: FIELD
LOC.           925 FSL & 1151 FWL: LOCATION
PROV.                 Colorado: PROVINCE
CNTY.               Las Animas: COUNTRY
SRVC.                Patterson: SERVICE COMPANY
DATE.          Thu Jan 12 12:02:37 2006: LOG DATE
UWI.                          : UNIQUE WELL ID
~Curve Information Block
DEPT.FT            0 000 00 00: Depth
DCAL.in                       : CDL Caliper
RHOB.g/cc                     : CDL Bulk Density
RHOC.g/cc                     : CDL Density Correction
DPOR.pu                       : CDL Density Porosity
GR.GAPI                       : Gamma Ray
~Parameter Information Block
~A  Depth       DCAL        RHOB        RHOC        DPOR         GR     
# ...
  1084.0000      7.7884      2.6688      0.1351     -1.1379    128.3320
  1084.1000      7.7884      2.6553      0.0733     -0.3196    131.3297
  1084.2000      7.7884      2.6342      0.0361      0.9586    136.4000
  1084.3000      7.7763      2.6187      0.0216      1.8981    142.2215
  1084.4000      7.7763      2.6121      0.0248      2.2944    147.4485
  1084.5000      7.8940      2.6077      0.0566      2.5649    150.9368
  1084.6000      7.8940      2.6015      0.0498      2.9396    149.9515
  1084.7000      7.8940      2.5966      0.0654      3.2358    144.9034
  1084.8000      7.8965      2.5955      0.0719      3.3029    139.6012
  1084.9000      7.8965      2.6037      0.0325      2.8076    136.1169
  1085.0000      7.8483      2.6192      0.0956      1.8685    133.6621
  1085.1000      7.8483      2.6255      0.1224      1.4847    129.9529
  1085.2000      7.8483      2.6246      0.0665      1.5411    124.3923
  1085.3000      7.8637      2.6327      0.0539      1.0491    119.8156
  1085.4000      7.8637      2.6406      0.0868      0.5715    118.1311
  1085.5000      7.8934      2.6326      0.0451      1.0572    115.9117
  1085.6000      7.8934      2.6174     -0.0083      1.9787    109.6138
  1085.7000      7.8934      2.6031      0.0528      2.8404    102.9570
  1085.8000      7.8487      2.5903      0.0220      3.6167    102.2285
  1085.9000      7.8487      2.5889      0.0662      3.7053    106.4476
  1086.0000      7.7925      2.6047      0.0134      2.7448    109.6547
  1086.1000      7.7925      2.6339      0.0688      0.9737    109.2472
  1086.2000      7.7925      2.6614      0.1074     -0.6926    107.9717
  1086.3000      7.7838      2.6689      0.1052     -1.1462    108.5847
  1086.4000      7.7838      2.6556      0.0971     -0.3423    110.7159
  1086.5000      7.8142      2.6424      0.0285      0.4588    111.2274
  1086.6000      7.8142      2.6480      0.0658      0.1232    107.8076
  1086.7000      7.8142      2.6609      0.0861     -0.6609    102.6574
  1086.8000      7.8216      2.6616      0.0556     -0.7004    100.0041
  1086.9000      7.8216      2.6548      0.0120     -0.2933    102.1321
  1087.0000      7.8305      2.6534      0.0335     -0.2043    106.4881
  1087.1000      7.8305      2.6521      0.0393     -0.1255    108.0120
  1087.2000      7.8305      2.6375      0.0129      0.7549    107.3850
  1087.3000      7.8380      2.6093      0.0235      2.4658    107.9065
  1087.4000      7.8380      2.5794      0.0057      4.2818    109.2618
  1087.5000      7.8712      2.5527     -0.0067      5.8958    112.1817
  1087.6000      7.8712      2.5283     -0.0090      7.3760    119.5528
  1087.7000      7.8712      2.5095     -0.0216      8.5148    130.2484
  1087.8000      7.8851      2.5042     -0.0494      8.8350    139.7926
  1087.9000      7.8851      2.5189      0.0188      7.9460    147.1541
  1088.0000      7.9095      2.5479      0.0318      6.1860    153.8839
  1088.1000      7.9095      2.5778      0.0647      4.3786    159.8273
  1088.2000      7.9095      2.5966      0.1066      3.2387    164.0430
  1088.3000      7.9003      2.6022      0.0625      2.8998    166.2716
  1088.4000      7.9003      2.5988      0.0889      3.1014    167.5469
  1088.5000      7.8722      2.5891      0.0413      3.6883    168.0337
  1088.6000      7.8722      2.5761      0.0588      4.4772    166.3862
  1088.7000      7.8722      2.5593      0.0676      5.4977    162.8756
  1088.8000      7.8540      2.5378     -0.0023      6.8024    158.5021
  1088.9000      7.8540      2.5232      0.0302      7.6833    154.6323
  1089.0000      7.9100      2.5325      0.0013      7.1207    152.3107
  1089.1000      7.9100      2.5629      0.0770      5.2812    150.9710
  1089.2000      7.9100      2.5861      0.1256      3.8747    150.0476
  1089.3000      7.9333      2.5911      0.0447      3.5702    148.9046
  1089.4000      7.9333      2.5957      0.0254      3.2895    148.8926
  1089.5000      7.9312      2.6046      0.0747      2.7502    149.5358
  1089.6000      7.9312      2.6077      0.0801      2.5647    147.5713
  1089.7000      7.9312      2.6027      0.0893      2.8678    143.4749
  1089.8000      7.9409      2.5886      0.0815      3.7206    139.5010
  1089.9000      7.9409      2.5710      0.0448      4.7874    136.7208
  1090.0000      7.8707      2.5674      0.0264      5.0035    135.7262
  1090.1000      7.8707      2.5789      0.0663      4.3089    137.8515
  1090.2000      7.8707      2.5827      0.0757      4.0762    143.5197
  1090.3000      7.9212      2.5723      0.0470      4.7118    149.7614
  1090.4000      7.9212      2.5646      0.0132      5.1761    154.3687
  1090.5000      7.9201      2.5690      0.0574      4.9085    156.6705
  1090.6000      7.9201      2.5790      0.0401      4.3037    156.7975
  1090.7000      7.9201      2.5885      0.0779      3.7252    158.3630
  1090.8000      7.9337      2.5968      0.0420      3.2264    161.9947
  1090.9000      7.9337      2.6038      0.0819      2.8005    162.3167
  1091.0000      7.9425      2.6078      0.0864      2.5554    158.0569
  1091.1000      7.9425      2.6015      0.0891      2.9412    152.2760
  1091.2000      7.9425      2.5712      0.0867      4.7761    148.3624
  1091.3000      7.8923      2.5173      0.0297      8.0436    148.6236
  1091.4000      7.8923      2.4654      0.0122     11.1897    151.6485
  1091.5000      7.8039      2.4433     -0.0097     12.5250    152.9017
  1091.6000      7.8039      2.4609      0.0316     11.4594    148.8762
  1091.7000      7.8039      2.5140      0.0506      8.2415    142.4041
  1091.8000      7.8074      2.5986      0.0803      3.1141    138.9346
  1091.9000      7.8074      2.7080      0.1140     -3.5128    138.9597
  1092.0000      7.8208      2.8250      0.1988    -10.6082    137.5157
  1092.1000      7.8208      2.9257      0.2908    -16.7085    129.9444
  1092.2000      7.8208      2.9945      0.2821    -20.8766    117.5096
  1092.3000      7.8250      3.0295      0.2854    -23.0002    106.2480
  1092.4000      7.8250      3.0309      0.2242    -23.0858     98.6481
  1092.5000      7.8268      3.0075      0.1164    -21.6652     93.2226
  1092.6000      7.8268      2.9804      0.0505    -20.0231     89.9316
  1092.7000      7.8268      2.9647      0.0295    -19.0704     86.5638
  1092.8000      7.8075      2.9510      0.0413    -18.2432     81.0289
  1092.9000      7.8075      2.9173      0.0487    -16.2025     76.0644
  1093.0000      7.8059      2.8634      0.0326    -12.9316     75.7820
  1093.1000      7.8059      2.8092     -0.0014     -9.6513     80.6744
  1093.2000      7.8059      2.7638     -0.0057     -6.8997     88.3365
  1093.3000      7.8183      2.7285     -0.0384     -4.7563     98.1649
  1093.4000      7.8183      2.7048     -0.0204     -3.3237    109.9589
  1093.5000      7.8101      2.6851      0.0000     -2.1246    121.1511
  1093.6000      7.8101      2.6606     -0.0052     -0.6413    130.2665
  1093.7000      7.8101      2.6315      0.0303      1.1221    138.2730
  1093.8000      7.9019      2.6006      0.0314      2.9944    146.3021
  1093.9000      7.9019      2.5764      0.0440      4.4585    154.0548
  1094.0000      7.9381      2.5682      0.0625      4.9591    160.5409
  1094.1000      7.9381      2.5723      0.1037      4.7064    163.1675
  1094.2000      7.9381      2.5845      0.0848      3.9671    159.6753
  1094.3000      7.9577      2.6064      0.1117      2.6401    155.5509
  1094.4000      7.9577      2.6334      0.1125      1.0056    156.8853
  1094.5000      7.9063      2.6568      0.1443     -0.4122    159.6360
  1094.6000      7.9063      2.6694      0.1779     -1.1748    159.6102
  1094.7000      7.9063      2.6689      0.1420     -1.1477    158.6069
  1094.8000      7.8213      2.6636      0.1168     -0.8267    157.7379
  1094.9000      7.8213      2.6588      0.1330     -0.5316    157.6916
  1095.0000      7.8399      2.6444      0.1159      0.3387    159.1193
  1095.1000      7.8399      2.6073      0.0462      2.5873    159.1124
