~Version Information
VERS.                      2.0: CWLS Log ASCII Standard - VERSION 2.0
WRAP.                       NO: One line per depth step
~Well Information Block
STRT.FT               795.0000: 
STOP.FT              2276.0000: 
STEP.FT                 0.1000: 
NULL.                -999.2500: 
COMP.          Pioneer Natural Resources: COMPANY
WELL.            Wildcard 31-5: WELL
FLD.           Purgatoire River: FIELD
LOC.           624' FNL & 1852' FEL--: LOCATION
CNTY.               Las Animas: COUNTY
SRVC.                Patterson: SERVICE COMPANY
DATE.          Tue Mar 07 07:04:10 2006: LOG DATE
UWI.           05 071 08707 00: UNIQUE WELL ID
STAT.                 Colorado: STATE
~Curve Information Block
DEPT.FT            0 000 00 00: Depth
DCAL.in                       : CDL Caliper
DPOR.pu                       : CDL Density Porosity
NPOR.pu                       : Neutron Porosity
RHOB.g/cc                     : CDL Bulk Density
RHOC.g/cc                     : CDL Density Correction
GR.GAPI                       : Gamma Ray
~Parameter Information Block
~A  Depth       DCAL        DPOR        NPOR        RHOB        RHOC         GR     
# ...
   987.0000      8.2068      0.9166     25.5998      2.6349      0.1115    131.0072
   987.1000      8.2068      2.3032     24.9583      2.6120      0.0565    129.9901
   987.2000      8.2068      4.8735     24.1382      2.5696      0.0173    127.0776
   987.3000      8.2056      6.3631     23.7450      2.5450     -0.0240    124.6576
   987.4000      8.2056      5.9400     23.9212      2.5520     -0.0037    123.7718
   987.5000      8.2024      4.8484     24.2613      2.5700      0.0175    125.2954
   987.6000      8.2024      4.2863     24.3961      2.5793      0.0139    130.5723
   987.7000      8.2024      3.8179     24.4010      2.5870      0.0200    137.8983
   987.8000      8.1996      3.2556     24.3863      2.5963      0.0544    142.5629
   987.9000      8.1996      3.5404     24.4877      2.5916      0.0578    142.5233
   988.0000      8.1975      4.3206     24.9005      2.5787      0.0274    140.6731
   988.1000      8.1975      4.5157     25.4267      2.5755      0.0172    138.9982
   988.2000      8.1975      4.6511     25.8035      2.5733      0.0323    134.0764
   988.3000      8.1933      5.4474     25.9615      2.5601     -0.0128    126.3447
   988.4000      8.1933      6.4765     25.8319      2.5431      0.0172    121.3254
   988.5000      8.1851      7.2491     25.5361      2.5304     -0.0105    118.8688
   988.6000      8.1851      7.3963     25.3582      2.5280     -0.0355    116.3831
   988.7000      8.1851      6.8244     25.2691      2.5374      0.0240    114.9717
   988.8000      8.1762      6.0851     25.1637      2.5496      0.0196    115.7486
   988.9000      8.1762      4.8565     25.0753      2.5699     -0.0002    117.7447
   989.0000      8.1709      2.3920     24.9449      2.6105      0.0809    121.3167
   989.1000      8.1709     -0.4794     24.6906      2.6579      0.0695    128.1555
   989.2000      8.1709     -2.7556     24.3245      2.6955      0.0247    134.0031
   989.3000      8.1698     -4.4326     23.9402      2.7231      0.0689    132.0125
   989.4000      8.1698     -5.1899     23.5569      2.7356      0.0705    124.5562
   989.5000      8.1712     -4.2220     23.2831      2.7197      0.1085    119.4101
   989.6000      8.1712     -1.9851     23.2740      2.6828      0.0116    117.2229
   989.7000      8.1712     -0.2050     23.4352      2.6534     -0.0131    111.4850
   989.8000      8.1731      0.4891     23.5565      2.6419     -0.0043     99.4300
   989.9000      8.1731      0.9809     23.4591      2.6338     -0.0233     88.5037
   990.0000      8.1717      2.8116     22.9920      2.6036     -0.0293     88.2243
   990.1000      8.1717      6.7353     22.1374      2.5389     -0.0444     95.1456
   990.2000      8.1717     10.9270     21.1473      2.4697     -0.0506     97.6631
   990.3000      8.1632     13.1666     20.2741      2.4328     -0.0233     92.6057
   990.4000      8.1632     13.7742     19.6248      2.4227     -0.0056     85.2681
   990.5000      8.1483     14.3130     19.1490      2.4138      0.0291     79.2480
   990.6000      8.1483     15.2224     18.5092      2.3988      0.0233     73.4414
   990.7000      8.1483     15.8663     17.5363      2.3882      0.0132     66.8858
   990.8000      8.1329     16.3632     16.4685      2.3800      0.0712     60.9213
   990.9000      8.1329     17.4870     15.7767      2.3615      0.0680     57.0486
   991.0000      8.1201     18.9184     15.6910      2.3378      0.0600     55.4560
   991.1000      8.1201     19.7426     15.7408      2.3242      0.0516     54.9282
   991.2000      8.1201     20.0003     15.5677      2.3200      0.0801     54.2434
   991.3000      8.1093     20.3705     15.4577      2.3139      0.0762     52.1881
   991.4000      8.1093     20.5396     15.5597      2.3111      0.0374     48.1835
   991.5000      8.1033     19.4086     15.6907      2.3298      0.0859     43.6455
   991.6000      8.1033     16.4577     15.8543      2.3784      0.1416     42.1495
   991.7000      8.1033     11.9853     16.1540      2.4522      0.2713     43.6340
   991.8000      8.1043      6.7161     16.4386      2.5392      0.3116     44.6219
   991.9000      8.1043      1.7232     16.4643      2.6216      0.4286     46.0484
   992.0000      8.1110     -1.3585     16.3395      2.6724      0.4554     48.8983
   992.1000      8.1110     -1.6122     16.5047      2.6766      0.3779     48.9548
   992.2000      8.1110      0.2163     16.9879      2.6464      0.2975     44.7982
   992.3000      8.1156      2.6090     17.3050      2.6070      0.2158     40.8262
   992.4000      8.1156      4.3141     17.3220      2.5788      0.1710     40.4162
   992.5000      8.1165      4.9801     17.4643      2.5678      0.1669     43.0005
   992.6000      8.1165      4.9488     17.8355      2.5683      0.1487     46.1547
   992.7000      8.1165      5.0081     18.0788      2.5674      0.1467     48.3719
   992.8000      8.1184      6.0619     18.0063      2.5500      0.1338     49.9399
   992.9000      8.1184      8.0142     17.9560      2.5178      0.0682     52.4955
   993.0000      8.1225      9.8360     18.4325      2.4877      0.0559     57.3974
   993.1000      8.1225     11.0993     19.4243      2.4669      0.0616     63.4653
   993.2000      8.1225     12.3064     20.3455      2.4469      0.0459     68.1764
   993.3000      8.1301     13.9359     20.8507      2.4201      0.0638     69.8521
   993.4000      8.1301     15.4746     20.9939      2.3947     -0.0089     68.5379
   993.5000      8.1413     15.5483     20.8067      2.3935     -0.0015     66.0095
   993.6000      8.1413     13.9644     20.5506      2.4196      0.0666     63.9440
   993.7000      8.1413     11.7682     20.5286      2.4558      0.0323     63.2379
   993.8000      8.1574      9.8211     20.5851      2.4880      0.1297     64.5012
   993.9000      8.1574      8.8197     20.5157      2.5045      0.1352     66.2612
   994.0000      8.1708      9.0381     20.3425      2.5009      0.1383     67.1001
   994.1000      8.1708     10.2052     20.1291      2.4816      0.1169     68.4936
   994.2000      8.1708     11.4274     20.0514      2.4614      0.0525     70.7766
   994.3000      8.1754     11.5439     20.2941      2.4595      0.0591     70.3048
   994.4000      8.1754     10.2211     20.5833      2.4814      0.1051     66.0896
   994.5000      8.1763      8.1629     20.6768      2.5153      0.1056     62.7550
   994.6000      8.1763      6.2066     20.7621      2.5476      0.1156     63.6848
   994.7000      8.1763      4.8809     21.0589      2.5695      0.0800     64.6031
   994.8000      8.1774      4.7497     21.5790      2.5716      0.0988     61.6922
   994.9000      8.1774      6.3025     22.2561      2.5460      0.0716     60.5266
   995.0000      8.1789      8.7248     23.0679      2.5060     -0.0134     66.9318
   995.1000      8.1789     10.3117     23.8330      2.4799      0.0135     79.4176
   995.2000      8.1789     10.6754     24.2347      2.4739      0.0253     95.1482
   995.3000      8.1782     10.6190     24.2092      2.4748      0.0174    111.8388
   995.4000      8.1782     10.4770     24.0559      2.4771      0.0618    123.5550
   995.5000      8.1757      9.9624     24.1253      2.4856      0.0401    126.3463
   995.6000      8.1757      9.0202     24.1839      2.5012      0.0522    125.5115
   995.7000      8.1757      8.0371     23.9361      2.5174      0.0959    126.1021
   995.8000      8.1760      6.9464     23.6776      2.5354      0.0674    126.1805
   995.9000      8.1760      5.7258     23.5661      2.5555      0.1165    125.1007
   996.0000      8.1789      4.9231     23.4119      2.5688      0.0951    125.0109
   996.1000      8.1789      4.1737     23.2097      2.5811      0.0931    124.7007
   996.2000      8.1789      2.7075     23.2223      2.6053      0.0740    122.3836
   996.3000      8.1808      0.9775     23.4388      2.6339      0.0983    117.0392
   996.4000      8.1808     -0.0468     23.6228      2.6508      0.0947    110.1215
   996.5000      8.1793     -0.8191     23.6950      2.6635      0.0651    107.0803
