~Version Information
VERS.                      2.0: CWLS Log ASCII Standard - VERSION 2.0
WRAP.                       NO: One line per depth step
~Well Information Block
STRT.FT                 8.2500: 
STOP.FT              1156.2500: 
STEP.FT                 0.2500: 
NULL.                -999.2500: 
COMP.          Pioneer Natural Resources: COMPANY
WELL.              Davida 34-8: WELL
FLD.           Purgatoire River: FIELD
LOC.           418' FSL & 1923' FEL: LOCATION
CNTY.               Las Animas: COUNTY
SRVC.                Patterson: SERVICE COMPANY
DATE.          Thu Mar 30 09:09:42 2006: LOG DATE
UWI.           05 071 08722 00: UNIQUE WELL ID
STAT.                 Colorado: STATE
~Curve Information Block
DEPT.FT            0 000 00 00: Depth
GR.GAPI                       : Gamma Ray
CCL.                          : Casing Collar Locator
TT3.usec                      : CBL 3' Travel Time
AMP3.mV                       : CBL 3' Amplitude
~Parameter Information Block
~A  Depth        GR         CCL         TT3         AMP3    
# ...
   745.2500     91.4308      0.0000    696.6780      5.3680
   745.5000     91.4089      0.0000    698.7667      5.4121
   745.7500     90.8955      0.0000    702.9980      5.3832
   746.0000     90.0291      0.0000    708.7439      5.2680
   746.2500     89.5204      0.0000    715.1083      5.1081
   746.5000     90.5683      0.0000    721.7514      4.9861
   746.7500     94.1573      0.0000    728.5065      4.9582
   747.0000    100.1357      0.0000    734.8118      5.0052
   747.2500    107.1228      0.0000    739.8696      5.0707
   747.5000    113.4873      0.0000    743.1235      5.1317
   747.7500    118.2390      0.0000    744.5837      5.2017
   748.0000    120.8640      0.0000    744.9669      5.2836
   748.2500    120.8111      0.0000    745.3198      5.3588
   748.5000    117.7437      0.0000    746.0020      5.4210
   748.7500    112.2579      0.0000    746.3494      5.5074
   749.0000    105.9509      0.0000    746.0952      5.6869
   749.2500    100.7343      0.0000    746.8080      5.9971
   749.5000     98.0729      0.0000    750.5908      6.3732
   749.7500     98.4521      0.0000    757.0500      6.6680
   750.0000    101.1767      0.0000    762.9496      6.7773
   750.2500    104.7766      0.0000    765.5373      6.7279
   750.5000    107.9081      0.0000    765.2170      6.6222
   750.7500    110.0707      0.0000    764.4481      6.5305
   751.0000    111.5608      0.0000    764.9312      6.4600
   751.2500    112.8750      0.0000    766.2818      6.3932
   751.5000    114.2741      0.0000    766.8716      6.3240
   751.7500    115.8305      0.0000    765.5190      6.2650
   752.0000    117.5369      0.0000    762.3139      6.2332
   752.2500    119.1065      0.0000    758.0855      6.2332
   752.5000    119.9950      0.0000    753.6763      6.2499
   752.7500    120.0386      0.0000    750.0094      6.2586
   753.0000    119.8286      0.0000    748.1517      6.2419
   753.2500    120.0061      0.0000    748.5679      6.2006
   753.5000    120.3600      0.0000    750.5168      6.1470
   753.7500    119.9966      0.0000    752.6500      6.0900
   754.0000    118.3048      0.0000    754.0937      6.0305
   754.2500    115.5499      0.0000    754.6843      5.9699
   754.5000    112.6570      0.0000    754.3860      5.9191
   754.7500    110.5037      0.0000    752.6638      5.8942
   755.0000    109.2297      0.0000    748.3661      5.9053
   755.2500    108.0330      0.0000    740.1860      5.9517
   755.5000    105.7235      0.0000    727.4366      6.0239
   755.7500    101.8078      0.0000    710.6993      6.1053
   756.0000     97.2639      0.0000    692.3085      6.1765
   756.2500     93.8798      0.0000    676.5450      6.2280
   756.5000     92.4072      0.0000    668.2897      6.2695
   756.7500     91.7486      0.0000    669.8124      6.3219
   757.0000     90.5445      0.0000    678.6312      6.3951
   757.2500     89.1376      0.0000    689.2679      6.4786
   757.5000     89.1254      0.0000    697.1721      6.5569
   757.7500     91.0793      0.0000    700.8121      6.6251
   758.0000     93.5908      0.0000    700.9337      6.6861
   758.2500     94.7504      0.0000    699.1574      6.7417
   758.5000     93.9477      0.0000    697.4818      6.7921
   758.7500     92.0198      0.0000    698.0264      6.8397
   759.0000     90.1488      0.0000    702.1006      6.8878
   759.2500     88.9504      0.0000    709.0014      6.9415
   759.5000     88.3585      0.0000    715.6658      7.0123
   759.7500     87.9676      0.0000    717.9444      7.1106
   760.0000     87.5322      0.0000    713.5776      7.2292
   760.2500     87.3086      0.0000    704.8874      7.3370
   760.5000     87.8348      0.0000    697.7219      7.3878
   760.7500     89.2816      0.0000    696.6993      7.3328
   761.0000     91.1398      0.0000    702.0689      7.1374
   761.2500     92.6262      0.0000    711.5222      6.8073
   761.5000     93.4103      0.0000    723.0204      6.4015
   761.7500     93.9190      0.0000    734.5111      6.0055
   762.0000     94.8670      0.0000    743.1880      5.6842
   762.2500     96.4714      0.0000    747.5457      5.4580
   762.5000     98.2538      0.0000    749.2552      5.3196
   762.7500     99.5839      0.0000    751.4330      5.2571
   763.0000    100.1773      0.0000    755.6949      5.2545
   763.2500    100.0244      0.0000    761.6766      5.2769
   763.5000     99.1939      0.0000    768.3407      5.2780
   763.7500     97.9242      0.0000    774.7099      5.2374
   764.0000     96.6379      0.0000    779.6088      5.1897
   764.2500     95.6577      0.0000    781.4929      5.2034
   764.5000     95.1355      0.0000    779.1518      5.3231
   764.7500     95.3119      0.0000    773.0328      5.5319
   765.0000     96.4851      0.0000    765.5704      5.7723
   765.2500     98.5488      0.0000    759.7182      5.9971
   765.5000    100.9386      0.0000    757.2074      6.1928
   765.7500    103.2516      0.0000    758.0619      6.3589
   766.0000    105.4850      0.0000    760.7419      6.4809
   766.2500    107.3808      0.0000    762.3075      6.5338
   766.5000    107.9892      0.0000    759.5328      6.5116
   766.7500    106.2579      0.0000    750.9927      6.4442
   767.0000    101.8397      0.0000    737.9810      6.3789
   767.2500     95.1566      0.0000    723.5536      6.3393
   767.5000     87.0407      0.0000    711.5281      6.3065
   767.7500     78.6442      0.0000    705.7509      6.2441
   768.0000     71.4359      0.0000    708.1031      6.1404
   768.2500     66.6310      0.0000    716.6217      6.0194
   768.5000     64.3342      0.0000    726.8046      5.9124
   768.7500     63.5726      0.0000    735.0095      5.8317
   769.0000     63.3359      0.0000    739.8927      5.7742
   769.2500     63.1636      0.0000    741.4645      5.7381
   769.5000     62.6305      0.0000    740.4456      5.7248
   769.7500     60.9903      0.0000    738.4836      5.7326
   770.0000     57.8865      0.0000    737.6794      5.7539
   770.2500     54.0544      0.0000    739.2913      5.7787
   770.5000     50.7424      0.0000    742.8753      5.7983
   770.7500     48.5159      0.0000    746.5056      5.8113
   771.0000     46.9367      0.0000    747.4684      5.8251
   771.2500     45.3448      0.0000    742.6143      5.8468
   771.5000     43.6666      0.0000    728.5769      5.8732
   771.7500     42.4098      0.0000    703.0172      5.8914
   772.0000     42.0173      0.0000    666.9422      5.8921
   772.2500     42.3236      0.0000    625.9244      5.8774
   772.5000     42.6914      0.0000    588.2828      5.8558
   772.7500     42.6655      0.0000    561.2466      5.8326
   773.0000     42.3957      0.0000    548.4838      5.8085
   773.2500     42.4217      0.0000    550.5517      5.7857
   773.5000     43.0950      0.0000    566.0219      5.7726
   773.7500     44.1465      0.0000    590.9698      5.7781
   774.0000     44.7760      0.0000    618.8438      5.8020
   774.2500     44.2758      0.0000    643.5987      5.8321
   774.5000     42.6416      0.0000    663.5641      5.8558
   774.7500     40.6181      0.0000    681.0580      5.8744
   775.0000     39.2015      0.0000    698.3068      5.9021
   775.2500     39.0187      0.0000    714.6862      5.9504
   775.5000     39.9833      0.0000    727.4432      6.0161
   775.7500     41.4590      0.0000    734.1913      6.0869
   776.0000     42.7229      0.0000    734.9220      6.1524
   776.2500     43.3179      0.0000    732.1032      6.2081
   776.5000     43.2135      0.0000    728.9102      6.2514
   776.7500     42.9076      0.0000    727.5015      6.2810
   777.0000     43.2907      0.0000    728.8684      6.3002
   777.2500     45.1101      0.0000    733.2173      6.3166
   777.5000     48.3352      0.0000    739.6875      6.3325
   777.7500     51.9820      0.0000    746.3721      6.3390
   778.0000     54.7270      0.0000    751.4776      6.3236
   778.2500     55.8396      0.0000    754.3973      6.2831
   778.5000     55.4257      0.0000    755.5074      6.2285
