~Version Information
VERS.                      2.0: CWLS Log ASCII Standard - VERSION 2.0
WRAP.                       NO: One line per depth step
~Well Information Block
STRT.FT                 0.0000: 
STOP.FT              1426.7500: 
STEP.FT                 0.2500: 
NULL.                -999.2500: 
COMP.          Pioneer Natural Resources: COMPANY
WELL.            Bordeaux 42-2: WELL
FLD.           Purgatorie River: FIELD
LOC.           1963' FNL & 1148' FEL: LOCATION
PROV.                 Colorado: PROVINCE
CNTY.               Las Animas: COUNTRY
SRVC.                Patterson: SERVICE COMPANY
DATE.          Fri Dec 02 09:28:20 2005: LOG DATE
UWI.                          : UNIQUE WELL ID
~Curve Information Block
DEPT.FT            0 000 00 00: Depth
CCL.                          : Casing Collar Locator
TT3.usec                      : CBL 3' Travel Time
AMP3.mV                       : CBL 3' Amplitude
GR.GAPI                       : Gamma Ray
~Parameter Information Block
~A  Depth       CCL         TT3         AMP3         GR     
# ...
  1407.0000      0.0000    782.1497      7.6273     82.6900
  1407.2500      0.0000    783.6776      7.5946     80.9796
  1407.5000      0.0000    783.6086      7.5705     81.0453
  1407.7500      0.0000    776.8359      7.5827     83.3066
  1408.0000      0.0000    760.6842      7.6521     87.3848
  1408.2500      0.0000    739.8224      7.7745     91.7817
  1408.5000      0.0000    723.6208      7.9264     94.7562
  1408.7500      0.0000    718.0625      8.0654     95.5952
  1409.0000      0.0000    724.1777      8.1662     94.8831
  1409.2500      0.0000    740.5438      8.2522     93.5974
  1409.5000      0.0000    761.4337      8.3594     92.0172
  1409.7500      0.0000    778.2456      8.4883     89.3784
  1410.0000      0.0000    787.0336      8.6107     84.3285
  1410.2500      0.0000    789.9879      8.7146     75.5975
  1410.5000      0.0000    789.9803      8.8110     62.6640
  1410.7500      0.0000    787.5113      8.9043     46.5390
  1411.0000      0.0000    782.1537      8.9786     29.9977
  1411.2500      0.0000    775.1542      9.0029     16.3219
  1411.5000      0.0000    769.2594      8.9584      7.3357
  1411.7500      0.0000    765.9999      8.8790      2.6799
  1412.0000      0.0000    765.0415      8.8396      0.7866
  1412.2500      0.0000    765.9694      8.8740      0.1836
  1412.5000      0.0000    769.3470      8.9455      0.0336
  1412.7500      0.0000    775.6784      9.0153      0.0043
  1413.0000      0.0000    783.4303      9.0910      0.0000
  1413.2500      0.0000    789.6079      9.1996   -999.2500
  1413.5000      0.0000    792.8273      9.3469   -999.2500
  1413.7500      0.0000    794.0366      9.5155   -999.2500
  1414.0000      0.0000    794.5326      9.7007   -999.2500
  1414.2500      0.0000    794.8659      9.9320   -999.2500
  1414.5000      0.0000    795.2306     10.2250   -999.2500
  1414.7500      0.0000    795.9741     10.5254   -999.2500
  1415.0000      0.0000    797.7499     10.7643   -999.2500
  1415.2500      0.0000    800.6976     10.9404   -999.2500
  1415.5000      0.0000    799.5204     11.0471   -999.2500
  1415.7500      0.0000    773.3676     10.8389   -999.2500
  1416.0000      0.0000    684.1243      9.7088   -999.2500
  1416.2500      0.0000    509.9661      7.2019   -999.2500
  1416.5000      0.0000    294.6401      3.9238   -999.2500
  1416.7500      0.0000    123.3932      1.2457   -999.2500
  1417.0000      0.0000     35.7711     -0.1430   -999.2500
  1417.2500      0.0000      6.9692     -0.6026   -999.2500
  1417.5000      0.0000      0.8932     -0.6999   -999.2500
  1417.7500      0.0000      0.0713     -0.7131   -999.2500
  1418.0000      0.0000   -999.2500   -999.2500   -999.2500
  1418.2500      0.0000   -999.2500   -999.2500   -999.2500
  1418.5000      0.0000   -999.2500   -999.2500   -999.2500
  1418.7500      0.0000   -999.2500   -999.2500   -999.2500
  1419.0000      0.0000   -999.2500   -999.2500   -999.2500
  1419.2500      0.0000   -999.2500   -999.2500   -999.2500
  1419.5000      0.0000   -999.2500   -999.2500   -999.2500
  1419.7500      0.0000   -999.2500   -999.2500   -999.2500
  1420.0000      0.0000   -999.2500   -999.2500   -999.2500
  1420.2500      0.0000   -999.2500   -999.2500   -999.2500
  1420.5000      0.0000   -999.2500   -999.2500   -999.2500
  1420.7500      0.0000   -999.2500   -999.2500   -999.2500
  1421.0000      0.0000   -999.2500   -999.2500   -999.2500
  1421.2500      0.0000   -999.2500   -999.2500   -999.2500
  1421.5000      0.0000   -999.2500   -999.2500   -999.2500
  1421.7500      0.0000   -999.2500   -999.2500   -999.2500
  1422.0000      0.0000   -999.2500   -999.2500   -999.2500
  1422.2500      0.0000   -999.2500   -999.2500   -999.2500
  1422.5000      0.0000   -999.2500   -999.2500   -999.2500
  1422.7500      0.0000   -999.2500   -999.2500   -999.2500
  1423.0000      0.0000   -999.2500   -999.2500   -999.2500
  1423.2500      0.0000   -999.2500   -999.2500   -999.2500
  1423.5000      0.0000   -999.2500   -999.2500   -999.2500
  1423.7500      0.0000   -999.2500   -999.2500   -999.2500
  1424.0000      0.0000   -999.2500   -999.2500   -999.2500
  1424.2500   -999.2500   -999.2500   -999.2500   -999.2500
  1424.5000   -999.2500   -999.2500   -999.2500   -999.2500
  1424.7500   -999.2500   -999.2500   -999.2500   -999.2500
  1425.0000   -999.2500   -999.2500   -999.2500   -999.2500
  1425.2500   -999.2500   -999.2500   -999.2500   -999.2500
  1425.5000   -999.2500   -999.2500   -999.2500   -999.2500
  1425.7500   -999.2500   -999.2500   -999.2500   -999.2500
  1426.0000   -999.2500   -999.2500   -999.2500   -999.2500
  1426.2500   -999.2500   -999.2500   -999.2500   -999.2500
  1426.5000   -999.2500   -999.2500   -999.2500   -999.2500
  1426.7500   -999.2500   -999.2500   -999.2500   -999.2500
