~Version Information
VERS.                      2.0: CWLS Log ASCII Standard - VERSION 2.0
WRAP.                       NO: One line per depth step
~Well Information Block
STRT.FT               360.0000: 
STOP.FT              1349.5000: 
STEP.FT                 0.1000: 
NULL.                -999.2500: 
COMP.          Pioneer Natural Resources: COMPANY
WELL.          Challenger 31-29: WELL
FLD.           Purgatoire River: FIELD
LOC.           51' FNL & 1923' FEL: LOCATION
STAT.                 Colorado: State
CNTY.               Las Animas: COUNTY
CTRY. USA : Country
SECT. 29 : Section
TOWN. 33S : Township
RANG. 65W : Range
SRVC.                Patterson: SERVICE COMPANY
DATE.          Thu Sep 15 13:35:50 2005: LOG DATE
API.           05 071 08514 00: UNIQUE WELL ID
~Curve Information Block
DEPT.FT            0 000 00 00: Depth
DCAL.in                       : CDL Caliper
RHOB.g/cc                     : CDL Bulk Density
RHOC.g/cc                     : CDL Density Correction
DPOR.pu                       : CDL Density Porosity
GR.GAPI                       : Gamma Ray
NPOR.pu                       : Neutron Porosity
~Parameter Information Block
~A  Depth       DCAL        RHOB        RHOC        DPOR         GR         NPOR    
# ...
  1272.0000      7.9881      2.5058      0.0958      8.7392     97.5307     21.3448
  1272.1000      7.9881      2.4929      0.0280      9.5242     92.3204     22.0214
  1272.2000      7.9881      2.4731      0.0470     10.7216     90.5201     22.1035
  1272.3000      7.9889      2.4633      0.0337     11.3133     96.0439     21.4367
  1272.4000      7.9889      2.4796     -0.0203     10.3274    103.3440     20.5838
  1272.5000      7.9987      2.5152      0.0652      8.1704    108.0151     20.4242
  1272.6000      7.9987      2.5394      0.0933      6.7045    109.2272     21.0820
  1272.7000      7.9987      2.5366      0.0981      6.8739    105.6174     21.4300
  1272.8000      8.0105      2.5227      0.0417      7.7154    101.2240     20.4996
  1272.9000      8.0105      2.5227      0.0500      7.7142    102.6746     18.8660
  1273.0000      7.9910      2.5435      0.0300      6.4532    106.9576     18.4089
  1273.1000      7.9910      2.5677      0.0983      4.9877    108.3668     19.5556
  1273.2000      7.9910      2.5745      0.0637      4.5742    110.4568     20.4875
  1273.3000      7.9898      2.5645      0.0542      5.1811    113.7223     20.6435
  1273.4000      7.9898      2.5546      0.0106      5.7829    112.0521     20.5618
  1273.5000      7.9882      2.5524      0.0239      5.9177    105.8885     20.2193
  1273.6000      7.9882      2.5484      0.0294      6.1566    102.2654     19.4985
  1273.7000      7.9882      2.5388      0.0204      6.7421    105.2362     18.9171
  1273.8000      7.9856      2.5305      0.0228      7.2424    109.8442     18.9941
  1273.9000      7.9856      2.5334      0.0359      7.0688    108.4375     19.3246
  1274.0000      7.9880      2.5506      0.0449      6.0234    101.1962     19.8668
  1274.1000      7.9880      2.5657      0.0932      5.1098     96.3502     20.3952
  1274.2000      7.9880      2.5609      0.0456      5.4024     98.6302     19.3682
  1274.3000      7.9873      2.5462      0.0466      6.2917    103.3580     17.2597
  1274.4000      7.9873      2.5382      0.0380      6.7731    105.6544     16.5138
  1274.5000      7.9804      2.5337      0.0857      7.0508    105.2423     18.0264
  1274.6000      7.9804      2.5297      0.0122      7.2935    105.2927     20.8894
  1274.7000      7.9804      2.5340      0.0473      7.0317    107.6660     22.9219
  1274.8000      7.9853      2.5478      0.0407      6.1969    109.1878     23.0509
  1274.9000      7.9853      2.5724      0.0527      4.7003    108.3113     22.3729
  1275.0000      7.9749      2.6054      0.0745      2.7049    109.3722     21.5640
  1275.1000      7.9749      2.6281      0.0774      1.3251    114.6623     21.0172
  1275.2000      7.9749      2.6308      0.0961      1.1635    121.1851     21.4117
  1275.3000      7.9717      2.6273      0.1079      1.3785    127.5806     21.6307
  1275.4000      7.9717      2.6295      0.0730      1.2435    133.3299     20.7181
  1275.5000      7.9657      2.6320      0.1054      1.0906    135.9801     19.9407
  1275.6000      7.9657      2.6294      0.0940      1.2485    133.4199     19.2037
  1275.7000      7.9657      2.6236      0.0898      1.6003    131.7425     17.5685
  1275.8000      7.9603      2.6179      0.0656      1.9481    141.7075     15.7166
  1275.9000      7.9603      2.6235      0.0430      1.6073    158.1522     14.7374
  1276.0000      7.9624      2.6506      0.0762     -0.0386    166.0851     15.1969
  1276.1000      7.9624      2.6792      0.1581     -1.7715    163.5524     16.4427
  1276.2000      7.9624      2.6777      0.1169     -1.6765    161.1178     18.0259
  1276.3000      7.9638      2.6530      0.0534     -0.1826    168.0635     20.3814
  1276.4000      7.9638      2.6338      0.0448      0.9847    184.5372     22.2736
  1276.5000      7.9719      2.6238      0.1062      1.5863    199.9853     22.6311
  1276.6000      7.9719      2.6036      0.0766      2.8097    203.1580     22.4776
  1276.7000      7.9719      2.5699      0.0309      4.8549    197.1528     22.5727
  1276.8000      7.9785      2.5484     -0.0317      6.1603    193.0151     22.4745
  1276.9000      7.9785      2.5481      0.0536      6.1776    190.9059     21.2047
  1277.0000      7.9855      2.5488      0.0034      6.1316    187.1145     18.7405
  1277.1000      7.9855      2.5437      0.0090      6.4415    186.2038     17.3351
  1277.2000      7.9855      2.5380      0.0403      6.7905    190.8833     18.4614
  1277.3000      7.9879      2.5302      0.0290      7.2590    194.5303     20.6207
  1277.4000      7.9879      2.5168      0.0269      8.0722    189.2319     21.6749
  1277.5000      7.9836      2.5072      0.0277      8.6538    174.7910     21.9761
  1277.6000      7.9836      2.5145      0.0926      8.2146    156.5488     22.7340
  1277.7000      7.9836      2.5223      0.1340      7.7374    138.2554     23.1789
  1277.8000      7.9904      2.5082      0.0821      8.5914    122.3786     22.0153
  1277.9000      7.9904      2.4812      0.0536     10.2282    108.0069     20.3013
  1278.0000      7.9946      2.4641      0.0124     11.2686     96.2012     20.1216
  1278.1000      7.9946      2.4623      0.0504     11.3748     91.2552     21.6461
  1278.2000      7.9946      2.4649      0.0740     11.2167     92.1373     23.7018
  1278.3000      7.9927      2.4638      0.0561     11.2832     94.1146     25.3770
  1278.4000      7.9927      2.4650      0.0401     11.2126     93.7092     26.1767
  1278.5000      7.9975      2.4794      0.1129     10.3406     89.3192     26.1424
  1278.6000      7.9975      2.5037      0.0607      8.8694     84.9791     25.6674
  1278.7000      7.9975      2.5255      0.0684      7.5445     86.8354     25.1439
  1278.8000      7.9965      2.5394      0.0916      6.7002     95.2835     25.2817
  1278.9000      7.9965      2.5463      0.0468      6.2841    106.4594     25.8746
  1279.0000      8.0219      2.5447      0.1098      6.3826    117.6706     26.2483
  1279.1000      8.0219      2.5390      0.0450      6.7300    131.0746     26.3125
  1279.2000      8.0219      2.5458      0.0207      6.3125    145.9892     26.3295
  1279.3000      7.9839      2.5632      0.0760      5.2633    158.8703     27.4528
  1279.4000      7.9839      2.5667      0.0698      5.0455    173.7898     29.4744
  1279.5000      7.9794      2.5566      0.0140      5.6579    190.9963     30.3796
  1279.6000      7.9794      2.5561      0.0430      5.6881    203.3866     29.1767
  1279.7000      7.9794      2.5654      0.0831      5.1258    209.4969     26.7846
  1279.8000      7.9923      2.5637      0.0616      5.2306    208.9674     25.2171
  1279.9000      7.9923      2.5458      0.0380      6.3143    205.6590     25.1501
  1280.0000      8.0009      2.5255      0.0208      7.5469    207.5727     25.4759
  1280.1000      8.0009      2.5190      0.0068      7.9395    214.3232     25.7371
  1280.2000      8.0009      2.5316      0.0389      7.1742    220.0330     26.2527
  1280.3000      8.0059      2.5497      0.0694      6.0791    219.5782     26.8364
  1280.4000      8.0059      2.5631      0.0542      5.2667    214.3928     27.2473
  1280.5000      7.9648      2.5840      0.0314      3.9982    210.9008     27.6972
  1280.6000      7.9648      2.6176      0.1298      1.9658    211.4120     27.8346
  1280.7000      7.9648      2.6433      0.1481      0.4033    216.1425     27.4267
  1280.8000      7.9503      2.6507      0.1285     -0.0432    225.5018     27.0441
  1280.9000      7.9503      2.6443      0.1549      0.3479    235.4547     26.7490
  1281.0000      7.9465      2.6221      0.1492      1.6914    240.5755     26.2847
  1281.1000      7.9465      2.5913      0.0643      3.5556    241.2242     26.0692
  1281.2000      7.9465      2.5686      0.0557      4.9336    242.8457     25.9146
  1281.3000      7.9541      2.5564     -0.0015      5.6719    245.0746     25.1297
  1281.4000      7.9541      2.5466      0.0249      6.2669    242.9275     24.3923
  1281.5000      7.9588      2.5306      0.0293      7.2372    236.0022     25.2219
