~Version Information
VERS.                      2.0: CWLS Log ASCII Standard - VERSION 2.0
WRAP.                       NO: One line per depth step
~Well Information Block
STRT.FT               491.0000: 
STOP.FT              1911.5000: 
STEP.FT                 0.2500: 
NULL.                -999.2500: 
COMP.          Pioneer Natural Resources: COMPANY
WELL.            Corazon 13-10: WELL
FLD.           Purgatoire River: FIELD
LOC.           2510' FSL & 439' FWL: LOCATION
PROV.                 Colorado: PROVINCE
CNTY.               Las Animas: COUNTRY
SRVC.                Patterson: SERVICE COMPANY
DATE.          Wed Nov 30 22:14:48 2005: LOG DATE
UWI.           05 071 08613 00: UNIQUE WELL ID
~Curve Information Block
DEPT.FT            0 000 00 00: Depth
SN.Ohm-m                      : IEL Short Normal
SP.mV                         : IEL Spontaneous Potential
DIR.Ohm-m                     : IEL Induction Resistivity
GR.GAPI                       : Gamma Ray
~Parameter Information Block
~A  Depth        SN          SP         DIR          GR     
# ...
  1127.5000     28.7504     12.2445     16.7046     60.4103
  1127.7500     29.1844     12.3380     15.7938     58.6810
  1128.0000     28.8522     12.4473     14.9118     60.8258
  1128.2500     27.6498     12.5779     14.0521     66.0193
  1128.5000     25.6487     12.7352     13.2256     79.6117
  1128.7500     23.1130     12.9190     12.4562     91.8397
  1129.0000     20.4233     13.1214     11.7674    112.3156
  1129.2500     17.8972     13.3281     11.1695    125.5178
  1129.5000     15.7031     13.5244     10.6529    142.1748
  1129.7500     13.8206     13.7021     10.1916    150.5483
  1130.0000     12.1162     13.8598      9.7561    158.9609
  1130.2500     10.5762     13.9988      9.3276    161.9668
  1130.5000      9.3932     14.1186      8.9050    162.9050
  1130.7500      8.7437     14.2175      8.5011    161.6191
  1131.0000      8.5544     14.2975      8.1335    158.4869
  1131.2500      8.5642     14.3681      7.8163    156.7934
  1131.5000      8.5850     14.4445      7.5575    156.1207
  1131.7500      8.6382     14.5416      7.3597    156.8063
  1132.0000      8.7916     14.6669      7.2208    158.3004
  1132.2500      8.9794     14.8178      7.1352    158.8881
  1132.5000      9.1067     14.9848      7.0933    158.7399
  1132.7500      9.1794     15.1585      7.0830    158.1830
  1133.0000      9.2286     15.3346      7.0911    157.4722
  1133.2500      9.2632     15.5133      7.1067    157.5458
  1133.5000      9.3082     15.6942      7.1233    158.7790
  1133.7500      9.3459     15.8716      7.1395    160.1319
  1134.0000      9.2964     16.0359      7.1579    162.3134
  1134.2500      9.1419     16.1737      7.1809    163.5459
  1134.5000      8.9300     16.2697      7.2083    164.4493
  1134.7500      8.6899     16.3119      7.2358    163.9457
  1135.0000      8.4758     16.3037      7.2582    160.9333
  1135.2500      8.3427     16.2681      7.2735    157.5303
  1135.5000      8.2489     16.2346      7.2855    151.5845
  1135.7500      8.1235     16.2231      7.3023    148.2712
  1136.0000      7.9960     16.2401      7.3332    146.1878
  1136.2500      7.9664     16.2840      7.3855    147.0124
  1136.5000      8.0835     16.3486      7.4633    150.1850
  1136.7500      8.3250     16.4223      7.5665    152.2997
  1137.0000      8.6585     16.4879      7.6895    154.1712
  1137.2500      9.0610     16.5286      7.8196    154.6741
  1137.5000      9.4795     16.5365      7.9388    155.1349
  1137.7500      9.8031     16.5168      8.0301    155.4727
  1138.0000      9.9395     16.4847      8.0846    155.7677
  1138.2500      9.9250     16.4563      8.1048    155.5383
  1138.5000      9.8733     16.4392      8.1013    154.1224
  1138.7500      9.8488     16.4297      8.0847    152.2696
  1139.0000      9.8573     16.4193      8.0603    148.2076
  1139.2500      9.8767     16.4036      8.0270    145.2475
  1139.5000      9.8335     16.3886      7.9815    142.4101
  1139.7500      9.6507     16.3886      7.9207    142.5738
  1140.0000      9.3365     16.4174      7.8444    145.7258
  1140.2500      8.9435     16.4792      7.7536    148.6363
  1140.5000      8.5113     16.5650      7.6487    152.2712
  1140.7500      8.1165     16.6567      7.5292    153.7523
  1141.0000      7.8574     16.7345      7.3951    154.7519
  1141.2500      7.7589     16.7839      7.2498    154.9692
  1141.5000      7.7749     16.7996      7.1008    155.4902
  1141.7500      7.8267     16.7873      6.9586    156.5418
  1142.0000      7.8654     16.7599      6.8336    159.7944
  1142.2500      7.9053     16.7280      6.7334    162.9006
  1142.5000      7.9417     16.6909      6.6610    167.5888
  1142.7500      7.9294     16.6363      6.6162    169.6572
  1143.0000      7.8516     16.5472      6.5966    169.9358
  1143.2500      7.7258     16.4122      6.5999    168.2811
  1143.5000      7.5507     16.2317      6.6224    164.3233
  1143.7500      7.3092     16.0155      6.6584    161.6771
  1144.0000      7.0536     15.7762      6.6995    158.7365
  1144.2500      6.9143     15.5236      6.7365    157.5508
  1144.5000      6.9534     15.2642      6.7617    156.6893
  1144.7500      7.1073     15.0034      6.7725    156.5323
  1145.0000      7.3229     14.7484      6.7716    156.2951
  1145.2500      7.5894     14.5078      6.7662    155.6438
  1145.5000      7.8731     14.2876      6.7640    153.6514
  1145.7500      8.1734     14.0866      6.7702    152.0836
  1146.0000      8.4850     13.8984      6.7879    150.6344
  1146.2500      8.6811     13.7188      6.8195    150.8594
  1146.5000      8.6270     13.5518      6.8681    153.3259
  1146.7500      8.3313     13.4092      6.9367    156.0686
  1147.0000      7.9247     13.3043      7.0240    160.4492
  1147.2500      7.6047     13.2428      7.1224    162.7029
  1147.5000      7.5420     13.2174      7.2194    164.5422
  1147.7500      7.7221     13.2086      7.3042    164.9180
  1148.0000      7.9311     13.1936      7.3740    164.6086
  1148.2500      8.0136     13.1575      7.4358    163.9374
  1148.5000      8.0949     13.0991      7.5023    162.4007
  1148.7500      8.3622     13.0259      7.5857    161.1538
  1149.0000      8.7563     12.9459      7.6935    159.2022
  1149.2500      9.0850     12.8637      7.8291    157.9763
  1149.5000      9.3216     12.7831      7.9940    156.3122
  1149.7500      9.6022     12.7084      8.1889    155.1715
  1150.0000      9.9738     12.6446      8.4131    152.8223
  1150.2500     10.3065     12.5983      8.6626    150.4310
  1150.5000     10.4418     12.5791      8.9314    145.4346
  1150.7500     10.3393     12.5988      9.2159    141.6208
  1151.0000     10.1315     12.6669      9.5177    136.5233
  1151.2500     10.0398     12.7875      9.8432    134.0125
  1151.5000     10.1375     12.9590     10.1983    131.0419
  1151.7500     10.3198     13.1743     10.5833    128.8073
  1152.0000     10.6169     13.4197     10.9926    124.3642
  1152.2500     11.3075     13.6748     11.4182    121.0657
  1152.5000     12.5733     13.9165     11.8530    117.0227
  1152.7500     14.1937     14.1253     12.2902    115.4894
  1153.0000     15.6809     14.2899     12.7167    114.7741
  1153.2500     16.6708     14.4074     13.1095    114.8596
  1153.5000     17.1752     14.4843     13.4400    115.2682
  1153.7500     17.4559     14.5347     13.6881    115.7103
  1154.0000     17.6926     14.5760     13.8535    116.4653
  1154.2500     17.8405     14.6213     13.9533    116.7381
  1154.5000     17.7714     14.6748     14.0101    116.9474
  1154.7500     17.4318     14.7333     14.0437    117.8549
  1155.0000     16.8733     14.7897     14.0704    122.3103
  1155.2500     16.2825     14.8364     14.1055    127.5099
  1155.5000     15.9230     14.8673     14.1609    136.1448
  1155.7500     15.8727     14.8816     14.2400    140.1409
  1156.0000     15.9593     14.8850     14.3371    141.0376
  1156.2500     16.0135     14.8851     14.4444    138.6132
  1156.5000     15.9878     14.8869     14.5598    133.1821
  1156.7500     15.9227     14.8898     14.6899    129.8655
  1157.0000     15.9407     14.8909     14.8463    126.1668
  1157.2500     16.1491     14.8868     15.0412    124.1210
  1157.5000     16.5211     14.8756     15.2856    120.7236
  1157.7500     16.9564     14.8558     15.5906    118.1487
  1158.0000     17.4224     14.8253     15.9676    114.4530
  1158.2500     17.9728     14.7820     16.4238    112.4344
  1158.5000     18.7045     14.7270     16.9563    109.7050
  1158.7500     19.7021     14.6678     17.5463    107.3184
  1159.0000     20.8861     14.6186     18.1532    101.6706
  1159.2500     22.0422     14.5962     18.7130     96.4921
  1159.5000     23.1030     14.6133     19.1416     87.8921
  1159.7500     24.1805     14.6726     19.3543     82.7086
  1160.0000     25.2897     14.7672     19.2948     77.2896
  1160.2500     26.2263     14.8851     18.9607     75.6624
  1160.5000     26.7251     15.0172     18.4016     76.2798
  1160.7500     26.6273     15.1626     17.6926     78.7187
