~Version Information
VERS.                      2.0: CWLS Log ASCII Standard - VERSION 2.0
WRAP.                       NO: One line per depth step
~Well Information Block
STRT.FT               -15.7500: 
STOP.FT              1862.5000: 
STEP.FT                 0.2500: 
NULL.                -999.2500: 
COMP.          XTO Energy Inc.: COMPANY
WELL.          Golden Eagle 19-11: WELL
FLD.           Purgatorie River: FIELD
LOC.           2351' FSL &1926' WL--: LOCATION
CNTY.               Las Animas: COUNTY
SRVC.          Patterson Wireline: SERVICE COMPANY
DATE.          Fri Mar 24 16:29:29 2006: LOG DATE
UWI.           05 071 08696 00: UNIQUE WELL ID
STAT.                       CO: STATE
~Curve Information Block
DEPT.FT            0 000 00 00: Depth
CCL.                          : Casing Collar Locator
TT3.usec                      : CBL 3' Travel Time
AMP3.mV                       : CBL 3' Amplitude
GR.GAPI                       : Gamma Ray
~Parameter Information Block
~A  Depth       CCL         TT3         AMP3         GR     
# ...
  1592.2500      0.0000    662.1061      5.7013     60.3700
  1592.5000      0.0000    666.5938      5.7627     60.9691
  1592.7500      0.0000    661.7570      5.8142     61.8230
  1593.0000      0.0000    659.8416      5.8397     63.3088
  1593.2500      0.0000    666.9271      5.8253     65.2978
  1593.5000      0.0000    680.1884      5.7613     67.2299
  1593.7500      0.0000    692.3565      5.6506     68.2336
  1594.0000      0.0000    697.9009      5.5153     67.6387
  1594.2500      0.0000    695.1956      5.3943     65.5615
  1594.5000      0.0000    685.5067      5.3242     62.8184
  1594.7500      0.0000    671.9288      5.3146     60.1142
  1595.0000      0.0000    658.3487      5.3364     57.4898
  1595.2500      0.0000    648.1177      5.3432     54.7572
  1595.5000      0.0000    643.3637      5.3114     52.2683
  1595.7500      0.0000    644.3470      5.2561     50.9104
  1596.0000      0.0000    647.7701      5.2074     51.3298
  1596.2500      0.0000    646.9814      5.1816     53.2554
  1596.5000      0.0000    636.9022      5.1798     55.6095
  1596.7500      2.0000    619.4790      5.2032     57.5582
  1597.0000      0.0000    603.0284      5.2618     59.7562
  1597.2500      0.0000    595.4930      5.3699     64.3066
  1597.5000      0.0000    598.1627      5.5243     72.7773
  1597.7500      0.0000    604.7842      5.6819     83.9862
  1598.0000      0.0000    604.8236      5.7740     94.1977
  1598.2500      0.0000    588.4265      5.7675    100.1449
  1598.5000      0.0000    552.5508      5.6991    101.8621
  1598.7500      0.0000    504.7312      5.6329    102.0312
  1599.0000      0.0000    459.3003      5.5986    102.5620
  1599.2500      0.0000    428.6385      5.5795    102.7272
  1599.5000      0.0000    417.8898      5.5447    101.0143
  1599.7500      0.0000    425.7957      5.4767     97.6123
  1600.0000      0.0000    447.1179      5.3764     94.0001
  1600.2500      0.0000    474.2175      5.2565     90.7477
  1600.5000      0.0000    499.8481      5.1356     87.0419
  1600.7500      0.0000    520.9806      5.0308     82.4152
  1601.0000      0.0000    539.7026      4.9502     77.9259
  1601.2500      0.0000    559.3032      4.8917     75.1936
  1601.5000      0.0000    579.2169      4.8511     74.7465
  1601.7500      0.0000    594.2393      4.8316     75.7444
  1602.0000      0.0000    599.1064      4.8424     77.1373
  1602.2500      0.0000    593.5535      4.8878     78.6925
  1602.5000      0.0000    582.5386      4.9589     80.7659
  1602.7500      0.0000    572.1366      5.0387     83.4268
  1603.0000      0.0000    565.6126      5.1154     86.1817
  1603.2500      0.0000    562.2863      5.1889     88.5421
  1603.5000      0.0000    558.4512      5.2648     90.5110
  1603.7500      0.0000    549.0407      5.3456     92.3560
  1604.0000      0.0000    530.1804      5.4270     93.9892
  1604.2500      0.0000    503.1196      5.5013     94.6204
  1604.5000      0.0000    477.4311      5.5618     93.1047
  1604.7500      0.0000    468.6877      5.6043     88.8180
  1605.0000      0.0000    489.2698      5.6232     82.2463
  1605.2500      0.0000    538.5465      5.6075     74.7084
  1605.5000      0.0000    601.6653      5.5420     67.6639
  1605.7500      0.0000    659.4003      5.4150     62.2079
  1606.0000      0.0000    700.0997      5.2305     58.6444
  1606.2500      0.0000    722.9524      5.0121     56.2917
  1606.5000      0.0000    732.8075      4.7933     54.0159
  1606.7500      0.0000    734.6962      4.6006     51.0994
  1607.0000      0.0000    732.1082      4.4451     47.5154
  1607.2500      0.0000    727.3223      4.3280     43.6651
  1607.5000      0.0000    721.9242      4.2500     40.2392
  1607.7500      0.0000    717.1157      4.2182     38.1590
  1608.0000      0.0000    713.6665      4.2463     38.0784
  1608.2500      0.0000    711.6915      4.3493     39.7170
  1608.5000      0.0000    710.8013      4.5325     41.8248
  1608.7500      0.0000    710.5103      4.7805     43.1099
  1609.0000      0.0000    710.5024      5.0583     43.5756
  1609.2500      0.0000    710.6332      5.3288     44.9765
  1609.5000      0.0000    710.8293      5.5710     49.5698
  1609.7500      0.0000    711.0399      5.7815     58.1564
  1610.0000      0.0000    711.2367      5.9614     69.4126
  1610.2500      0.0000    711.4210      6.1056     81.0237
  1610.5000      0.0000    711.5959      6.2052     91.0919
  1610.7500      0.0000    711.7389      6.2562     98.4871
  1611.0000      0.0000    711.8091      6.2626    102.5439
  1611.2500      0.0000    711.7823      6.2294    103.0774
  1611.5000      0.0000    711.6757      6.1550    100.5954
  1611.7500      0.0000    711.5439      6.0369     95.9850
  1612.0000      0.0000    711.4557      5.8829     89.8944
  1612.2500      0.0000    711.4530      5.7120     82.7440
  1612.5000      0.0000    711.5156      5.5414     75.4501
  1612.7500      0.0000    711.6405      5.3761     69.7692
  1613.0000      0.0000    712.0947      5.2157     67.4623
  1613.2500      0.0000    713.6017      5.0665     68.8219
  1613.5000      0.0000    716.8862      4.9456     72.1839
  1613.7500      0.0000    721.4876      4.8721     75.2594
  1614.0000      0.0000    725.0966      4.8519     76.8616
  1614.2500      0.0000    724.9240      4.8722     77.1330
  1614.5000      0.0000    720.2777      4.9068     76.6147
  1614.7500      0.0000    713.3878      4.9247     75.7579
  1615.0000      0.0000    707.4274      4.8986     75.0190
  1615.2500      0.0000    704.2258      4.8186     74.7293
  1615.5000      0.0000    704.0690      4.7043     74.8255
  1615.7500      0.0000    706.9866      4.5990     75.0090
  1616.0000      0.0000    713.4465      4.5436     75.2028
  1616.2500      0.0000    723.4632      4.5520     75.6828
  1616.5000      0.0000    735.1328      4.6066     76.6826
  1616.7500      0.0000    744.6381      4.6749     77.9032
  1617.0000      0.0000    748.4619      4.7301     78.5774
  1617.2500      0.0000    745.8452      4.7617     78.0972
  1617.5000      0.0000    738.9442      4.7744     76.6729
  1617.7500      0.0000    730.7821      4.7818     75.5407
  1618.0000      0.0000    723.3644      4.8002     76.2913
  1618.2500      0.0000    717.4507      4.8427     79.3211
  1618.5000      0.0000    713.2186      4.9128     82.8296
  1618.7500      0.0000    710.5825      5.0013     84.0358
  1619.0000      0.0000    709.1354      5.0893     81.7049
  1619.2500      0.0000    708.2599      5.1562     77.1197
  1619.5000      0.0000    707.3695      5.1898     72.5587
  1619.7500      0.0000    706.0192      5.1895     69.3973
  1620.0000      0.0000    704.0600      5.1623     67.6998
  1620.2500      0.0000    701.7170      5.1153     66.9161
  1620.5000      0.0000    699.0242      5.0502     66.6075
  1620.7500      0.0000    694.6062      4.9651     66.8915
  1621.0000      0.0000    685.8115      4.8603     68.5362
  1621.2500      0.0000    671.9361      4.7442     72.5198
  1621.5000      0.0000    657.8821      4.6304     79.2129
  1621.7500      0.0000    652.4116      4.5283     87.6919
  1622.0000      0.0000    660.6169      4.4363     95.6456
  1622.2500      0.0000    678.9918      4.3488    100.2782
  1622.5000      0.0000    699.0908      4.2678    100.0710
  1622.7500      0.0000    714.6097      4.2045     96.1054
  1623.0000      0.0000    724.1372      4.1687     91.5143
  1623.2500      0.0000    729.2476      4.1564     89.3468
  1623.5000      0.0000    731.7423      4.1493     90.7048
  1623.7500      0.0000    731.9319      4.1260     94.5166
  1624.0000      0.0000    727.7164      4.0740     98.7773
  1624.2500      0.0000    714.9650      3.9925    102.0521
  1624.5000      0.0000    690.5010      3.8882    104.0969
  1624.7500      0.0000    656.0854      3.7720    105.4295
  1625.0000      0.0000    618.8123      3.6587    106.6124
  1625.2500      0.0000    587.0197      3.5623    107.8277
  1625.5000      0.0000    567.2448      3.4883    108.7023
