~Version Information
VERS.                      2.0: CWLS Log ASCII Standard - VERSION 2.0
WRAP.                       NO: One line per depth step
~Well Information Block
STRT.FT               875.0000: 
STOP.FT              2054.5000: 
STEP.FT                 0.2500: 
NULL.                -999.2500: 
COMP.          Pioneer Natural Resources: COMPANY
WELL.          Woodstock 43-19: WELL
FLD.           Purgatoire River: FIELD
LOC.           2195' FSL & 250' FEL: LOCATION
CNTY.               Las Animas: COUNTY
SRVC.                Patterson: SERVICE COMPANY
DATE.          Thu Feb 02 03:08:19 2006: LOG DATE
UWI.           05 071 08677 00: UNIQUE WELL ID
STAT.                 Colorado: STATE
~Curve Information Block
DEPT.FT            0 000 00 00: Depth
SN.Ohm-m                      : IEL Short Normal
SP.mV                         : IEL Spontaneous Potential
DIR.Ohm-m                     : IEL Induction Resistivity
GR.GAPI                       : Gamma Ray
~Parameter Information Block
~A  Depth        SN          SP         DIR          GR     
# ...
  1176.5000   2000.0000   2000.0000     11.7711    147.0940
  1176.7500   2000.0000   2000.0000     11.7523    149.3167
  1177.0000   2000.0000   2000.0000     11.7275    151.8634
  1177.2500   2000.0000   2000.0000     11.6750    152.5244
  1177.5000   2000.0000   2000.0000     11.5743    151.7705
  1177.7500   2000.0000   2000.0000     11.4193    150.4310
  1178.0000   2000.0000   2000.0000     11.2234    148.1817
  1178.2500   2000.0000   2000.0000     11.0102    147.1306
  1178.5000   2000.0000   2000.0000     10.7983    146.8764
  1178.7500   2000.0000   2000.0000     10.5929    147.5784
  1179.0000   2000.0000   2000.0000     10.3886    149.3622
  1179.2500   2000.0000   2000.0000     10.1786    150.7284
  1179.5000   2000.0000   2000.0000      9.9596    153.0887
  1179.7500   2000.0000   2000.0000      9.7316    155.1192
  1180.0000   2000.0000   2000.0000      9.4955    159.1988
  1180.2500   2000.0000   2000.0000      9.2540    162.6637
  1180.5000   2000.0000   2000.0000      9.0120    168.5461
  1180.7500   2000.0000   2000.0000      8.7761    172.2375
  1181.0000   2000.0000   2000.0000      8.5530    176.1105
  1181.2500   2000.0000   2000.0000      8.3469    177.3151
  1181.5000   2000.0000   2000.0000      8.1594    177.6577
  1181.7500   2000.0000   2000.0000      7.9915    177.3176
  1182.0000   2000.0000   2000.0000      7.8457    175.9209
  1182.2500   2000.0000   2000.0000      7.7283    174.2446
  1182.5000   2000.0000   2000.0000      7.6491    171.2070
  1182.7500   2000.0000   2000.0000      7.6194    169.6678
  1183.0000   2000.0000   2000.0000      7.6492    169.1283
  1183.2500   2000.0000   2000.0000      7.7455    169.8690
  1183.5000   2000.0000   2000.0000      7.9116    171.8099
  1183.7500   2000.0000   2000.0000      8.1474    173.3567
  1184.0000   2000.0000   2000.0000      8.4513    175.8895
  1184.2500   2000.0000   2000.0000      8.8211    177.1629
  1184.5000   2000.0000   2000.0000      9.2554    176.1529
  1184.7500   2000.0000   2000.0000      9.7536    172.2475
  1185.0000   2000.0000   2000.0000     10.3137    161.4402
  1185.2500   2000.0000   2000.0000     10.9298    152.1016
  1185.5000   2000.0000   2000.0000     11.5894    137.2935
  1185.7500   2000.0000   2000.0000     12.2733    127.8248
  1186.0000   2000.0000   2000.0000     12.9558    114.9603
  1186.2500   2000.0000   2000.0000     13.6045    107.4418
  1186.5000   2000.0000   2000.0000     14.1783     98.0241
  1186.7500   2000.0000   2000.0000     14.6304     93.3198
  1187.0000   2000.0000   2000.0000     14.9170     89.5349
  1187.2500   2000.0000   2000.0000     15.0091     89.6656
  1187.5000   2000.0000   2000.0000     14.8997     93.8652
  1187.7500   2000.0000   2000.0000     14.6067     98.7947
  1188.0000   2000.0000   2000.0000     14.1678    108.1504
  1188.2500   2000.0000   2000.0000     13.6305    115.2228
  1188.5000   2000.0000   2000.0000     13.0393    126.7920
  1188.7500   2000.0000   2000.0000     12.4286    134.9440
  1189.0000   2000.0000   2000.0000     11.8234    146.8354
  1189.2500   2000.0000   2000.0000     11.2446    153.6850
  1189.5000   2000.0000   2000.0000     10.7123    161.2879
  1189.7500   2000.0000   2000.0000     10.2461    164.5360
  1190.0000   2000.0000   2000.0000      9.8609    167.3341
  1190.2500   2000.0000   2000.0000      9.5624    168.2502
  1190.5000   2000.0000   2000.0000      9.3456    168.6131
  1190.7500   2000.0000   2000.0000      9.1960    168.2446
  1191.0000   2000.0000   2000.0000      9.0938    166.7643
  1191.2500   2000.0000   2000.0000      9.0195    165.0577
  1191.5000   2000.0000   2000.0000      8.9597    160.8067
  1191.7500   2000.0000   2000.0000      8.9102    156.3598
  1192.0000   2000.0000   2000.0000      8.8741    147.2971
  1192.2500   2000.0000   2000.0000      8.8564    140.7038
  1192.5000   2000.0000   2000.0000      8.8606    133.0334
  1192.7500   2000.0000   2000.0000      8.8880    130.9317
  1193.0000   2000.0000   2000.0000      8.9406    132.8949
  1193.2500   2000.0000   2000.0000      9.0225    136.6555
  1193.5000   2000.0000   2000.0000      9.1399    143.2575
  1193.7500   2000.0000   2000.0000      9.2985    147.0004
  1194.0000   2000.0000   2000.0000      9.5013    150.8759
  1194.2500   2000.0000   2000.0000      9.7475    152.4824
  1194.5000   2000.0000   2000.0000     10.0342    153.4965
  1194.7500   2000.0000   2000.0000     10.3577    152.7255
  1195.0000   2000.0000   2000.0000     10.7150    148.1911
  1195.2500   2000.0000   2000.0000     11.1038    142.7138
  1195.5000   2000.0000   2000.0000     11.5224    131.8062
  1195.7500   2000.0000   2000.0000     11.9712    123.6959
  1196.0000   2000.0000   2000.0000     12.4569    111.5546
  1196.2500   2000.0000   2000.0000     12.9932    103.8297
  1196.5000   2000.0000   2000.0000     13.5970     93.2013
  1196.7500   2000.0000   2000.0000     14.2790     87.2191
  1197.0000   2000.0000   2000.0000     15.0337     81.0020
  1197.2500   2000.0000   2000.0000     15.8301     79.1020
  1197.5000   2000.0000   2000.0000     16.6081     79.5233
  1197.7500   2000.0000   2000.0000     17.2852     81.7210
  1198.0000   2000.0000   2000.0000     17.7768     87.6034
  1198.2500   2000.0000   2000.0000     18.0222     93.1136
  1198.5000   2000.0000   2000.0000     18.0022    103.0332
  1198.7500   2000.0000   2000.0000     17.7355    109.8679
  1199.0000   2000.0000   2000.0000     17.2615    118.7118
  1199.2500   2000.0000   2000.0000     16.6272    123.1958
  1199.5000   2000.0000   2000.0000     15.8846    128.6172
  1199.7500   2000.0000   2000.0000     15.0888    132.3715
  1200.0000   2000.0000   2000.0000     14.2920    139.4576
  1200.2500   2000.0000   2000.0000     13.5343    145.2206
  1200.5000   2000.0000   2000.0000     12.8412    154.5743
  1200.7500   2000.0000   2000.0000     12.2277    160.4553
  1201.0000   2000.0000   2000.0000     11.7026    167.2937
  1201.2500   2000.0000   2000.0000     11.2707    169.9937
  1201.5000   2000.0000   2000.0000     10.9324    171.1846
  1201.7500   2000.0000   2000.0000     10.6857    170.4820
  1202.0000   2000.0000   2000.0000     10.5287    168.4886
  1202.2500   2000.0000   2000.0000     10.4612    167.4812
  1202.5000   2000.0000   2000.0000     10.4832    167.5220
  1202.7500   2000.0000   2000.0000     10.5926    168.2637
  1203.0000   2000.0000   2000.0000     10.7840    168.0879
  1203.2500   2000.0000   2000.0000     11.0499    165.3560
  1203.5000   2000.0000   2000.0000     11.3848    155.3896
  1203.7500   2000.0000   2000.0000     11.7877    144.8579
  1204.0000   2000.0000   2000.0000     12.2648    125.2518
  1204.2500   2000.0000   2000.0000     12.8283    111.5915
  1204.5000   2000.0000   2000.0000     13.4932     93.7516
  1204.7500   2000.0000   2000.0000     14.2747     85.1021
  1205.0000   2000.0000   2000.0000     15.1854     77.6617
  1205.2500   2000.0000   2000.0000     16.2352     75.6853
  1205.5000   2000.0000   2000.0000     17.4311     74.8989
  1205.7500   2000.0000   2000.0000     18.7762     74.4657
  1206.0000   2000.0000   2000.0000     20.2643     72.6384
  1206.2500   2000.0000   2000.0000     21.8695     70.7598
  1206.5000   2000.0000   2000.0000     23.5377     68.3900
  1206.7500   2000.0000   2000.0000     25.1918     68.0743
  1207.0000   2000.0000   2000.0000     26.7484     70.2128
  1207.2500   2000.0000   2000.0000     28.1341     72.9857
  1207.5000   2000.0000   2000.0000     29.2859     77.4678
  1207.7500   2000.0000   2000.0000     30.1395     79.5216
  1208.0000   2000.0000   2000.0000     30.6260     79.7295
  1208.2500   2000.0000   2000.0000     30.6867     77.6683
  1208.5000   2000.0000   2000.0000     30.2985     71.9572
  1208.7500   2000.0000   2000.0000     29.4797     67.3557
  1209.0000   2000.0000   2000.0000     28.2764     61.2642
  1209.2500   2000.0000   2000.0000     26.7513     58.7886
  1209.5000   2000.0000   2000.0000     24.9880     58.5613
  1209.7500   2000.0000   2000.0000     23.0929     60.8513
