~Version Information
VERS.                      2.0: CWLS Log ASCII Standard - VERSION 2.0
WRAP.                       NO: One line per depth step
~Well Information Block
STRT.FT               350.0000: 
STOP.FT              2803.2000: 
STEP.FT                 0.1000: 
NULL.                -999.2500: 
COMP.          Pioneer Natural Resources: COMPANY
WELL.          Grey Goose 33-30: WELL
FLD.           Purgatoire River: FIELD
LOC.           2136' FSL & 2065' FEL--: LOCATION
STAT.                 Colorado: State
CNTY.               Las Animas: COUNTY
CTRY. USA : Country
SECT. 30 : Section
TOWN. 32S : Township
RANG. 67W : Range
SRVC.                Patterson: SERVICE COMPANY
DATE.          Fri Nov 04 09:27:53 2005: LOG DATE
API.           05 071 08546 00: UNIQUE WELL ID
~Curve Information Block
DEPT.FT            0 000 00 00: Depth
DCAL.in                       : CDL Caliper
DPOR.pu                       : CDL Density Porosity
NPOR.pu                       : Neutron Porosity
RHOB.g/cc                     : CDL Bulk Density
RHOC.g/cc                     : CDL Density Correction
GR.GAPI                       : Gamma Ray
~Parameter Information Block
~A  Depth       DCAL        DPOR        NPOR        RHOB        RHOC         GR     
# ...
  1166.0000      7.9984      1.8784     25.7090      2.6190      0.0725    129.0422
  1166.1000      7.9984      3.3159     25.3956      2.5953      0.0138    130.5750
  1166.2000      7.9984      4.4711     24.9477      2.5762      0.0536    134.5701
  1166.3000      7.9994      5.4131     24.4816      2.5607      0.0430    135.5508
  1166.4000      7.9994      6.6234     24.1998      2.5407      0.0523    134.9979
  1166.5000      8.0012      7.9411     24.0275      2.5190      0.0017    138.7667
  1166.6000      8.0012      8.8252     23.6697      2.5044      0.0155    145.0596
  1166.7000      8.0012      9.5939     23.0142      2.4917      0.0522    147.4169
  1166.8000      8.0013     10.5004     22.3472      2.4767     -0.0244    146.1673
  1166.9000      8.0013     10.4671     21.7637      2.4773      0.0036    143.5025
  1167.0000      7.9986      9.2418     21.2591      2.4975      0.0574    138.1320
  1167.1000      7.9986      7.7070     20.8547      2.5228      0.0440    132.9340
  1167.2000      7.9986      6.0880     20.5168      2.5495      0.0796    130.3803
  1167.3000      7.9971      4.6231     20.4150      2.5737      0.0946    126.7024
  1167.4000      7.9971      4.2327     20.7145      2.5802      0.1109    122.3532
  1167.5000      7.9961      4.8329     21.3252      2.5703      0.0682    121.2905
  1167.6000      7.9961      4.9380     22.0164      2.5685      0.0487    124.2682
  1167.7000      7.9961      3.9211     22.7309      2.5853      0.0358    127.3019
  1167.8000      7.9889      2.4959     23.5746      2.6088      0.0268    125.0013
  1167.9000      7.9889      1.0728     24.4488      2.6323      0.0549    118.3880
  1168.0000      7.9777     -0.3712     25.2457      2.6561      0.0468    115.2886
  1168.1000      7.9777     -1.3069     25.8910      2.6716      0.0856    118.7838
  1168.2000      7.9777     -1.0377     26.2443      2.6671      0.0590    124.3238
  1168.3000      7.9729      0.0715     26.3155      2.6488      0.0182    128.0866
  1168.4000      7.9729      0.9285     26.2448      2.6347     -0.0023    128.8736
  1168.5000      7.9730      1.1547     26.0202      2.6309      0.0191    127.1646
  1168.6000      7.9730      1.4513     25.5157      2.6261      0.0050    124.8322
  1168.7000      7.9730      2.6532     25.0020      2.6062      0.0153    124.0818
  1168.8000      7.9746      4.5605     24.8254      2.5748     -0.0163    124.0652
  1168.9000      7.9746      5.8346     24.8221      2.5537     -0.0623    122.2249
  1169.0000      7.9739      6.0152     24.5951      2.5507      0.0243    122.1789
  1169.1000      7.9739      5.9226     24.0735      2.5523     -0.0070    127.8542
  1169.2000      7.9739      5.9306     23.6715      2.5521      0.0320    136.0343
  1169.3000      7.9725      5.9571     23.6115      2.5517      0.0110    140.4977
  1169.4000      7.9725      5.7452     23.5150      2.5552      0.0330    138.7909
  1169.5000      7.9742      5.4777     23.2006      2.5596      0.0484    135.6111
  1169.6000      7.9742      6.0378     23.1437      2.5504      0.0585    136.1149
  1169.7000      7.9742      7.4088     23.4710      2.5278      0.0021    137.3403
  1169.8000      7.9747      8.2902     23.4250      2.5132      0.0007    133.5272
  1169.9000      7.9747      7.9161     22.7658      2.5194     -0.0062    126.3759
  1170.0000      7.9729      6.5199     22.1945      2.5424      0.0375    120.8917
  1170.1000      7.9729      4.7744     22.1508      2.5712      0.0575    116.5917
  1170.2000      7.9729      3.5408     22.3173      2.5916      0.0811    114.6189
  1170.3000      7.9696      3.2695     22.3912      2.5961      0.0636    116.8940
  1170.4000      7.9696      3.7099     22.3665      2.5888      0.0439    118.7090
  1170.5000      7.9669      4.6382     22.4131      2.5735      0.0253    118.4013
  1170.6000      7.9669      6.0348     22.7521      2.5504      0.0096    119.0494
  1170.7000      7.9669      7.3080     23.2676      2.5294     -0.0168    120.4367
  1170.8000      7.9681      7.5728     23.6800      2.5250     -0.0032    122.4421
  1170.9000      7.9681      6.6151     23.9470      2.5409     -0.0193    124.2799
  1171.0000      7.9717      5.1626     23.9297      2.5648      0.0372    121.7859
  1171.1000      7.9717      4.3947     23.5162      2.5775      0.0318    113.3335
  1171.2000      7.9717      4.7882     23.1294      2.5710      0.0417    104.1599
  1171.3000      7.9735      5.6657     23.1363      2.5565     -0.0074     99.4674
  1171.4000      7.9735      5.7425     23.4346      2.5552      0.0068     98.6937
  1171.5000      7.9738      4.6395     23.6995      2.5734      0.0079    102.3601
  1171.6000      7.9738      3.4884     23.6739      2.5924      0.0489    111.8390
  1171.7000      7.9738      3.5423     23.5103      2.5916      0.0353    120.3370
  1171.8000      7.9734      4.8884     23.4566      2.5693      0.0169    121.7435
  1171.9000      7.9734      6.2859     23.3985      2.5463     -0.0219    120.2257
  1172.0000      7.9724      6.6666     23.3252      2.5400      0.0105    121.0239
  1172.1000      7.9724      6.2475     23.4973      2.5469      0.0253    122.8775
  1172.2000      7.9724      5.2407     23.8473      2.5635      0.0116    122.2107
  1172.3000      7.9708      3.5187     23.9918      2.5919      0.0362    119.0214
  1172.4000      7.9708      1.7726     23.8169      2.6208      0.0847    117.7807
  1172.5000      7.9702      1.3031     23.7181      2.6285      0.0789    119.6214
  1172.6000      7.9702      2.5135     23.8751      2.6085      0.0304    120.2389
  1172.7000      7.9702      4.3075     23.9055      2.5789      0.0283    118.4848
  1172.8000      7.9723      5.1666     23.7547      2.5648      0.0322    114.7756
  1172.9000      7.9723      4.9375     23.7448      2.5685      0.0688    109.9099
  1173.0000      7.9741      4.6124     23.7638      2.5739      0.0560    106.3290
  1173.1000      7.9741      4.4954     23.5956      2.5758      0.0422    104.7044
  1173.2000      7.9741      4.5583     23.3695      2.5748      0.0568    106.8954
  1173.3000      7.9730      5.0355     23.2922      2.5669      0.0292    110.8587
  1173.4000      7.9730      5.5889     23.3182      2.5578      0.0449    109.3103
  1173.5000      7.9716      5.6219     23.1839      2.5572     -0.0022    103.8591
  1173.6000      7.9716      5.2703     22.9786      2.5630      0.0254    100.6989
  1173.7000      7.9716      5.2785     22.9914      2.5629      0.0340    100.8898
  1173.8000      7.9732      5.6186     23.2246      2.5573      0.0210    103.5020
  1173.9000      7.9732      5.4031     23.6053      2.5608      0.0117    105.8788
  1174.0000      7.9738      4.2099     24.0446      2.5805      0.0386    105.1238
  1174.1000      7.9738      2.6420     24.2485      2.6064      0.0525    100.4394
  1174.2000      7.9738      1.4263     24.1166      2.6265      0.0654     93.9379
  1174.3000      7.9731      0.4965     23.7833      2.6418      0.0348     89.4403
  1174.4000      7.9731     -0.3729     23.5427      2.6562      0.0721     88.6161
  1174.5000      7.9759     -0.2155     23.7797      2.6536      0.1215     89.3894
  1174.6000      7.9759      1.9566     24.5026      2.6177      0.0430    133.1287
  1174.7000      7.9759      5.0035     25.0801      2.5674     -0.0367    130.5137
  1174.8000      7.9793      6.8125     24.9926      2.5376     -0.0246    128.7985
  1174.9000      7.9793      6.6995     24.5879      2.5395     -0.0063    127.7288
  1175.0000      7.9799      5.5480     24.5815      2.5585     -0.0082    130.2463
  1175.1000      7.9799      4.6045     24.8914      2.5740      0.0382    137.1605
  1175.2000      7.9799      3.9754     24.9109      2.5844      0.0179    139.0591
  1175.3000      7.9809      2.5902     24.7036      2.6073     -0.0163    133.7083
  1175.4000      7.9809      0.5288     24.7413      2.6413      0.0820    128.8416
  1175.5000      7.9824     -0.6804     24.9807      2.6612      0.0926    126.2455
