~Version Information
VERS.                      2.0: CWLS Log ASCII Standard - VERSION 2.0
WRAP.                       NO: One line per depth step
~Well Information Block
STRT.FT               595.7000: 
STOP.FT              1567.2000: 
STEP.FT                 0.1000: 
NULL.                -999.2500: 
COMP.          Pioneer Natural Resources: COMPANY
WELL.           Butch 33-10 Tr: WELL
FLD.           Purgatoire River: FIELD
LOC.           2309' FSL & 1337' FEL--: LOCATION
PROV.                 Colorado: PROVINCE
CNTY.               Las Animas: COUNTRY
SRVC.                Patterson: SERVICE COMPANY
DATE.          Mon Jan 16 07:34:05 2006: LOG DATE
UWI.           05 071 08649 00: UNIQUE WELL ID
~Curve Information Block
DEPT.FT            0 000 00 00: Depth
DCAL.in                       : CDL Caliper
RHOB.g/cc                     : CDL Bulk Density
RHOC.g/cc                     : CDL Density Correction
DPOR.pu                       : CDL Density Porosity
GR.GAPI                       : Gamma Ray
~Parameter Information Block
~A  Depth       DCAL        RHOB        RHOC        DPOR         GR     
# ...
  1099.7000      8.1136      2.5300      0.0203      7.2748    151.2797
  1099.8000      8.1110      2.5243      0.0777      7.6177    149.8809
  1099.9000      8.1110      2.5390      0.0641      6.7301    143.0087
  1100.0000      8.1107      2.5628      0.0768      5.2878    137.9740
  1100.1000      8.1107      2.5838      0.1004      4.0139    139.3653
  1100.2000      8.1107      2.5963      0.1137      3.2538    144.6925
  1100.3000      8.1093      2.6050      0.0671      2.7263    148.1393
  1100.4000      8.1093      2.6097      0.1320      2.4445    144.0302
  1100.5000      8.1072      2.6022      0.0887      2.8957    133.1716
  1100.6000      8.1072      2.5943      0.0052      3.3784    124.3884
  1100.7000      8.1072      2.5976      0.0843      3.1745    122.8692
  1100.8000      8.1037      2.5967      0.0721      3.2276    123.8608
  1100.9000      8.1037      2.5805      0.0367      4.2135    124.3535
  1101.0000      8.1076      2.5544      0.0836      5.7967    124.5679
  1101.1000      8.1076      2.5248      0.0057      7.5883    123.5723
  1101.2000      8.1076      2.4977      0.0171      9.2289    122.5928
  1101.3000      8.1237      2.4791     -0.0119     10.3557    124.8198
  1101.4000      8.1237      2.4674      0.0343     11.0693    131.9060
  1101.5000      8.1500      2.4484      0.0513     12.2191    141.5511
  1101.6000      8.1500      2.4167      0.0353     14.1392    150.5580
  1101.7000      8.1500      2.3874     -0.0198     15.9128    156.5618
  1101.8000      8.1694      2.3740      0.0099     16.7257    158.1341
  1101.9000      8.1694      2.3694      0.0332     17.0064    153.9622
  1102.0000      8.1760      2.3583      0.0664     17.6810    144.5529
  1102.1000      8.1760      2.3372      0.0182     18.9565    138.9061
  1102.2000      8.1760      2.3120      0.0646     20.4873    143.6501
  1102.3000      8.1813      2.2849      0.0332     22.1265    150.8372
  1102.4000      8.1813      2.2645      0.0248     23.3624    151.2800
  1102.5000      8.1879      2.2598      0.0046     23.6487    147.7803
  1102.6000      8.1879      2.2544      0.0752     23.9753    145.2597
  1102.7000      8.1879      2.2169      0.0746     26.2503    141.7168
  1102.8000      8.1917      2.1481      0.0288     30.4204    137.6118
  1102.9000      8.1917      2.0769      0.0048     34.7352    132.8842
  1103.0000      8.1952      2.0129      0.0228     38.6091    122.5507
  1103.1000      8.1952      1.9434      0.0186     42.8248    109.8272
  1103.2000      8.1952      1.8548     -0.0330     48.1967    104.1087
  1103.3000      8.2048      1.7431     -0.1267     54.9658    104.1858
  1103.4000      8.2048      1.6175     -0.1222     62.5744    100.5555
  1103.5000      8.2371      1.4987     -0.2002     69.7748     93.6010
  1103.6000      8.2371      1.4128     -0.1732     74.9789     89.0988
  1103.7000      8.2371      1.3711     -0.0833     77.5086     85.4514
  1103.8000      8.3097      1.3604      0.0118     78.1555     78.1525
  1103.9000      8.3097      1.3586      0.0420     78.2667     66.4382
  1104.0000      8.4053      1.3516      0.0281     78.6894     55.3731
  1104.1000      8.4053      1.3374      0.0155     79.5488     50.3056
  1104.2000      8.4053      1.3192      0.0385     80.6575     49.0909
  1104.3000      8.4789      1.3022      0.0245     81.6877     46.3088
  1104.4000      8.4789      1.2915      0.0406     82.3347     42.0348
  1104.5000      8.4884      1.2922      0.0157     82.2904     40.5177
  1104.6000      8.4884      1.3149      0.0291     80.9173     44.3427
  1104.7000      8.4884      1.3701      0.0712     77.5709     51.3624
  1104.8000      8.4456      1.4633      0.0806     71.9238     56.5272
  1104.9000      8.4456      1.5878      0.1466     64.3773     56.3581
  1105.0000      8.4286      1.7241      0.1734     56.1129     53.4289
  1105.1000      8.4286      1.8595      0.2173     47.9072     55.2664
  1105.2000      8.4286      1.9912      0.2772     39.9294     63.4060
  1105.3000      8.4330      2.1184      0.2945     32.2152     72.4054
  1105.4000      8.4330      2.2401      0.3179     24.8452     80.8696
  1105.5000      8.3546      2.3484      0.2919     18.2790     89.9455
  1105.6000      8.3546      2.4344      0.2866     13.0670     98.3585
  1105.7000      8.3546      2.4946      0.2313      9.4164    103.2707
  1105.8000      8.2174      2.5286      0.1697      7.3603    106.7291
  1105.9000      8.2174      2.5297      0.1487      7.2883    114.9538
  1106.0000      8.1294      2.4942      0.0976      9.4405    126.4937
  1106.1000      8.1294      2.4383      0.0672     12.8325    134.5051
  1106.2000      8.1294      2.3876      0.0122     15.9049    139.0825
  1106.3000      8.0931      2.3591     -0.0129     17.6326    143.7954
  1106.4000      8.0931      2.3552      0.0150     17.8677    147.8026
  1106.5000      8.0808      2.3619      0.0545     17.4592    144.7005
  1106.6000      8.0808      2.3638      0.0193     17.3435    135.1175
  1106.7000      8.0808      2.3619      0.0229     17.4630    130.3485
  1106.8000      8.0912      2.3665      0.0461     17.1823    134.1851
  1106.9000      8.0912      2.3822      0.0727     16.2317    139.1081
  1107.0000      8.1098      2.4044      0.1167     14.8863    140.3255
  1107.1000      8.1098      2.4270      0.1156     13.5152    139.3259
  1107.2000      8.1098      2.4409      0.1716     12.6713    137.4383
  1107.3000      8.1093      2.4437      0.0756     12.5060    132.6756
  1107.4000      8.1093      2.4512      0.0560     12.0503    126.2719
  1107.5000      8.0835      2.4680      0.0858     11.0302    126.3978
  1107.6000      8.0835      2.4809      0.0868     10.2466    134.8406
  1107.7000      8.0835      2.4894      0.0689      9.7314    142.3082
  1107.8000      8.0688      2.5028      0.1044      8.9182    144.4542
  1107.9000      8.0688      2.5211      0.0911      7.8134    145.6507
  1108.0000      8.0752      2.5412      0.0733      6.5962    147.9805
  1108.1000      8.0752      2.5630      0.1044      5.2732    151.2558
  1108.2000      8.0752      2.5814      0.1079      4.1559    154.1567
  1108.3000      8.0833      2.5918      0.0828      3.5251    155.4695
  1108.4000      8.0833      2.5935      0.0813      3.4260    154.3284
  1108.5000      8.0830      2.5791      0.0870      4.2983    151.8976
  1108.6000      8.0830      2.5519      0.0218      5.9427    150.1491
  1108.7000      8.0830      2.5375      0.0500      6.8180    148.3463
  1108.8000      8.0752      2.5515      0.0525      5.9668    147.3705
  1108.9000      8.0752      2.5819      0.0553      4.1265    149.0925
  1109.0000      8.0652      2.6027      0.0846      2.8646    150.4306
  1109.1000      8.0652      2.6050      0.0397      2.7254    148.0643
  1109.2000      8.0652      2.6023      0.0551      2.8897    145.4049
  1109.3000      8.0581      2.6036      0.0749      2.8118    145.0817
  1109.4000      8.0581      2.6084      0.0611      2.5211    143.5464
  1109.5000      8.0572      2.6127      0.0456      2.2599    141.4221
  1109.6000      8.0572      2.6101      0.0626      2.4160    141.0494
  1109.7000      8.0572      2.6053      0.0406      2.7063    143.0871
  1109.8000      8.0611      2.6081      0.0710      2.5368    146.3190
  1109.9000      8.0611      2.6081      0.0760      2.5379    143.8535
  1110.0000      8.0672      2.5934      0.0426      3.4320    134.7934
  1110.1000      8.0672      2.5737      0.0217      4.6268    128.5809
  1110.2000      8.0672      2.5635     -0.0291      5.2431    129.7914
  1110.3000      8.0713      2.5666      0.0120      5.0573    131.5602
  1110.4000      8.0713      2.5765      0.0217      4.4560    127.1386
  1110.5000      8.0677      2.5847      0.0619      3.9584    120.5381
  1110.6000      8.0677      2.5855      0.0339      3.9099    120.9503
  1110.7000      8.0677      2.5822      0.0476      4.1111    126.2227
  1110.8000      8.0572      2.5833      0.0488      4.0423    127.9924
