~Version Information
VERS.                      2.0: CWLS Log ASCII Standard - VERSION 2.0
WRAP.                       NO: One line per depth step
~Well Information Block
STRT.FT                 0.0000: 
STOP.FT               683.5000: 
STEP.FT                 0.2500: 
NULL.                -999.2500: 
COMP.          Pioneer Natural Resources: COMPANY
WELL.           Belvedere 14-7: WELL
FLD.           Purgatorie River: FIELD
LOC.           786' FSL & 1283' FWL: LOCATION
PROV.                 Colorado: PROVINCE
CNTY.               Las Animas: COUNTRY
SRVC.                Patterson: SERVICE COMPANY
DATE.          Fri Dec 02 12:52:31 2005: LOG DATE
UWI.           05-071-08557               : UNIQUE WELL ID
~Curve Information Block
DEPT.FT            0 000 00 00: Depth
CCL.                          : Casing Collar Locator
TT3.usec                      : CBL 3' Travel Time
AMP3.mV                       : CBL 3' Amplitude
GR.GAPI                       : Gamma Ray
~Parameter Information Block
~A  Depth       CCL         TT3         AMP3         GR     
# ...
   134.0000      0.0000    307.9946     18.0818     92.6374
   134.2500      0.0000    307.8741     18.2890     93.3515
   134.5000      0.0000    307.7081     18.4498     96.8073
   134.7500      0.0000    307.8596     18.5378    101.3765
   135.0000      0.0000    310.5197     18.5879    105.0248
   135.2500      0.0000    322.9086     18.6337    106.7820
   135.5000      0.0000    356.3315     18.6736    107.0264
   135.7500      0.0000    407.9719     18.6892    106.7660
   136.0000      0.0000    445.9262     18.6513    106.7102
   136.2500      0.0000    443.2513     18.5130    106.7334
   136.5000      0.0000    417.2182     18.2352    106.0780
   136.7500      0.0000    404.0826     17.8181    104.1527
   137.0000      0.0000    420.7431     17.2690    101.1893
   137.2500      0.0000    457.5661     16.5850     98.1260
   137.5000      0.0000    488.4647     15.8010     95.8322
   137.7500      0.0000    507.9883     14.9904     94.3921
   138.0000      0.0000    545.8467     14.2188     93.1851
   138.2500      0.0000    612.8209     13.5301     91.6598
   138.5000      0.0000    677.1740     12.9475     89.9520
   138.7500      0.0000    713.1390     12.4751     88.7755
   139.0000      0.0000    725.5432     12.1122     88.8958
   139.2500      0.0000    728.3581     11.8355     90.7567
   139.5000      0.0000    728.9579     11.5727     94.4086
   139.7500      0.0000    729.2620     11.2662     99.5253
   140.0000      0.0000    729.4286     10.9469    105.1924
   140.2500      0.0000    729.3616     10.6843    109.6697
   140.5000      0.0000    729.1112     10.5037    110.9431
   140.7500      0.0000    728.8354     10.3820    108.1408
   141.0000      0.0000    728.6434     10.2910    102.4355
   141.2500      0.0000    728.5551     10.2205     96.3713
   141.5000      0.0000    728.5049     10.1635     92.2341
   141.7500      0.0000    728.3698     10.1036     90.8213
   142.0000      0.0000    727.9365     10.0401     91.3891
   142.2500      0.0000    726.5809     10.0190     92.5858
   142.5000      0.0000    723.1931     10.1035     93.4466
   142.7500      0.0000    717.6359     10.2897     93.5892
   143.0000      0.0000    712.2170     10.4864     92.8468
   143.2500      0.0000    709.9581     10.6003     91.1349
   143.5000      0.0000    712.2239     10.6031     88.5669
   143.7500      0.0000    718.0142     10.5227     85.4247
   144.0000      0.0000    724.0428     10.4004     82.0819
   144.2500      0.0000    727.6115     10.2571     78.9443
   144.5000      0.0000    728.8458     10.1029     76.3143
   144.7500      0.0000    728.8356      9.9669     74.3731
   145.0000      0.0000    727.5339      9.8887     73.2323
   145.2500      0.0000    724.0630      9.8824     72.7570
   145.5000      0.0000    719.1221      9.9002     72.4469
   145.7500      0.0000    716.1572      9.8432     71.8668
   146.0000      0.0000    716.7588      9.6619     71.1979
   146.2500      0.0000    716.7510      9.4406     71.0243
   146.5000      0.0000    712.1718      9.3313     71.5386
   146.7500      0.0000    706.5724      9.4009     72.2909
   147.0000      0.0000    706.9702      9.5684     72.7877
   147.2500      0.0000    714.0786      9.6931     72.9748
   147.5000      0.0000    722.0748      9.6973     73.0704
   147.7500      0.0000    726.7029      9.6002     73.2452
   148.0000      0.0000    728.2892      9.4884     73.5029
   148.2500      0.0000    728.6160      9.4665     73.7171
   148.5000      0.0000    728.6955      9.5774     73.8761
   148.7500      0.0000    728.7870      9.7680     74.2002
   149.0000      0.0000    728.8412      9.9680     74.5978
   149.2500      0.0000    728.7930     10.1489     74.1868
   149.5000      0.0000    728.6885     10.2846     72.0771
   149.7500      0.0000    728.5942     10.3299     68.5998
   150.0000      0.0000    728.5179     10.2570     65.0760
   150.2500      0.0000    728.4701     10.1071     62.4131
   150.5000      0.0000    728.5020      9.9878     60.5524
   150.7500      0.0000    728.6515      9.9640     59.2800
   151.0000      0.0000    728.8814      9.9921     58.9494
   151.2500      0.0000    729.0901     10.0170     60.1835
   151.5000      0.0000    729.2128     10.0481     63.2108
   151.7500      0.0000    729.2737     10.0960     67.7049
   152.0000      0.0000    729.2571     10.1229     73.0523
   152.2500      0.0000    728.8892     10.0893     78.4774
   152.5000      0.0000    727.2615     10.0089     83.0647
   152.7500      0.0000    722.7438      9.9249     86.1730
   153.0000      0.0000    715.0156      9.8515     87.9509
   153.2500      0.0000    708.1342      9.7787     89.2299
   153.5000      0.0000    707.9286      9.6933     90.8078
   153.7500      0.0000    714.5045      9.5868     92.8117
   154.0000      0.0000    722.0871      9.4986     94.6860
   154.2500      0.0000    726.4745      9.4907     95.7510
   154.5000      0.0000    727.7194      9.5378     95.6770
   154.7500      0.0000    726.7636      9.5489     94.4217
   155.0000      0.0000    723.5103      9.5094     92.0057
   155.2500      0.0000    718.8906      9.4890     88.5615
   155.5000      0.0000    716.5347      9.5230     84.5069
   155.7500      0.0000    718.8528      9.5707     80.6407
   156.0000      0.0000    723.3859      9.5784     77.9587
   156.2500      0.0000    726.6187      9.5338     77.0497
   156.5000      0.0000    727.9160      9.4566     77.5698
   156.7500      0.0000    728.2405      9.3812     78.4678
   157.0000      0.0000    728.2875      9.3706     78.7255
   157.2500      0.0000    728.0527      9.4719     77.9746
   157.5000      0.0000    725.7847      9.6366     76.7541
   157.7500      0.0000    715.2604      9.7858     76.2756
   158.0000      0.0000    686.5820      9.9550     77.6617
   158.2500      0.0000    641.9774     10.2271     81.1962
   158.5000      0.0000    611.0133     10.4562     86.1336
   158.7500      0.0000    622.9609     10.2576     90.9265
   159.0000      0.0000    666.5713      9.5360     93.6894
   159.2500      0.0000    707.6934      8.7619     93.0925
   159.5000      0.0000    729.4491      8.3817     89.5406
   159.7500      0.0000    734.4986      8.3640     85.6060
   160.0000      2.0000    729.8340      8.4960     84.7551
   160.2500     -2.0000    722.3721      8.6680     88.8906
   160.5000      0.0000    716.1549      8.8236     96.7290
   160.7500      0.0000    707.1229      8.9374    104.6630
   161.0000      0.0000    689.8221      9.0917    109.3478
   161.2500      0.0000    667.3046      9.3933    109.6650
   161.5000      0.0000    646.3375      9.7734    106.7768
   161.7500      0.0000    631.0166     10.1788    102.9460
   162.0000      0.0000    625.8768     10.7629    100.2283
   162.2500      0.0000    637.7768     11.4538     99.5137
   162.5000      0.0000    666.9768     11.8870    100.1678
   162.7500      0.0000    698.8452     11.9512    100.5462
   163.0000      0.0000    718.5062     11.8459     99.2811
   163.2500      0.0000    725.6309     11.7286     96.3430
   163.5000      0.0000    727.0405     11.6187     92.7475
   163.7500      0.0000    727.0734     11.4952     89.3058
   164.0000      0.0000    727.0180     11.3515     86.0428
   164.2500      0.0000    727.0402     11.2058     82.7606
   164.5000      0.0000    727.0999     11.0875     79.7117
   164.7500      0.0000    727.1767     11.0052     77.6803
   165.0000      0.0000    727.2761     10.9526     77.6216
   165.2500      0.0000    727.3784     10.9514     80.1238
   165.5000      0.0000    727.4550     11.0407     85.0304
   165.7500      0.0000    727.4855     11.1976     91.5144
   166.0000      0.0000    727.4566     11.3310     98.2511
   166.2500      0.0000    727.3897     11.3885    103.4974
   166.5000      0.0000    727.3511     11.4061    105.6361
   166.7500      0.0000    727.3919     11.4379    104.2473
   167.0000      0.0000    727.4963     11.4843    100.5107
   167.2500      0.0000    727.6080     11.5075     96.2243
