~Version Information
VERS.                      2.0: CWLS Log ASCII Standard - VERSION 2.0
WRAP.                       NO: One line per depth step
~Well Information Block
STRT.FT                -4.0000: 
STOP.FT              1544.0000: 
STEP.FT                 0.2500: 
NULL.                -999.2500: 
COMP.          Pioneer Natural Resources: COMPANY
WELL.           Screamin 12-29: WELL
FLD.           Purgatoire River: FIELD
LOC.           2038' FNL & 612' FWL--: LOCATION
CNTY.               Las Animas: COUNTY
SRVC.                Patterson: SERVICE COMPANY
DATE.          Fri Apr 14 00:36:42 2006: LOG DATE
UWI.           05 071 08661 00: UNIQUE WELL ID
STAT.                 Colorado: STATE
~Curve Information Block
DEPT.FT            0 000 00 00: Depth
GR.GAPI                       : Gamma Ray
CCL.                          : Casing Collar Locator
TT3.usec                      : CBL 3' Travel Time
AMP3.mV                       : CBL 3' Amplitude
~Parameter Information Block
~A  Depth        GR         CCL         TT3         AMP3    
# ...
   197.0000     98.2275      0.0000    770.1824      6.5682
   197.2500     95.8982      0.0000    770.4577      6.5024
   197.5000     91.9199      0.0000    770.7018      6.4208
   197.7500     89.7523      0.0000    770.7401      6.3991
   198.0000     87.7163      0.0000    770.6689      6.4084
   198.2500     87.3413      0.0000    770.5915      6.4196
   198.5000     88.5894      0.0000    770.5026      6.4177
   198.7500     90.6435      0.0000    770.4735      6.4102
   199.0000     95.1300      0.0000    770.4666      6.4193
   199.2500     98.5852      0.0000    770.5309      6.4459
   199.5000    103.2335      0.0000    771.0461      6.5038
   199.7500    105.1439      0.0000    772.0202      6.5467
   200.0000    105.1739      0.0000    774.9514      6.6232
   200.2500    103.1316      0.0000    777.6848      6.6881
   200.5000     97.6006      0.0000    781.2367      6.7948
   200.7500     93.2052      0.0000    781.9623      6.8554
   201.0000     87.6170      0.0000    779.8666      6.9185
   201.2500     85.3459      0.0000    777.1658      6.9521
   201.5000     83.8987      0.0000    773.2645      7.0103
   201.7500     83.5838      0.0000    771.4427      7.0504
   202.0000     83.4754      0.0000    769.7988      7.0856
   202.2500     83.7492      0.0000    769.0991      7.0849
   202.5000     84.5309      0.0000    768.2907      7.0675
   202.7500     84.5885      0.0000    767.8906      7.0635
   203.0000     82.4277      0.0000    767.5656      7.0804
   203.2500     79.2446      0.0000    767.5159      7.0979
   203.5000     73.3456      0.0000    767.5392      7.1068
   203.7500     70.2444      0.0000    767.5165      7.0881
   204.0000     69.0501      0.0000    767.3419      7.0157
   204.2500     70.8294      0.0000    767.1575      6.9490
   204.5000     75.9741      0.0000    766.9016      6.8589
   204.7500     79.6316      0.0000    766.8230      6.8205
   205.0000     83.1380      0.0000    766.9464      6.7864
   205.2500     83.4702      0.0000    767.2286      6.7630
   205.5000     81.3765      0.0000    767.9783      6.7089
   205.7500     79.0576      0.0000    768.6729      6.6586
   206.0000     75.3262      0.0000    769.8572      6.5650
   206.2500     72.8779      0.0000    770.5859      6.4962
   206.5000     69.1337      0.0000    771.2875      6.4037
   206.7500     66.5426      0.0000    771.3851      6.3628
   207.0000     63.0152      0.0000    771.0150      6.3487
   207.2500     61.6478      0.0000    770.5599      6.3743
   207.5000     62.3441      0.0000    769.8326      6.4600
   207.7500     64.5092      0.0000    769.4152      6.5380
   208.0000     68.0741      0.0000    768.8961      6.6612
   208.2500     69.1815      0.0000    768.5269      6.7386
   208.5000     68.5370      0.0000    767.6052      6.8511
   208.7500     67.6489      0.0000    766.4924      6.9295
   209.0000     67.2751      0.0000    763.8485      7.0520
   209.2500     67.5056      0.0000    761.6241      7.1314
   209.5000     67.2479      0.0000    758.3007      7.2386
   209.7500     66.3162      0.0000    756.2863      7.3019
   210.0000     64.2012      0.0000    753.1194      7.3931
   210.2500     62.6413      0.0000    750.6453      7.4570
   210.5000     60.4883      0.0000    747.1221      7.5488
   210.7500     59.6668      0.0000    746.0269      7.5864
   211.0000     60.7965      0.0000    747.9692      7.5665
   211.2500     63.8163      0.0000    751.7115      7.4952
   211.5000     71.5459      0.0000    759.4788      7.3338
   211.7500     77.6934      0.0000    764.9996      7.2275
   212.0000     85.4201      0.0000    772.5287      7.1429
   212.2500     88.0885      0.0000    776.4449      7.1690
   212.5000     87.8252      0.0000    779.3870      7.3410
   212.7500     85.8352      0.0000    778.9413      7.5143
   213.0000     82.9500      0.0000    775.4943      7.7766
   213.2500     82.3234      0.0000    772.5610      7.9099
   213.5000     83.5997      0.0000    768.9727      8.0189
   213.7500     85.2129      0.0000    767.4320      8.0361
   214.0000     87.3505      0.0000    765.7910      7.9937
   214.2500     88.1856      0.0000    764.3367      7.9197
   214.5000     88.8704      0.0000    759.6100      7.7346
   214.7500     89.5399      0.0000    753.5374      7.5696
   215.0000     91.6000      0.0000    739.7413      7.2874
   215.2500     93.3026      0.0000    729.4826      7.0808
   215.5000     94.4292      0.0000    719.6983      6.7363
   215.7500     93.3742      0.0000    721.2630      6.5045
   216.0000     89.6942      0.0000    738.6896      6.2529
   216.2500     87.1577      0.0000    758.1465      6.2026
   216.5000     85.2906      0.0000    789.9039      6.3005
   216.7500     85.7147     -2.0000    806.5882      6.4289
   217.0000     88.2282      0.0000    817.7667      6.6173
   217.2500     90.5645      0.0000    815.4752      6.7205
   217.5000     94.2984      0.0000    801.8881      6.9073
   217.7500     96.6228      0.0000    789.9176      7.1242
   218.0000     99.5964      0.0000    773.5474      7.6419
   218.2500    101.3824      0.0000    766.0279      8.0561
   218.5000    104.1882      0.0000    760.9593      8.5865
   218.7500    106.0878      0.0000    760.7326      8.7982
   219.0000    108.5303      0.0000    762.2904      8.8970
   219.2500    110.0136      0.0000    763.3320      8.8668
   219.5000    113.0269      0.0000    764.0430      8.7783
   219.7500    115.7752      0.0000    763.9774      8.7333
   220.0000    119.4246      0.0000    763.4454      8.7109
   220.2500    119.9313      0.0000    763.0179      8.7117
   220.5000    116.1124      0.0000    762.5309      8.6867
   220.7500    110.8744      0.0000    762.4000      8.6290
   221.0000    101.2903      0.0000    762.5399      8.4771
   221.2500     95.2858      0.0000    762.8123      8.3528
   221.5000     88.7983      0.0000    763.2910      8.1841
   221.7500     86.6661      0.0000    763.5083      8.1069
   222.0000     86.3660      0.0000    763.4893      8.0537
   222.2500     87.2073      0.0000    763.2331      8.0486
   222.5000     88.3559      0.0000    762.6931      8.0517
   222.7500     88.7027      0.0000    762.4788      8.0409
   223.0000     89.4201      0.0000    762.9590      7.9851
   223.2500     90.7223      0.0000    764.1861      7.9212
   223.5000     93.8687      0.0000    767.8311      7.7962
   223.7500     95.6754      0.0000    771.3611      7.7002
   224.0000     95.1847      0.0000    777.0662      7.5491
   224.2500     91.6191      0.0000    779.8747      7.4575
   224.5000     82.0625      0.0000    780.6105      7.3723
   224.7500     74.8071      0.0000    778.5413      7.3708
   225.0000     66.8094      0.0000    773.1434      7.4564
   225.2500     65.1419      0.0000    769.3741      7.5518
   225.5000     68.7879      0.0000    764.9047      7.6991
   225.7500     74.5542      0.0000    762.7671      7.7756
   226.0000     85.8038      0.0000    760.3762      7.8418
   226.2500     93.4616      0.0000    759.2864      7.8572
   226.5000    103.3618      0.0000    758.7846      7.8545
   226.7500    108.8026      0.0000    759.2581      7.8482
   227.0000    115.8936      0.0000    760.4465      7.8446
   227.2500    119.6708      0.0000    760.8770      7.8421
   227.5000    121.8183      0.0000    760.2545      7.8235
   227.7500    119.8094      0.0000    759.1364      7.8015
   228.0000    112.2382      0.0000    757.5786      7.7749
   228.2500    105.7811      0.0000    757.4301      7.7727
   228.5000     96.6512      0.0000    758.9939      7.7889
   228.7500     91.5570      0.0000    760.7012      7.7989
   229.0000     85.1490      0.0000    762.8522      7.7917
   229.2500     81.4853      0.0000    763.5343      7.7730
   229.5000     77.4809      0.0000    763.5034      7.7492
   229.7500     76.6194      0.0000    763.0780      7.7549
   230.0000     78.6799      0.0000    762.3244      7.8078
   230.2500     81.4465      0.0000    761.9905      7.8593
