~Version Information
VERS.                      2.0: CWLS Log ASCII Standard - VERSION 2.0
WRAP.                       NO: One line per depth step
~Well Information Block
STRT.FT               240.0000: 
STOP.FT              1185.5000: 
STEP.FT                 0.2500: 
NULL.                -999.2500: 
COMP.          Pioneer Natural Resources: COMPANY
WELL.          Whitecoat 14-36: WELL
FLD.           Purgatorie River: FIELD
LOC.           606' FSL & 260' FWL: LOCATION
PROV.                 Colorado: PROVINCE
CNTY.               Las Animas: COUNTRY
SRVC.                Patterson: SERVICE COMPANY
DATE.          Mon Dec 05 16:51:12 2005: LOG DATE
UWI.                          : UNIQUE WELL ID
~Curve Information Block
DEPT.FT            0 000 00 00: Depth
DIR.Ohm-m                     : IEL Induction Resistivity
GR.GAPI                       : Gamma Ray
~Parameter Information Block
~A  Depth       DIR          GR     
# ...
  1076.2500     21.4563     73.1831
  1076.5000     21.4320     71.7352
  1076.7500     21.3230     70.5156
  1077.0000     21.1357     68.6826
  1077.2500     20.9289     67.6548
  1077.5000     20.7661     66.5289
  1077.7500     20.6746     66.0014
  1078.0000     20.6346     65.2873
  1078.2500     20.5989     64.6631
  1078.5000     20.5236     63.4261
  1078.7500     20.3873     62.7121
  1079.0000     20.1907     62.6906
  1079.2500     19.9460     63.6546
  1079.5000     19.6717     66.1916
  1079.7500     19.3952     68.0907
  1080.0000     19.1540     70.5005
  1080.2500     18.9914     71.6393
  1080.5000     18.9452     72.6418
  1080.7500     19.0302     72.8503
  1081.0000     19.2227     72.4957
  1081.2500     19.4581     71.9470
  1081.5000     19.6571     71.1188
  1081.7500     19.7701     70.8535
  1082.0000     19.8094     71.2494
  1082.2500     19.8411     72.1209
  1082.5000     19.9471     74.0376
  1082.7500     20.1875     75.2615
  1083.0000     20.5830     76.1696
  1083.2500     21.1118     75.9756
  1083.5000     21.7141     74.8555
  1083.7500     22.3019     73.9131
  1084.0000     22.7848     72.5729
  1084.2500     23.0994     71.8036
  1084.5000     23.2266     70.9457
  1084.7500     23.1767     70.5831
  1085.0000     22.9623     70.1563
  1085.2500     22.5916     69.8950
  1085.5000     22.0968     69.9361
  1085.7500     21.5611     70.5964
  1086.0000     21.0967     72.5711
  1086.2500     20.7804     74.1503
  1086.5000     20.6049     76.0811
  1086.7500     20.4888     76.8264
  1087.0000     20.3449     77.2306
  1087.2500     20.1485     77.2467
  1087.5000     19.9513     77.2972
  1087.7500     19.8382     77.5544
  1088.0000     19.8737     78.4916
  1088.2500     20.0641     79.4429
  1088.5000     20.3475     80.9939
  1088.7500     20.6185     81.8734
  1089.0000     20.7842     82.7528
  1089.2500     20.8160     82.9712
  1089.5000     20.7540     82.4863
  1089.7500     20.6588     81.5164
  1090.0000     20.5592     79.4299
  1090.2500     20.4386     78.1059
  1090.5000     20.2620     77.0528
  1090.7500     20.0170     77.2206
  1091.0000     19.7307     78.7056
  1091.2500     19.4597     80.2497
  1091.5000     19.2646     82.8126
  1091.7500     19.1879     84.4702
  1092.0000     19.2360     86.9819
  1092.2500     19.3728     88.9444
  1092.5000     19.5368     92.6813
  1092.7500     19.6763     95.5757
  1093.0000     19.7767     99.6332
  1093.2500     19.8576    101.4671
  1093.5000     19.9473    102.1020
  1093.7500     20.0606    101.0493
  1094.0000     20.1922     97.7474
  1094.2500     20.3234     94.8645
  1094.5000     20.4336     90.3728
  1094.7500     20.5143     87.6753
  1095.0000     20.5749     84.4478
  1095.2500     20.6361     82.9027
  1095.5000     20.7126     81.4419
  1095.7500     20.7980     80.7987
  1096.0000     20.8601     79.4069
  1096.2500     20.8533     77.6804
  1096.5000     20.7430     73.9770
  1096.7500     20.5309     71.3961
  1097.0000     20.2638     68.4807
  1097.2500     20.0180     67.4275
  1097.5000     19.8705     67.0094
  1097.7500     19.8701     67.2822
  1098.0000     20.0183     68.0762
  1098.2500     20.2625     68.5526
  1098.5000     20.5084     68.7192
  1098.7500     20.6580     68.4056
  1099.0000     20.6548     67.7832
  1099.2500     20.5078     67.8312
  1099.5000     20.2744     69.5497
  1099.7500     20.0204     71.9269
  1100.0000     19.7855     76.3753
  1100.2500     19.5713     78.9546
  1100.5000     19.3568     81.1555
  1100.7500     19.1266     81.6104
  1101.0000     18.8929     81.6286
  1101.2500     18.6905     81.5383
  1101.5000     18.5526     81.2150
  1101.7500     18.4925     80.7028
  1102.0000     18.5036     79.3653
  1102.2500     18.5716     78.1680
  1102.5000     18.6830     76.2123
  1102.7500     18.8236     75.0614
  1103.0000     18.9736     74.0852
  1103.2500     19.1042     74.1132
  1103.5000     19.1823     74.9092
  1103.7500     19.1813     75.4964
  1104.0000     19.0962     75.8017
  1104.2500     18.9553     75.5913
  1104.5000     18.8171     75.0277
  1104.7500     18.7520     74.6166
  1105.0000     18.8159     73.8532
  1105.2500     19.0296     73.2153
  1105.5000     19.3709     72.2326
  1105.7500     19.7833     71.6449
  1106.0000     20.1981     70.8040
  1106.2500     20.5598     70.1467
  1106.5000     20.8373     68.7953
  1106.7500     21.0166     67.6652
  1107.0000     21.0887     66.1191
  1107.2500     21.0489     65.5800
  1107.5000     20.9045     65.6835
  1107.7500     20.6798     66.0944
  1108.0000     20.4101     66.7541
  1108.2500     20.1306     67.2138
  1108.5000     19.8668     68.0933
  1108.7500     19.6280     68.7098
  1109.0000     19.4059     69.2324
  1109.2500     19.1845     69.1552
  1109.5000     18.9564     68.5547
  1109.7500     18.7314     68.0792
  1110.0000     18.5251     67.8550
  1110.2500     18.3400     68.5534
  1110.5000     18.1571     71.9069
  1110.7500     17.9486     75.9737
  1111.0000     17.6982     84.0908
  1111.2500     17.4152     89.7774
  1111.5000     17.1344     96.7956
  1111.7500     16.9048     99.8182
  1112.0000     16.7694    101.6741
  1112.2500     16.7441    101.2579
  1112.5000     16.8051     98.5124
  1112.7500     16.8942     95.6439
  1113.0000     16.9422     90.7109
  1113.2500     16.8956     87.5128
  1113.5000     16.7331     83.3896
  1113.7500     16.4654     81.1923
  1114.0000     16.1255     78.6139
  1114.2500     15.7531     77.2399
  1114.5000     15.3808     75.5612
  1114.7500     15.0256     74.7085
  1115.0000     14.6926     73.9333
  1115.2500     14.3861     73.8070
  1115.5000     14.1209     74.2506
  1115.7500     13.9244     75.0319
  1116.0000     13.8236     77.2690
  1116.2500     13.8264     79.7398
  1116.5000     13.9092     85.0754
  1116.7500     14.0234     89.4187
  1117.0000     14.1190     95.9035
  1117.2500     14.1717     99.3709
  1117.5000     14.1945    102.3605
  1117.7500     14.2287    102.7805
  1118.0000     14.3250    101.2258
  1118.2500     14.5226     98.8176
  1118.5000     14.8341     93.5174
  1118.7500     15.2359     89.4497
  1119.0000     15.6692     84.0195
  1119.2500     16.0532     81.5734
  1119.5000     16.3092     80.1657
  1119.7500     16.3892     80.6314
  1120.0000     16.2941     82.9191
  1120.2500     16.0684     85.1268
  1120.5000     15.7708     88.7097
  1120.7500     15.4473     90.7802
  1121.0000     15.1233     92.5776
  1121.2500     14.8124     92.5852
  1121.5000     14.5228     90.8831
  1121.7500     14.2513     89.0661
  1122.0000     13.9800     86.5134
  1122.2500     13.6830     85.5972
  1122.5000     13.3448     86.1791
  1122.7500     12.9724     87.9545
  1123.0000     12.5927     91.8589
  1123.2500     12.2390     94.3320
  1123.5000     11.9366     96.5152
  1123.7500     11.6961     96.9422
  1124.0000     11.5132     97.1927
  1124.2500     11.3731     97.8690
  1124.5000     11.2585    100.2317
  1124.7500     11.1549    102.5012
  1125.0000     11.0539    106.0090
  1125.2500     10.9522    107.8973
  1125.5000     10.8501    109.7275
  1125.7500     10.7495    110.3797
  1126.0000     10.6539    110.7832
  1126.2500     10.5682    110.7460
  1126.5000     10.4976    110.1209
  1126.7500     10.4462    109.1833
  1127.0000     10.4136    107.0033
  1127.2500     10.3944    105.3160
  1127.5000     10.3795    103.0556
  1127.7500     10.3606    101.8803
  1128.0000     10.3335    100.5282
  1128.2500     10.2980     99.9314
  1128.5000     10.2551     99.9761
  1128.7500     10.2057    100.9680
  1129.0000     10.1529    103.9572
  1129.2500     10.1038    106.5440
  1129.5000     10.0667    110.1111
  1129.7500     10.0444    111.5760
  1130.0000     10.0318    111.7731
  1130.2500     10.0210    110.7589
  1130.5000     10.0094    108.7077
  1130.7500     10.0039    107.7604
  1131.0000     10.0172    107.3441
  1131.2500     10.0602    107.1875
  1131.5000     10.1376    105.7552
  1131.7500     10.2476    103.7326
