~Version Information
VERS.                      2.0: CWLS Log ASCII Standard - VERSION 2.0
WRAP.                       NO: One line per depth step
~Well Information Block
STRT.FT               197.7500: 
STOP.FT              1631.0000: 
STEP.FT                 0.2500: 
NULL.                -999.2500: 
COMP.          Petrogulf Corporation: COMPANY
WELL.             State 16-44R: WELL
FLD.           Purgatoire River: FIELD
LOC.           632' FSL & 223' FEL--: LOCATION
PROV.                 Colorado: PROVINCE
CNTY.               Las Animas: COUNTRY
SRVC.                Patterson: SERVICE COMPANY
DATE.          Fri Oct 21 11:31:17 2005: LOG DATE
UWI.           05 071 08457 00: UNIQUE WELL ID
~Curve Information Block
DEPT.FT            0 000 00 00: Depth
SP.mV                         : DIL Spontaneous Potential
RILD.Ohm-m                    : DIL Deep Resistivity
RILM.Ohm-m                    : DIL Medium Resistivity
RLL3.Ohm-m                    : DIL Shallow Resistivity
GR.GAPI                       : Gamma Ray
~Parameter Information Block
~A  Depth        SP         RILD        RILM        RLL3         GR     
# ...
  1401.7500    123.6173     11.7083     12.4576     14.0984    100.7152
  1402.0000    123.5535     12.1517     13.1164     16.0411     96.2833
  1402.2500    123.3876     12.5797     13.8714     18.9364     93.8153
  1402.5000    123.1495     12.9797     14.6905     22.3334     91.6036
  1402.7500    122.8861     13.3417     15.5343     25.3741     91.0652
  1403.0000    122.6369     13.6552     16.3670     27.1504     90.9914
  1403.2500    122.4124     13.9055     17.1630     27.2621     90.9350
  1403.5000    122.1913     14.0728     17.8999     26.1153     90.2816
  1403.7500    121.9461     14.1364     18.5399     24.7000     89.4320
  1404.0000    121.6791     14.0806     19.0107     23.9922     87.8500
  1404.2500    121.4372     13.9009     19.2012     24.3517     86.9663
  1404.5000    121.2875     13.6076     18.9916     25.2974     86.9799
  1404.7500    121.2755     13.2247     18.3182     25.8208     88.5932
  1405.0000    121.3994     12.7847     17.2356     25.0227     94.0824
  1405.2500    121.6122     12.3206     15.9120     22.6341     99.6868
  1405.5000    121.8433     11.8585     14.5516     19.1159    110.1267
  1405.7500    122.0220     11.4130     13.3133     15.3538    117.4472
  1406.0000    122.0968     10.9876     12.2771     12.1871    126.5053
  1406.2500    122.0516     10.5786     11.4572     10.0607    129.9918
  1406.5000    121.9128     10.1810     10.8274      8.9647    130.9405
  1406.7500    121.7357      9.7922     10.3444      8.6129    129.4755
  1407.0000    121.5701      9.4149      9.9640      8.6713    125.8605
  1407.2500    121.4321      9.0565      9.6511      8.8894    123.2596
  1407.5000    121.3051      8.7267      9.3833      9.1233    120.0469
  1407.7500    121.1642      8.4342      9.1485      9.3147    118.8677
  1408.0000    120.9945      8.1838      8.9399      9.4635    118.9527
  1408.2500    120.7939      7.9762      8.7516      9.5903    120.0298
  1408.5000    120.5690      7.8087      8.5772      9.6888    122.1816
  1408.7500    120.3309      7.6757      8.4127      9.7016    123.3594
  1409.0000    120.0880      7.5699      8.2583      9.5528    124.4518
  1409.2500    119.8412      7.4828      8.1184      9.2231    125.2043
  1409.5000    119.5898      7.4057      7.9983      8.8047    127.4664
  1409.7500    119.3421      7.3296      7.8995      8.4641    129.8302
  1410.0000    119.1169      7.2471      7.8174      8.3279    133.7362
  1410.2500    118.9270      7.1549      7.7411      8.3974    135.9917
  1410.5000    118.7627      7.0558      7.6576      8.5639    138.7290
  1410.7500    118.5918      6.9579      7.5566      8.6939    140.5811
  1411.0000    118.3729      6.8721      7.4353      8.6992    144.4155
  1411.2500    118.0741      6.8085      7.3007      8.5578    147.8628
  1411.5000    117.6868      6.7741      7.1670      8.3026    153.4277
  1411.7500    117.2278      6.7725      7.0518      7.9990    156.4889
  1412.0000    116.7277      6.8042      6.9708      7.7207    159.3458
  1412.2500    116.2228      6.8667      6.9362      7.5292    160.3023
  1412.5000    115.7670      6.9547      6.9560      7.4642    160.6509
  1412.7500    115.4532      7.0599      7.0361      7.5497    159.7921
  1413.0000    115.4058      7.1720      7.1809      7.8392    155.6707
  1413.2500    115.7164      7.2804      7.3929      8.5244    150.6384
  1413.5000    116.3604      7.3773      7.6690     10.0428    140.1986
  1413.7500    117.1932      7.4606      7.9952     12.9492    132.2629
  1414.0000    118.0535      7.5341      8.3435     17.3393    121.0784
  1414.2500    118.8743      7.6068      8.6746     22.1640    115.4856
  1414.5000    119.6982      7.6879      8.9480     25.3694    112.2404
  1414.7500    120.6039      7.7837      9.1381     25.2630    114.3955
  1415.0000    121.6233      7.8947      9.2460     21.9471    123.2190
  1415.2500    122.7029      8.0153      9.2974     17.2374    130.6242
  1415.5000    123.7215      8.1350      9.3275     13.1867    139.3360
  1415.7500    124.5573      8.2403      9.3628     10.8230    141.8972
  1416.0000    125.1615      8.3183      9.4102     10.0523    141.1246
  1416.2500    125.5790      8.3602      9.4563     10.2504    138.8385
  1416.5000    125.8965      8.3656      9.4782     10.7692    135.0006
  1416.7500    126.1722      8.3438      9.4582     11.1440    132.8853
  1417.0000    126.4097      8.3104      9.3957     11.1499    130.6912
  1417.2500    126.5818      8.2811      9.3079     10.8047    129.8939
  1417.5000    126.6670      8.2649      9.2210     10.3043    129.7471
  1417.7500    126.6686      8.2614      9.1594      9.8796    130.2939
  1418.0000    126.6141      8.2611      9.1389      9.6545    131.6723
  1418.2500    126.5408      8.2496      9.1640      9.6186    132.7163
  1418.5000    126.4776      8.2133      9.2280      9.7231    134.2823
  1418.7500    126.4351      8.1442      9.3131      9.9947    135.1157
  1419.0000    126.4082      8.0429      9.3913     10.5525    135.1261
  1419.2500    126.3815      7.9179      9.4264     11.4927    133.8654
  1419.5000    126.3329      7.7826      9.3800     12.7111    130.7967
  1419.7500    126.2387      7.6515      9.2255     13.8170    129.2534
  1420.0000    126.0803      7.5363      8.9629     14.2782    129.7722
  1420.2500    125.8524      7.4437      8.6235     13.7561    132.3865
  1420.5000    125.5665      7.3752      8.2588     12.3615    139.0677
  1420.7500    125.2474      7.3279      7.9208     10.5920    144.6804
  1421.0000    124.9221      7.2958      7.6464      9.0132    153.4032
  1421.2500    124.6051      7.2717      7.4527      7.9679    158.4358
  1421.5000    124.2906      7.2481      7.3401      7.5034    163.3220
  1421.7500    123.9592      7.2184      7.2987      7.4782    164.3167
  1422.0000    123.5922      7.1798      7.3136      7.7109    162.2967
  1422.2500    123.1842      7.1344      7.3703      8.0757    158.9610
  1422.5000    122.7499      7.0889      7.4575      8.5191    152.3109
  1422.7500    122.3189      7.0519      7.5677      9.0163    147.6926
  1423.0000    121.9209      7.0300      7.6961      9.5209    141.3778
  1423.2500    121.5786      7.0253      7.8383      9.9651    137.6158
  1423.5000    121.3205      7.0362      7.9875     10.3130    132.6037
  1423.7500    121.1986      7.0590      8.1328     10.6086    129.8544
  1424.0000    121.2891      7.0911      8.2583     10.9491    127.1238
  1424.2500    121.6692      7.1314      8.3462     11.3683    126.6378
  1424.5000    122.3794      7.1801      8.3822     11.7164    128.9571
  1424.7500    123.3912      7.2373      8.3626     11.7018    133.0882
  1425.0000    124.5989      7.3020      8.2971     11.1360    142.8643
  1425.2500    125.8480      7.3711      8.2070     10.1462    150.5534
  1425.5000    126.9828      7.4407      8.1181      9.1034    160.8508
  1425.7500    127.8901      7.5067      8.0536      8.3490    165.5264
  1426.0000    128.5130      7.5662      8.0291      8.0059    168.5073
  1426.2500    128.8318      7.6179      8.0519      7.9993    168.0381
  1426.5000    128.8414      7.6621      8.1218      8.1862    164.1109
  1426.7500    128.5737      7.6998      8.2346      8.4704    159.4223
  1427.0000    128.1741      7.7330      8.3844      8.8467    149.7836
  1427.2500    127.9473      7.7649      8.5643      9.3597    142.6074
  1427.5000    128.2566      7.7998      8.7666     10.0205    133.2408
  1427.7500    129.2691      7.8427      8.9808     10.7581    129.0201
  1428.0000    130.7395      7.8970      9.1930     11.4436    125.9407
  1428.2500    132.0879      7.9637      9.3878     11.9482    125.5534
  1428.5000    132.7812      8.0408      9.5509     12.1808    126.6984
  1428.7500    132.6847      8.1242      9.6727     12.0997    128.4411
  1429.0000    132.0682      8.2080      9.7493     11.7260    132.5308
  1429.2500    131.3252      8.2838      9.7823     11.1500    136.2855
  1429.5000    130.7110      8.3405      9.7763     10.5038    143.1780
