~Version Information
VERS.                      2.0: CWLS Log ASCII Standard - VERSION 2.0
WRAP.                       NO: One line per depth step
~Well Information Block
STRT.FT                -7.5000: 
STOP.FT              1336.0000: 
STEP.FT                 0.2500: 
NULL.                -999.2500: 
COMP.          Pioneer Natural Resources: COMPANY
WELL.               LPGC 32-32: WELL
FLD.           Purgatorie River: FIELD
LOC.           1937' FNL & 1661' FEL--: LOCATION
CNTY.               Las Animas: COUNTY
SRVC.          Patterson Wireline: SERVICE COMPANY
DATE.          Fri Feb 03 09:39:42 2006: LOG DATE
UWI.           05 071 08641 00: UNIQUE WELL ID
STAT.                       CO: STATE
~Curve Information Block
DEPT.FT            0 000 00 00: Depth
CCL.                          : Casing Collar Locator
TT3.usec                      : CBL 3' Travel Time
AMP3.mV                       : CBL 3' Amplitude
GR.GAPI                       : Gamma Ray
~Parameter Information Block
~A  Depth       CCL         TT3         AMP3         GR     
# ...
    93.0000      0.0000    517.8699     12.2781     85.8939
    93.2500      0.0000    498.3435     12.5435     88.9033
    93.5000      0.0000    504.0813     12.7988     89.5465
    93.7500      0.0000    527.8123     12.9840     88.4662
    94.0000      0.0000    565.2406     13.0574     87.3775
    94.2500      0.0000    606.4221     13.0297     87.6860
    94.5000      0.0000    631.4448     12.9628     89.2325
    94.7500      0.0000    621.6725     12.9250     90.3023
    95.0000      0.0000    575.1569     12.9598     89.0694
    95.2500      0.0000    509.5917     13.0966     85.1092
    95.5000      0.0000    450.8600     13.3600     79.6237
    95.7500      0.0000    417.5205     13.7436     74.5222
    96.0000      0.0000    411.7592     14.1846     71.3893
    96.2500      0.0000    420.3126     14.5863     70.8977
    96.5000      0.0000    424.4615     14.8726     72.6842
    96.7500      0.0000    413.6477     15.0239     75.6360
    97.0000      0.0000    391.6082     15.0727     78.4192
    97.2500      0.0000    369.4789     15.0660     79.8975
    97.5000      0.0000    354.9746     15.0244     79.3823
    97.7500      0.0000    349.5476     14.9347     76.8717
    98.0000      0.0000    353.4368     14.7851     73.1959
    98.2500      0.0000    371.3409     14.6008     69.8066
    98.5000      0.0000    412.6765     14.4347     68.0279
    98.7500      0.0000    483.2933     14.3212     68.1042
    99.0000      0.0000    573.0444     14.2467     69.0049
    99.2500      0.0000    653.7433     14.1706     69.4713
    99.5000      0.0000    696.0307     14.0719     69.2469
    99.7500      0.0000    690.8139     13.9689     68.9828
   100.0000      0.0000    654.1367     13.8951     69.1436
   100.2500      0.0000    613.9466     13.8667     69.7100
   100.5000      0.0000    592.5090     13.8786     70.9644
   100.7500      0.0000    596.0905     13.9199     73.6515
   101.0000      0.0000    615.3600     13.9795     77.9095
   101.2500      0.0000    633.4036     14.0411     82.5698
   101.5000      0.0000    635.3332     14.0909     85.9687
   101.7500      0.0000    614.8906     14.1368     87.2379
   102.0000      0.0000    574.7571     14.2106     86.7620
   102.2500      0.0000    522.1505     14.3402     85.7185
   102.5000      0.0000    465.8105     14.5202     85.1466
   102.7500      0.0000    415.4480     14.7119     85.2197
   103.0000      0.0000    378.8921     14.8658     85.4233
   103.2500      0.0000    358.0319     14.9438     85.4081
   103.5000      0.0000    349.3479     14.9373     85.4868
   103.7500      0.0000    348.7222     14.8728     86.3624
   104.0000      0.0000    355.1955     14.7888     88.5221
   104.2500      0.0000    370.7508     14.7058     91.7743
   104.5000      0.0000    396.3578     14.6278     95.2805
   104.7500      0.0000    428.2702     14.5694     98.2336
   105.0000      0.0000    459.5480     14.5575    100.5232
   105.2500      0.0000    485.4796     14.5962    102.4886
   105.5000      0.0000    505.5170     14.6377    104.0425
   105.7500      0.0000    522.0195     14.5923    104.4782
   106.0000      0.0000    541.2518     14.3801    103.3723
   106.2500      0.0000    571.7612     13.9949    101.3718
   106.5000      0.0000    615.2861     13.5265     99.6755
   106.7500      0.0000    661.9056     13.1040     98.7094
   107.0000      0.0000    698.5886     12.8075     97.6918
   107.2500      0.0000    720.0428     12.6371     95.7214
   107.5000      0.0000    729.5654     12.5566     92.8629
   107.7500      0.0000    733.0858     12.5425     89.6699
   108.0000      0.0000    735.0109     12.5890     86.0657
   108.2500      0.0000    737.5113     12.6861     81.7054
   108.5000      0.0000    740.5219     12.8063     77.4147
   108.7500      0.0000    741.1644     12.9093     75.1637
   109.0000      0.0000    734.5182     12.9640     76.2027
   109.2500      0.0000    718.2679     12.9689     79.8018
   109.5000      0.0000    698.1981     12.9486     84.0698
   109.7500      0.0000    686.2380     12.9251     87.6574
   110.0000      0.0000    689.8472     12.8997     90.4741
   110.2500      0.0000    704.7889     12.8664     93.0157
   110.5000      0.0000    720.5063     12.8314     95.5124
   110.7500      0.0000    730.0699     12.8112     98.0066
   111.0000      0.0000    732.2611     12.8217    100.6826
   111.2500      0.0000    726.2123     12.8759    103.3696
   111.5000      0.0000    708.0278     12.9883    104.9740
   111.7500      0.0000    675.7105     13.1686    104.0981
   112.0000      0.0000    638.3991     13.3964    100.3800
   112.2500      0.0000    616.6502     13.6067     95.1289
   112.5000      0.0000    626.8354     13.7150     90.5582
   112.7500      0.0000    664.8647     13.6716     88.3090
   113.0000      0.0000    710.2952     13.4933     88.5231
   113.2500      0.0000    745.3878     13.2466     90.0613
   113.5000      0.0000    765.2817     13.0063     91.4916
   113.7500      0.0000    773.0656     12.8234     92.0847
   114.0000      0.0000    773.4683     12.7142     92.1463
   114.2500      0.0000    772.2487     12.6669     92.4810
   114.5000      0.0000    775.8008     12.6555     93.5648
   114.7500      0.0000    787.9156     12.6515     95.1870
   115.0000      0.0000    807.2372     12.6302     96.6333
   115.2500      0.0000    827.9673     12.5749     97.2135
   115.5000      0.0000    842.9218     12.4823     96.8114
   115.7500      0.0000    847.5150     12.3664     95.8780
   116.0000      0.0000    842.7254     12.2559     94.6912
   116.2500      0.0000    834.4200     12.1859     92.7752
   116.5000      0.0000    828.4741     12.1853     89.4267
   116.7500      0.0000    825.9351     12.2643     84.8015
   117.0000      0.0000    823.1822     12.4028     80.0371
   117.2500      0.0000    816.4296     12.5388     76.2045
   117.5000      0.0000    805.0036     12.5686     73.4882
   117.7500      0.0000    790.1859     12.3787     71.4918
   118.0000      0.0000    772.1562     11.9284     69.9472
   118.2500      0.0000    750.4761     11.3356     68.9555
   118.5000      0.0000    729.4579     10.8383     68.8617
   118.7500      0.0000    720.9397     10.5903     69.9478
   119.0000      0.0000    735.6516     10.5056     71.9481
   119.2500      0.0000    769.3595     10.3881     73.9312
   119.5000      0.0000    803.0820     10.1838     74.9815
   119.7500      0.0000    820.8591     10.0117     75.0922
   120.0000      0.0000    823.0573      9.9842     75.2410
   120.2500     -2.0000    819.6725     10.1016     76.4059
   120.5000      0.0000    814.5751     10.3207     78.4706
   120.7500      0.0000    798.5712     10.6794     80.2652
   121.0000      0.0000    757.0572     11.3250     80.6231
   121.2500      0.0000    686.9815     12.3712     79.1614
   121.5000      0.0000    607.9954     13.6812     76.2089
   121.7500      0.0000    551.5801     14.8530     72.6249
   122.0000      0.0000    533.9551     15.5218     69.8588
   122.2500      0.0000    542.9744     15.6563     69.5671
   122.5000      0.0000    555.1530     15.5018     72.4944
   122.7500      0.0000    561.0928     15.3007     77.7077
   123.0000      0.0000    569.5735     15.1432     83.2086
   123.2500      0.0000    592.2112     15.0193     87.4005
   123.5000      0.0000    631.4236     14.9110     89.9452
   123.7500      0.0000    680.1111     14.8228     91.3880
   124.0000      0.0000    726.6342     14.7618     92.3280
   124.2500      0.0000    761.2123     14.7220     92.9876
   124.5000      0.0000    781.1647     14.6934     93.1857
   124.7500      0.0000    790.5488     14.6787     92.4471
   125.0000      0.0000    794.8013     14.6870     90.2994
   125.2500      0.0000    796.4133     14.7157     86.6895
   125.5000      0.0000    794.6910     14.7471     82.0191
   125.7500      0.0000    787.7698     14.7648     76.6947
   126.0000      0.0000    774.0429     14.7679     71.0880
   126.2500      0.0000    753.0894     14.7654     66.2573
