~Version Information
VERS.                      2.0: CWLS Log ASCII Standard - VERSION 2.0
WRAP.                       NO: One line per depth step
~Well Information Block
STRT.FT               -16.2500: 
STOP.FT               938.7500: 
STEP.FT                 0.2500: 
NULL.                -999.2500: 
COMP.          XTO Energy Inc.: COMPANY
WELL.          Golden Eagle 20-04: WELL
FLD.           Purgatrorie River: FIELD
LOC.           702' FNL & 487' FWL--: LOCATION
STAT.                       CO: PROVINCE
CNTY.               Las Animas: COUNTY
CTRY. USA : Country
SECT. 20 : Section 
TOWN. 33S : Township
RANG. 67W : Range
SRVC.          Patterson Wireline: SERVICE COMPANY
DATE.          Mon Dec 05 10:32:54 2005: LOG DATE
API.           05 071 08599 00: UNIQUE WELL ID
~Curve Information Block
DEPT.FT            0 000 00 00: Depth
CCL.                          : Casing Collar Locator
TT3.usec                      : CBL 3' Travel Time
AMP3.mV                       : CBL 3' Amplitude
GR.GAPI                       : Gamma Ray
~Parameter Information Block
~A  Depth       CCL         TT3         AMP3         GR     
# ...
   854.7500      0.0000    647.1500      6.0175    129.5287
   855.0000      0.0000    653.9173      6.2537    124.1804
   855.2500      0.0000    660.3340      6.3341    122.0896
   855.5000      0.0000    664.1774      6.2162    123.1641
   855.7500      0.0000    664.3455      5.9341    125.8134
   856.0000      0.0000    661.3838      5.5807    127.7467
   856.2500      0.0000    656.6786      5.2702    127.4946
   856.5000      0.0000    651.5171      5.0929    125.4583
   856.7500      0.0000    646.8353      5.0702    123.2634
   857.0000      0.0000    643.3083      5.1324    121.7549
   857.2500      0.0000    641.4426      5.1593    119.8873
   857.5000      0.0000    641.7319      5.0662    116.1697
   857.7500      0.0000    644.7258      4.8521    111.0325
   858.0000      0.0000    650.7172      4.5635    107.1409
   858.2500      0.0000    659.1534      4.2361    107.4712
   858.5000      0.0000    668.3596      3.8834    113.3241
   858.7500      0.0000    676.1515      3.5274    123.5017
   859.0000      0.0000    681.0083      3.2149    134.6959
   859.2500      0.0000    682.7618      2.9925    143.1643
   859.5000      0.0000    682.2855      2.8694    146.7986
   859.7500      0.0000    680.7216      2.8193    145.8398
   860.0000      0.0000    678.9180      2.8141    141.9171
   860.2500      0.0000    677.2196      2.8514    136.8586
   860.5000      0.0000    675.4272      2.9503    132.1696
   860.7500      0.0000    672.8594      3.1301    128.7648
   861.0000      0.0000    668.7618      3.3900    126.6431
   861.2500      0.0000    663.1238      3.7118    124.8829
   861.5000      0.0000    657.2928      4.0870    122.1391
   861.7500      0.0000    653.5322      4.5264    117.2825
   862.0000      0.0000    653.5917      5.0218    110.0635
   862.2500      0.0000    657.3679      5.5053    101.8580
   862.5000      0.0000    662.6868      5.8755     95.6816
   862.7500      0.0000    666.4236      6.0775     94.5176
   863.0000      0.0000    666.2798      6.1425     99.0414
   863.2500      0.0000    662.0522      6.1415    107.2191
   863.5000      0.0000    655.5453      6.1104    116.1477
   863.7500      0.0000    649.2292      6.0243    123.8897
   864.0000      0.0000    644.7120      5.8328    129.7218
   864.2500      0.0000    642.2020      5.5050    133.6315
   864.5000      0.0000    641.0999      5.0506    136.1323
   864.7500      0.0000    640.8775      4.5223    137.9737
   865.0000      0.0000    641.5418      4.0080    139.4039
   865.2500      0.0000    643.5946      3.5985    139.8704
   865.5000      0.0000    647.5504      3.3353    138.7154
   865.7500      0.0000    653.1679      3.1884    135.9699
   866.0000      0.0000    659.0060      3.0944    132.3997
   866.2500      0.0000    663.0435      3.0169    128.9072
   866.5000      0.0000    664.0847      2.9652    125.9147
   866.7500      0.0000    662.6752      2.9663    123.2868
   867.0000      0.0000    660.6135      3.0311    120.7122
   867.2500      0.0000    659.4584      3.1464    117.9388
   867.5000      0.0000    659.3104      3.2879    114.8514
   867.7500      0.0000    658.9056      3.4312    111.7932
   868.0000      0.0000    657.0126      3.5508    109.7773
   868.2500      0.0000    653.9498      3.6164    109.9526
   868.5000      0.0000    651.6938      3.6021    112.6504
   868.7500      0.0000    652.3295      3.5042    117.0353
   869.0000      0.0000    656.2866      3.3440    121.8248
   869.2500      0.0000    661.9294      3.1479    126.4042
   869.5000      0.0000    666.6803      2.9357    131.1884
   869.7500      0.0000    668.5974      2.7268    136.7683
   870.0000      0.0000    667.2219      2.5486    142.6777
   870.2500      0.0000    663.4327      2.4318    147.0501
   870.5000      0.0000    658.7481      2.3995    147.6566
   870.7500      0.0000    654.5618      2.4594    143.7099
   871.0000      0.0000    651.5853      2.6006    136.9759
   871.2500      0.0000    649.6158      2.7952    130.8710
   871.5000      0.0000    647.8159      3.0090    128.0506
   871.7500      0.0000    645.5668      3.2172    128.7417
   872.0000      0.0000    643.1754      3.4121    131.2795
   872.2500      0.0000    641.5931      3.5997    133.7695
   872.5000      0.0000    641.5800      3.7900    135.1364
   872.7500      0.0000    643.3236      3.9784    135.3137
   873.0000      0.0000    646.5717      4.1290    135.0271
   873.2500      0.0000    650.7283      4.1857    135.0928
   873.5000      0.0000    654.8047      4.1178    135.6428
   873.7500      0.0000    657.5145      3.9537    136.0706
   874.0000      0.0000    657.6578      3.7638    135.5040
   874.2500      0.0000    654.8119      3.6138    133.3530
   874.5000      0.0000    649.9141      3.5352    130.0146
   874.7500      0.0000    644.8825      3.5273    127.2471
   875.0000      0.0000    641.3417      3.5726    127.1297
   875.2500      0.0000    639.7685      3.6481    130.2195
   875.5000      0.0000    639.8182      3.7321    135.0025
   875.7500      0.0000    641.1563      3.8127    139.3726
   876.0000      0.0000    643.8637      3.8971    142.3896
   876.2500      0.0000    648.1168      4.0074    144.5240
   876.5000      0.0000    653.5382      4.1586    146.4974
   876.7500      0.0000    659.0616      4.3312    148.0102
   877.0000      0.0000    663.7338      4.4721    147.4969
   877.2500      0.0000    667.4978      4.5334    143.2489
   877.5000      0.0000    670.8230      4.5138    135.0444
   877.7500      0.0000    673.7808      4.4550    124.5559
   878.0000      0.0000    675.9398      4.3961    114.1477
   878.2500      0.0000    677.0075      4.3389    105.6131
   878.5000      0.0000    677.1800      4.2568     99.6931
   878.7500      0.0000    676.9164      4.1285     95.8217
   879.0000      0.0000    676.6073      3.9643     92.3610
   879.2500      0.0000    676.4402      3.8033     88.0379
   879.5000      0.0000    676.3988      3.6865     83.2597
   879.7500      0.0000    676.3173      3.6275     79.5248
   880.0000      0.0000    676.0037      3.6061     77.7618
   880.2500      0.0000    675.3943      3.5935     77.6654
   880.5000      0.0000    674.6188      3.5821     78.3524
   880.7500      0.0000    673.9044      3.5884     79.2220
   881.0000      0.0000    673.4158      3.6269     80.0566
   881.2500      0.0000    673.1740      3.6850     80.4590
   881.5000      0.0000    673.0882      3.7306     79.7621
   881.7500      0.0000    673.0400      3.7417     77.8860
   882.0000      0.0000    672.9511      3.7259     75.8955
   882.2500      0.0000    672.8060      3.7039     75.2424
   882.5000      0.0000    672.6446      3.6772     76.4961
   882.7500      0.0000    672.5876      3.6228     78.9795
   883.0000      0.0000    672.8898      3.5236     81.4674
   883.2500      0.0000    673.9297      3.3943     83.0262
   883.5000      0.0000    676.0075      3.2704     83.1856
   883.7500      0.0000    678.9608      3.1787     81.6421
   884.0000      0.0000    681.8918      3.1215     78.3324
   884.2500      0.0000    683.4867      3.0802     73.8825
   884.5000      0.0000    682.8655      3.0302     69.6180
   884.7500      0.0000    680.1354      2.9601     66.8489
   885.0000      0.0000    676.1310      2.8782     66.0965
   885.2500      0.0000    671.7664      2.8042     66.8887
   885.5000      0.0000    667.4661      2.7548     68.1744
   885.7500      0.0000    662.8887      2.7337     69.0823
   886.0000      0.0000    657.4518      2.7315     69.5833
   886.2500      0.0000    651.5062      2.7357     70.4726
   886.5000      0.0000    646.7545      2.7449     72.4478
   886.7500      0.0000    645.2322      2.7716     75.1097
   887.0000      0.0000    647.9472      2.8339     77.1027
   887.2500      0.0000    654.2821      2.9425     77.4832
   887.5000      0.0000    662.2626      3.0862     76.7707
   887.7500      0.0000    669.5399      3.2189     76.3500
   888.0000      0.0000    674.5983      3.2707     76.9340
