~Version Information
VERS.                      2.0: CWLS Log ASCII Standard - VERSION 2.0
WRAP.                       NO: One line per depth step
~Well Information Block
STRT.FT               400.0000: 
STOP.FT              1804.7000: 
STEP.FT                 0.1000: 
NULL.                -999.2500: 
COMP.          Pioneer Natural Resources: COMPANY
WELL.           Lynch 43-30 Tr: WELL
FLD.           Purgatoire River: FIELD
LOC.           1431' FSL & 296' FEL--: LOCATION
PROV.                 Colorado: PROVINCE
CNTY.               Las Animas: COUNTRY
SRVC.                Patterson: SERVICE COMPANY
DATE.          Thu Jul 28 10:43:37 2005: LOG DATE
UWI.           05 071 08447 00: UNIQUE WELL ID
~Curve Information Block
DEPT.FT            0 000 00 00: Depth
DCAL.in                       : CDL Caliper
RHOB.g/cc                     : CDL Bulk Density
RHOC.g/cc                     : CDL Density Correction
DPOR.pu                       : CDL Density Porosity
NPOR.pu                       : Neutron Porosity
GR.GAPI                       : Gamma Ray
~Parameter Information Block
~A  Depth       DCAL        RHOB        RHOC        DPOR        NPOR         GR     
# ...
   947.2000      8.1602      2.0794      0.0158     34.5820     20.6035    146.9243
   947.3000      8.1687      2.0347      0.0015     37.2913     19.7745    146.9623
   947.4000      8.1687      1.9938     -0.0075     39.7689     18.6075    144.4168
   947.5000      8.1898      1.9664     -0.0112     41.4273     17.4494    142.4733
   947.6000      8.1898      1.9532     -0.0001     42.2316     16.4718    139.2136
   947.7000      8.1898      1.9515     -0.0044     42.3318     15.6561    130.7783
   947.8000      8.2091      1.9650      0.0045     41.5140     15.1494    123.8888
   947.9000      8.2091      1.9919      0.0232     39.8874     14.9119    125.7953
   948.0000      8.2054      2.0182      0.0386     38.2900     14.5337    129.6567
   948.1000      8.2054      2.0361      0.0412     37.2088     14.1217    129.5063
   948.2000      8.2054      2.0622      0.0285     35.6259     14.4103    130.7207
   948.3000      8.1838      2.1231      0.0431     31.9343     15.5119    136.5741
   948.4000      8.1838      2.2143      0.0925     26.4089     16.5374    140.7039
   948.5000      8.1648      2.3016      0.1200     21.1147     16.8785    137.7406
   948.6000      8.1648      2.3680      0.1156     17.0925     17.1114    131.8183
   948.7000      8.1648      2.4162      0.1353     14.1672     17.8372    127.5075
   948.8000      8.1567      2.4349      0.1514     13.0390     18.8374    125.9936
   948.9000      8.1567      2.4108      0.1203     14.4953     19.8381    128.3936
   949.0000      8.1514      2.3580      0.0957     17.6974     20.7233    133.1418
   949.1000      8.1514      2.3011      0.0677     21.1427     21.2085    136.8860
   949.2000      8.1514      2.2539      0.0564     24.0079     21.3080    135.8358
   949.3000      8.1436      2.2194      0.0415     26.0990     21.3012    131.1399
   949.4000      8.1436      2.2011      0.0345     27.2043     21.2289    131.3578
   949.5000      8.1377      2.2016      0.0340     27.1780     21.2249    136.8439
   949.6000      8.1377      2.2117      0.0560     26.5650     21.3703    138.5317
   949.7000      8.1377      2.2199      0.0464     26.0648     21.1049    134.7545
   949.8000      8.1333      2.2279      0.0516     25.5840     20.1309    132.8660
   949.9000      8.1333      2.2385      0.0589     24.9412     19.1056    135.6008
   950.0000      8.1340      2.2478      0.0641     24.3752     18.6205    138.9676
   950.1000      8.1340      2.2576      0.0586     23.7796     18.6935    141.0996
   950.2000      8.1340      2.2760      0.0595     22.6684     19.0613    142.2325
   950.3000      8.1394      2.2965      0.0877     21.4262     19.3957    143.1676
   950.4000      8.1394      2.3006      0.0764     21.1773     19.4185    143.9197
   950.5000      8.1488      2.2829      0.0734     22.2462     19.1398    143.9874
   950.6000      8.1488      2.2508      0.0540     24.1945     18.8276    144.5094
   950.7000      8.1488      2.2115      0.0527     26.5747     18.6745    143.6575
   950.8000      8.1587      2.1760      0.0196     28.7292     18.5241    138.9616
   950.9000      8.1587      2.1587      0.0282     29.7742     18.1320    136.1842
   951.0000      8.1628      2.1638      0.0274     29.4669     17.5152    138.1421
   951.1000      8.1628      2.1852      0.0402     28.1667     17.1440    137.3907
   951.2000      8.1628      2.2129      0.0564     26.4889     17.1878    132.3093
   951.3000      8.1647      2.2372      0.0640     25.0178     17.1367    129.9537
   951.4000      8.1647      2.2575      0.0670     23.7908     16.9555    130.4874
   951.5000      8.1677      2.2814      0.0736     22.3411     17.0848    130.7353
   951.6000      8.1677      2.3172      0.0760     20.1703     17.5608    132.0895
   951.7000      8.1677      2.3642      0.1021     17.3229     17.8803    133.0855
   951.8000      8.1720      2.4131      0.1078     14.3591     17.8933    130.1054
   951.9000      8.1720      2.4572      0.1171     11.6820     18.3030    125.5931
   952.0000      8.1777      2.4888      0.1336      9.7686     19.6280    124.4765
   952.1000      8.1777      2.5002      0.1247      9.0788     21.3326    125.1595
   952.2000      8.1777      2.4961      0.1075      9.3257     22.7134    123.3145
   952.3000      8.1747      2.4806      0.1205     10.2666     23.7239    122.9772
   952.4000      8.1747      2.4525      0.0867     11.9691     24.4536    129.1334
   952.5000      8.1513      2.4199      0.0790     13.9450     24.7578    133.7077
   952.6000      8.1513      2.3860      0.0744     16.0010     24.6101    130.5536
   952.7000      8.1513      2.3439      0.0622     18.5536     24.1616    126.3850
   952.8000      8.1207      2.2953      0.0389     21.4959     23.6929    125.5541
   952.9000      8.1207      2.2508      0.0335     24.1930     23.2783    124.6156
   953.0000      8.1042      2.2181      0.0219     26.1784     22.5877    124.8077
   953.1000      8.1042      2.2028      0.0215     27.1044     21.6011    130.2233
   953.2000      8.1042      2.2084      0.0267     26.7640     20.6262    137.3339
   953.3000      8.1007      2.2309      0.0428     25.3980     19.6075    140.3915
   953.4000      8.1007      2.2616      0.0570     23.5397     18.6255    139.4223
   953.5000      8.1015      2.2978      0.0620     21.3448     17.9877    137.0550
   953.6000      8.1015      2.3464      0.0774     18.4022     17.5493    134.0853
   953.7000      8.1015      2.4126      0.0894     14.3855     17.4923    132.4976
   953.8000      8.1020      2.4881      0.1262      9.8136     18.2056    131.7215
   953.9000      8.1020      2.5532      0.1372      5.8650     19.2077    129.0824
   954.0000      8.1018      2.5965      0.1397      3.2451     19.9189    125.6700
   954.1000      8.1018      2.6171      0.1448      1.9968     20.6309    121.7979
   954.2000      8.1018      2.6237      0.1186      1.5961     21.5037    116.0384
   954.3000      8.0997      2.6314      0.1156      1.1246     22.2355    111.6816
   954.4000      8.0997      2.6432      0.1193      0.4100     22.8821    111.9046
   954.5000      8.0977      2.6517      0.1065     -0.1031     23.5500    113.7015
   954.6000      8.0977      2.6548      0.1041     -0.2920     23.8993    111.7388
   954.7000      8.0977      2.6529      0.0970     -0.1735     23.9764    106.1688
   954.8000      8.0929      2.6448      0.0906      0.3175     24.2517    100.7795
   954.9000      8.0929      2.6323      0.0839      1.0732     24.7841     99.0325
   955.0000      8.0841      2.6243      0.0671      1.5586     25.4510    102.9708
   955.1000      8.0841      2.6250      0.0766      1.5167     25.9006    107.0981
   955.2000      8.0841      2.6175      0.0899      1.9720     25.8508    107.2254
   955.3000      8.0735      2.5879      0.0673      3.7633     25.3869    106.4880
   955.4000      8.0735      2.5568      0.0331      5.6497     24.9423    104.1179
   955.5000      8.0627      2.5473      0.0517      6.2221     24.9548     99.5153
   955.6000      8.0627      2.5481      0.0576      6.1781     25.1659     97.5391
   955.7000      8.0627      2.5411      0.0503      6.5990     25.3587     99.6279
   955.8000      8.0549      2.5341      0.0317      7.0220     25.6463    101.4142
   955.9000      8.0549      2.5447      0.0437      6.3836     25.6887     99.2053
   956.0000      8.0529      2.5763      0.0404      4.4678     25.3804     95.0044
   956.1000      8.0529      2.6134      0.0780      2.2159     25.1450     92.9119
   956.2000      8.0529      2.6357      0.0673      0.8643     25.3589     93.1338
   956.3000      8.0591      2.6430      0.0615      0.4271     26.0046     95.6211
   956.4000      8.0591      2.6450      0.0635      0.3024     26.6465    100.0145
   956.5000      8.0691      2.6430      0.0608      0.4265     26.9060    101.3082
   956.6000      8.0691      2.6374      0.0493      0.7612     26.8996     98.3262
   956.7000      8.0691      2.6331      0.0482      1.0254     26.8451     96.5696
