~Version Information
VERS.                      2.0: CWLS Log ASCII Standard - VERSION 2.0
WRAP.                       NO: One line per depth step
~Well Information Block
STRT.FT               350.0000: 
STOP.FT              2808.2500: 
STEP.FT                 0.2500: 
NULL.                -999.2500: 
COMP.          Pioneer Natural Resources: COMPANY
WELL.          Grey Goose 33-30: WELL
FLD.           Purgatoire River: FIELD
LOC.           2136' FSL & 2065' FEL--: LOCATION
STAT.                 Colorado: State
CNTY.               Las Animas: COUNTY
CTRY. USA : Country
SECT. 30 : Section
TOWN. 32S : Township
RANG. 67W : Range
SRVC.                Patterson: SERVICE COMPANY
DATE.          Fri Nov 04 09:00:45 2005: LOG DATE
API.           05 071 08546 00: UNIQUE WELL ID
~Curve Information Block
DEPT.FT            0 000 00 00: Depth
DIR.Ohm-m                     : IEL Induction Resistivity
SN.Ohm-m                      : IEL Short Normal
SP.mV                         : IEL Spontaneous Potential
GR.GAPI                       : Gamma Ray
~Parameter Information Block
~A  Depth       DIR          SN          SP          GR     
# ...
  2427.0000     24.1821     30.5230     45.7304    103.6358
  2427.2500     25.3534     32.2457     44.1832    102.0289
  2427.5000     26.6072     33.9741     42.5474     98.1810
  2427.7500     27.9572     35.7314     40.8667     94.9873
  2428.0000     29.4115     37.5539     39.1910     89.3672
  2428.2500     30.9701     39.4588     37.5731     85.1219
  2428.5000     32.6182     41.4106     36.0653     78.7887
  2428.7500     34.3129     43.3097     34.7163     75.3889
  2429.0000     35.9679     45.0208     33.5697     72.6432
  2429.2500     37.4557     46.4256     32.6618     72.5612
  2429.5000     38.6358     47.4606     32.0208     74.6938
  2429.7500     39.3959     48.1108     31.6644     77.2884
  2430.0000     39.6774     48.3772     31.5976     82.4911
  2430.2500     39.4707     48.2555     31.8099     86.6101
  2430.5000     38.8040     47.7415     32.2736     93.1380
  2430.7500     37.7450     46.8509     32.9433     97.1484
  2431.0000     36.4116     45.6360     33.7599    101.8038
  2431.2500     34.9596     44.1951     34.6568    103.9659
  2431.5000     33.5437     42.6676     35.5692    106.5823
  2431.7500     32.2765     41.2096     36.4430    108.5287
  2432.0000     31.2155     39.9505     37.2408    112.4803
  2432.2500     30.3761     38.9490     37.9448    115.8627
  2432.5000     29.7507     38.1747     38.5535    121.4315
  2432.7500     29.3167     37.5287     39.0769    124.6569
  2433.0000     29.0364     36.8966     39.5303    126.6778
  2433.2500     28.8567     36.2056     39.9293    124.9827
  2433.5000     28.7202     35.4567     40.2872    117.6467
  2433.7500     28.5809     34.7188     40.6139    111.0108
  2434.0000     28.4162     34.0952     40.9161    102.4222
  2434.2500     28.2274     33.6846     41.1967     99.4599
  2434.5000     28.0336     33.5464     41.4543    100.0371
  2434.7500     27.8608     33.6791     41.6826    103.0404
  2435.0000     27.7316     34.0152     41.8706    109.0070
  2435.2500     27.6553     34.4427     42.0038    112.3510
  2435.5000     27.6285     34.8503     42.0670    114.4371
  2435.7500     27.6466     35.1707     42.0481    113.6265
  2436.0000     27.7196     35.3992     41.9404    110.2691
  2436.2500     27.8794     35.5850     41.7455    107.7020
  2436.5000     28.1714     35.8063     41.4737    104.6652
  2436.7500     28.6339     36.1394     41.1437    103.2332
  2437.0000     29.2782     36.6266     40.7807    101.1965
  2437.2500     30.0765     37.2574     40.4142     99.5142
  2437.5000     30.9641     37.9774     40.0744     96.6948
  2437.7500     31.8530     38.7240     39.7886     95.1933
  2438.0000     32.6514     39.4520     39.5775     94.5829
  2438.2500     33.2834     40.1255     39.4516     95.5417
  2438.5000     33.7030     40.6953     39.4082     98.6279
  2438.7500     33.8969     41.1065     39.4309    101.2807
  2439.0000     33.8778     41.3378     39.4906    105.5073
  2439.2500     33.6837     41.4305     39.5492    108.3302
  2439.5000     33.3861     41.4771     39.5649    112.2454
  2439.7500     33.0880     41.5795     39.4988    114.2962
  2440.0000     32.8990     41.8060     39.3214    116.0813
  2440.2500     32.8986     42.1641     39.0178    116.4433
  2440.5000     33.1147     42.5972     38.5916    116.0124
  2440.7500     33.5270     43.0109     38.0650    114.9747
  2441.0000     34.0846     43.3228     37.4776    111.5369
  2441.2500     34.7202     43.5093     36.8815    107.6843
  2441.5000     35.3528     43.6131     36.3348    100.3806
  2441.7500     35.8890     43.7032     35.8941     95.8193
  2442.0000     36.2368     43.8174     35.6064     91.8096
  2442.2500     36.3309     43.9300     35.5027     91.5162
  2442.5000     36.1498     43.9609     35.5946     93.3826
  2442.7500     35.7118     43.8152     35.8727     94.8261
  2443.0000     35.0547     43.4333     36.3098     95.8832
  2443.2500     34.2231     42.8232     36.8648     96.1216
  2443.5000     33.2699     42.0557     37.4899     97.4321
  2443.7500     32.2621     41.2239     38.1363     99.7206
  2444.0000     31.2774     40.3920     38.7613    105.5766
  2444.2500     30.3866     39.5676     39.3330    110.8727
  2444.5000     29.6321     38.7150     39.8335    119.9355
  2444.7500     29.0158     37.7953     40.2591    125.5319
  2445.0000     28.5021     36.8013     40.6185    130.6336
  2445.2500     28.0322     35.7585     40.9281    130.9916
  2445.5000     27.5437     34.7003     41.2061    127.8229
  2445.7500     26.9876     33.6496     41.4673    124.5575
  2446.0000     26.3422     32.6276     41.7182    119.9029
  2446.2500     25.6224     31.6703     41.9567    117.5971
  2446.5000     24.8763     30.8228     42.1748    115.7250
  2446.7500     24.1677     30.1080     42.3634    115.4094
  2447.0000     23.5499     29.5008     42.5202    115.5413
  2447.2500     23.0477     28.9353     42.6557    115.4056
  2447.5000     22.6524     28.3367     42.7974    114.2081
  2447.7500     22.3274     27.6494     42.9888    112.9701
  2448.0000     22.0192     26.8377     43.2849    111.6623
  2448.2500     21.6690     25.8678     43.7427    111.7117
  2448.5000     21.2218     24.6984     44.4107    113.0008
  2448.7500     20.6335     23.3006     45.3183    114.0811
  2449.0000     19.8781     21.6941     46.4687    114.8783
  2449.2500     18.9581     19.9656     47.8367    114.3903
  2449.5000     17.9129     18.2481     49.3710    112.2453
  2449.7500     16.8125     16.6761     51.0009    110.6551
  2450.0000     15.7373     15.3531     52.6461    109.9580
  2450.2500     14.7545     14.3395     54.2273    111.3501
  2450.5000     13.9047     13.6525     55.6749    115.8326
  2450.7500     13.2016     13.2620     56.9369    119.3693
  2451.0000     12.6405     13.0897     57.9822    123.5226
  2451.2500     12.2068     13.0278     58.8013    124.8015
  2451.5000     11.8841     12.9758     59.4046    123.9943
  2451.7500     11.6585     12.8746     59.8173    121.6263
  2452.0000     11.5197     12.7150     60.0754    115.8233
  2452.2500     11.4593     12.5222     60.2200    111.0926
  2452.5000     11.4683     12.3307     60.2928    104.2702
  2452.7500     11.5336     12.1658     60.3327    100.9122
  2453.0000     11.6354     12.0382     60.3731     98.9046
  2453.2500     11.7458     11.9441     60.4395     99.6572
  2453.5000     11.8296     11.8657     60.5485    102.8503
  2453.7500     11.8484     11.7750     60.7069    105.3763
  2454.0000     11.7708     11.6434     60.9120    108.4636
  2454.2500     11.5856     11.4550     61.1523    109.9632
  2454.5000     11.3070     11.2117     61.4101    112.2790
  2454.7500     10.9689     10.9304     61.6643    114.3671
  2455.0000     10.6103     10.6368     61.8936    118.1205
  2455.2500     10.2640     10.3613     62.0804    120.5268
  2455.5000      9.9523     10.1348     62.2123    123.5318
  2455.7500      9.6885      9.9821     62.2846    125.1651
  2456.0000      9.4796      9.9153     62.2992    126.6759
  2456.2500      9.3276      9.9290     62.2636    126.3379
  2456.5000      9.2306     10.0022     62.1889    122.9062
  2456.7500      9.1835     10.1055     62.0869    119.1403
  2457.0000      9.1795     10.2099     61.9682    113.5529
  2457.2500      9.2099     10.2938     61.8407    111.0115
  2457.5000      9.2641     10.3458     61.7086    109.2092
  2457.7500      9.3284     10.3625     61.5734    108.6921
  2458.0000      9.3874     10.3432     61.4341    107.6453
  2458.2500      9.4249     10.2878     61.2896    106.3354
  2458.5000      9.4275     10.1999     61.1388    103.6385
  2458.7500      9.3884     10.0898     60.9820    102.0789
  2459.0000      9.3096      9.9705     60.8202    101.9999
  2459.2500      9.2010      9.8501     60.6540    104.3510
  2459.5000      9.0773      9.7286     60.4821    111.5121
  2459.7500      8.9536      9.6026     60.3002    117.7931
  2460.0000      8.8428      9.4707     60.1002    127.3548
  2460.2500      8.7552      9.3344     59.8704    132.8171
