~Version Information
VERS.                      2.0: CWLS Log ASCII Standard - VERSION 2.0
WRAP.                       NO: One line per depth step
~Well Information Block
STRT.FT                -8.5000: 
STOP.FT              2030.0000: 
STEP.FT                 0.2500: 
NULL.                -999.2500: 
COMP.          Pioneer Natural Resources: COMPANY
WELL.           Alabaster 11-8: WELL
FLD.           Purgatorie River: FIELD
LOC.           1249' FNL & 215' FWL--: LOCATION
PROV.                       CO: PROVINCE
CNTY.               Las Animas: COUNTRY
SRVC.          Patterson Wireline: SERVICE COMPANY
DATE.          Mon Jan 30 11:59:01 2006: LOG DATE
UWI.           05 071 08642 00: UNIQUE WELL ID
~Curve Information Block
DEPT.FT            0 000 00 00: Depth
CCL.                          : Casing Collar Locator
TT3.usec                      : CBL 3' Travel Time
AMP3.mV                       : CBL 3' Amplitude
GR.GAPI                       : Gamma Ray
~Parameter Information Block
~A  Depth       CCL         TT3         AMP3         GR     
# ...
   125.5000      0.0000    263.9476     72.0704     64.1295
   125.7500      0.0000    263.9311     72.0459     62.6221
   126.0000      0.0000    263.9148     72.0117     59.3752
   126.2500      0.0000    263.9036     71.9895     56.2009
   126.5000      0.0000    263.8998     71.9951     54.5876
   126.7500      0.0000    263.9026     72.0356     55.0074
   127.0000      0.0000    263.9098     72.1020     56.8564
   127.2500      0.0000    263.9205     72.1698     58.8625
   127.5000      0.0000    263.9340     72.2123     59.7483
   127.7500      0.0000    263.9472     72.2176     58.8431
   128.0000      0.0000    263.9546     72.1948     56.3658
   128.2500      0.0000    263.9515     72.1672     53.3369
   128.5000      0.0000    263.9395     72.1569     51.1408
   128.7500      0.0000    263.9263     72.1719     50.7758
   129.0000      0.0000    263.9202     72.2061     52.2774
   129.2500      0.0000    263.9225     72.2469     54.9114
   129.5000      0.0000    263.9266     72.2797     57.9950
   129.7500      0.0000    263.9261     72.2887     61.5335
   130.0000      0.0000    263.9213     72.2612     65.9548
   130.2500      0.0000    263.9176     72.1968     71.0000
   130.5000      0.0000    263.9179     72.1178     74.9938
   130.7500      0.0000    263.9182     72.0616     75.8052
   131.0000      0.0000    263.9132     72.0537     72.8324
   131.2500      0.0000    263.9024     72.0888     67.7812
   131.5000      0.0000    263.8896     72.1416     63.4130
   131.7500      0.0000    263.8791     72.1907     61.7659
   132.0000      0.0000    263.8738     72.2256     63.3219
   132.2500      0.0000    263.8761     72.2380     67.1010
   132.5000      0.0000    263.8858     72.2215     71.2368
   132.7500      0.0000    263.8988     72.1841     73.8589
   133.0000      0.0000    263.9085     72.1515     74.0136
   133.2500      0.0000    263.9124     72.1442     72.0834
   133.5000      0.0000    263.9136     72.1600     69.3041
   133.7500      0.0000    263.9147     72.1862     66.6951
   134.0000      0.0000    263.9138     72.2164     64.4466
   134.2500      0.0000    263.9084     72.2462     62.3039
   134.5000      0.0000    263.9005     72.2661     60.1744
   134.7500      0.0000    263.8965     72.2743     58.0875
   135.0000      0.0000    263.9004     72.2844     55.9224
   135.2500      0.0000    263.9104     72.3093     53.6581
   135.5000      0.0000    263.9213     72.3441     51.6841
   135.7500      0.0000    263.9299     72.3733     50.5445
   136.0000      0.0000    263.9371     72.3915     50.5240
   136.2500      0.0000    263.9446     72.4110     51.5783
   136.5000      0.0000    263.9514     72.4479     53.4211
   136.7500      0.0000    263.9547     72.5071     55.6374
   137.0000      0.0000    263.9531     72.5818     58.0187
   137.2500      0.0000    263.9486     72.6584     60.9784
   137.5000      0.0000    263.9451     72.7199     65.5324
   137.7500      0.0000    263.9445     72.7531     72.5914
   138.0000      0.0000    263.9453     72.7580     82.0904
   138.2500      0.0000    263.9454     72.7493     92.8392
   138.5000      0.0000    263.9438     72.7460    103.3055
   138.7500      0.0000    263.9416     72.7567    112.3949
   139.0000      0.0000    263.9400     72.7745    119.2743
   139.2500      0.0000    263.9390     72.7849    122.8164
   139.5000      0.0000    263.9390     72.7835    122.0097
   139.7500      0.0000    263.9404     72.7873    117.2879
   140.0000      0.0000    263.9426     72.8284    110.9751
   140.2500      0.0000    263.9418     72.9292    105.8965
   140.5000      0.0000    263.9343     73.0778    103.5650
   140.7500      0.0000    263.9206     73.2240    103.7513
   141.0000      0.0000    263.9060     73.3037    105.4356
   141.2500      0.0000    263.8969     73.2831    107.8247
   141.5000      0.0000    263.8965     73.1874    110.5813
   141.7500      0.0000    263.9038     73.0811    113.4063
   142.0000      0.0000    263.9159     73.0179    115.6091
   142.2500      0.0000    263.9293     73.0052    116.1755
   142.5000      0.0000    263.9424     73.0092    114.4305
   142.7500      0.0000    263.9548     72.9951    110.7913
   143.0000      0.0000    263.9650     72.9645    106.8368
   143.2500      0.0000    263.9699     72.9534    104.4685
   143.5000      0.0000    263.9673     72.9923    104.7602
   143.7500      0.0000    263.9581     73.0767    107.2577
   144.0000      0.0000    263.9456     73.1747    110.0868
   144.2500      0.0000    263.9338     73.2518    111.0275
   144.5000      0.0000    263.9261     73.2890    109.0173
   144.7500      0.0000    263.9236     73.2894    104.6891
   145.0000      0.0000    263.9254     73.2753     99.3933
   145.2500      0.0000    263.9287     73.2695     93.9801
   145.5000      0.0000    263.9328     73.2735     88.7233
   145.7500      0.0000    263.9387     73.2643     84.1148
   146.0000      0.0000    263.9480     73.2173     81.2259
   146.2500      0.0000    263.9597     73.1313     81.1197
   146.5000      0.0000    263.9703     73.0281     84.1185
   146.7500      0.0000    263.9776     72.9261     89.6986
   147.0000      0.0000    263.9824     72.8238     96.6384
   147.2500      0.0000    263.9856     72.7182    103.0710
   147.5000      0.0000    263.9851     72.6347    107.1198
   147.7500      0.0000    263.9757     72.6199    108.1727
   148.0000      0.0000    263.9550     72.6985    107.3340
   148.2500      0.0000    263.9295     72.8422    106.2039
   148.5000      0.0000    263.9120     72.9846    105.1541
   148.7500      0.0000    263.9146     73.0589    102.9420
   149.0000      0.0000    263.9398     73.0293     98.2072
   149.2500      0.0000    263.9781     72.9110     91.2666
   149.5000      0.0000    264.0143     72.7662     84.0035
   149.7500      0.0000    264.0370     72.6677     78.0119
   150.0000      0.0000    264.0431     72.6508     73.4829
   150.2500      0.0000    264.0360     72.6930     69.9697
   150.5000      0.0000    264.0210     72.7386     67.4885
   150.7500      0.0000    264.0023     72.7460     66.5983
   151.0000      0.0000    263.9827     72.7156     67.8108
   151.2500      0.0000    263.9654     72.6806     71.0613
   151.5000      0.0000    263.9536     72.6763     75.5086
   151.7500      0.0000    263.9492     72.7139     79.8556
   152.0000      0.0000    263.9506     72.7782     83.0528
   152.2500      0.0000    263.9538     72.8463     84.7981
   152.5000      0.0000    263.9561     72.9001     85.5907
   152.7500      0.0000    263.9577     72.9286     86.3762
   153.0000      0.0000    263.9608     72.9335     87.8522
   153.2500      0.0000    263.9662     72.9355     89.8632
   153.5000      0.0000    263.9728     72.9612     91.4501
   153.7500      0.0000    263.9806     73.0192     91.7248
   154.0000      0.0000    263.9897     73.0958     91.0259
   154.2500      0.0000    263.9982     73.1699     91.1559
   154.5000      0.0000    264.0012     73.2216     93.8789
   154.7500      0.0000    263.9959     73.2316     98.8208
   155.0000      0.0000    263.9860     73.1861    103.1585
   155.2500      0.0000    263.9783     73.0880    103.9951
   155.5000      0.0000    263.9776     72.9573    101.0892
   155.7500      0.0000    263.9837     72.8207     96.8495
   156.0000      0.0000    263.9945     72.7017     93.7741
   156.2500      0.0000    264.0092     72.6125     92.5480
   156.5000      0.0000    264.0286     72.5492     92.5048
   156.7500      0.0000    264.0544     72.4943     93.0210
   157.0000      0.0000    264.0915     72.4110     94.1605
   157.2500      0.0000    264.1642     72.1800     96.3545
   157.5000      0.0000    264.3402     71.4901     99.6922
   157.7500      0.0000    264.7373     69.8330    103.6034
   158.0000      0.0000    265.4794     66.7594    107.4887
   158.2500      0.0000    266.6089     62.3060    111.5921
   158.5000      0.0000    268.0137     57.2167    116.6169
   158.7500      0.0000    269.4406     52.6622    122.1172
