~Version Information
VERS.                      2.0: CWLS Log ASCII Standard - VERSION 2.0
WRAP.                       NO: One line per depth step
~Well Information Block
STRT.FT                -6.7500: 
STOP.FT              1466.2500: 
STEP.FT                 0.2500: 
NULL.                -999.2500: 
COMP.          Pioneer Natural Resources: COMPANY
WELL.          Pallet Ranch 34-15 Tr: WELL
FLD.           Purgatorie River: FIELD
LOC.           465' FSL & 2138' FEL--: LOCATION
PROV.                       CO: PROVINCE
CNTY.               Las Animas: COUNTRY
SRVC.          Patterson Wireline: SERVICE COMPANY
DATE.          Wed Jan 25 09:38:09 2006: LOG DATE
UWI.           05 071 08657 00: UNIQUE WELL ID
~Curve Information Block
DEPT.FT            0 000 00 00: Depth
CCL.                          : Casing Collar Locator
TT3.usec                      : CBL 3' Travel Time
AMP3.mV                       : CBL 3' Amplitude
GR.GAPI                       : Gamma Ray
~Parameter Information Block
~A  Depth       CCL         TT3         AMP3         GR     
# ...
   462.2500      0.0000    732.8931      7.5473     50.8590
   462.5000      0.0000    732.6938      7.4230     52.7260
   462.7500      0.0000    732.4655      7.3312     53.6570
   463.0000      0.0000    732.2405      7.2597     54.5071
   463.2500      0.0000    732.0720      7.1867     56.0306
   463.5000      0.0000    732.0301      7.0908     58.4882
   463.7500      0.0000    732.1711      6.9636     61.9672
   464.0000      0.0000    732.4796      6.8150     66.5597
   464.2500      0.0000    732.8292      6.6653     71.9186
   464.5000      0.0000    733.0353      6.5318     76.9564
   464.7500      0.0000    732.9814      6.4168     80.6164
   465.0000      0.0000    732.7097      6.3066     83.1660
   465.2500      0.0000    732.3890      6.1820     86.2864
   465.5000      0.0000    732.1966      6.0367     91.4591
   465.7500      0.0000    732.2103      5.8841     98.3987
   466.0000      0.0000    732.3919      5.7508    105.2112
   466.2500      0.0000    732.6585      5.6641    109.8995
   466.5000      0.0000    733.0001      5.6437    111.6635
   466.7500      0.0000    733.5659      5.7023    111.1078
   467.0000      0.0000    734.7001      5.8450    109.5270
   467.2500      0.0000    736.8356      6.0592    107.9625
   467.5000      0.0000    740.2866      6.3093    106.6452
   467.7500      0.0000    745.5107      6.5581    105.1446
   468.0000      0.0000    754.4379      6.8021    103.0764
   468.2500      0.0000    771.5459      7.0779    100.5707
   468.5000      0.0000    800.8329      7.4289     97.9033
   468.7500      0.0000    838.2684      7.8656     95.0028
   469.0000      0.0000    868.0757      8.3556     91.6434
   469.2500      0.0000    871.8567      8.8434     87.8221
   469.5000      0.0000    844.1818      9.2814     83.6268
   469.7500      0.0000    797.6562      9.6442     79.0704
   470.0000      0.0000    753.8345      9.9142     74.3514
   470.2500      0.0000    731.7794     10.0617     70.0478
   470.5000      0.0000    739.9872     10.0576     66.7851
   470.7500      0.0000    770.1232      9.9161     64.8153
   471.0000      0.0000    799.9579      9.7011     63.8911
   471.2500      0.0000    810.5364      9.4677     63.5025
   471.5000      0.0000    801.6737      9.2069     63.3420
   471.7500      0.0000    787.9993      8.8670     63.3910
   472.0000      0.0000    782.0186      8.4236     63.3921
   472.2500      0.0000    783.3019      7.9172     62.6692
   472.5000      0.0000    782.0425      7.4282     60.8945
   472.7500      0.0000    770.6677      7.0235     58.7109
   473.0000      0.0000    751.1239      6.7259     57.1836
   473.2500      0.0000    731.5823      6.5265     56.7527
   473.5000      0.0000    718.5325      6.4258     56.8563
   473.7500      0.0000    713.4655      6.4499     56.3590
   474.0000      0.0000    714.7141      6.6128     54.2774
   474.2500      0.0000    719.5800      6.8675     50.4211
   474.5000      0.0000    725.2548      7.1153     45.5643
   474.7500      0.0000    729.6583      7.2707     41.0283
   475.0000      0.0000    732.0685      7.3112     38.0499
   475.2500      0.0000    732.7395      7.2703     37.3227
   475.5000      0.0000    731.9836      7.2007     38.7846
   475.7500      0.0000    729.7224      7.1440     41.7430
   476.0000      0.0000    726.0167      7.1187     45.2991
   476.2500      0.0000    722.0562      7.1223     48.6399
   476.5000      0.0000    720.1743      7.1443     51.1334
   476.7500      0.0000    721.9672      7.1793     52.7190
   477.0000      0.0000    726.2239      7.2268     54.3076
   477.2500      0.0000    729.6781      7.2858     57.1210
   477.5000      0.0000    730.3237      7.3563     61.2103
   477.7500      0.0000    729.2302      7.4419     64.9220
   478.0000      0.0000    728.7114      7.5469     66.0448
   478.2500      0.0000    729.7463      7.6752     63.3594
   478.5000      0.0000    731.8934      7.8411     57.3497
   478.7500      0.0000    735.0912      8.0699     49.9114
   479.0000      0.0000    740.8224      8.3762     43.2771
   479.2500      0.0000    751.5683      8.7401     38.7501
   479.5000      0.0000    769.0231      9.1150     36.2850
   479.7500      0.0000    792.5291      9.4556     35.2801
   480.0000      0.0000    819.3470      9.7341     35.6168
   480.2500      0.0000    846.4880      9.9405     37.7291
   480.5000      0.0000    871.1157     10.0821     41.7317
   480.7500      0.0000    888.2166     10.1795     46.8289
   481.0000      0.0000    889.9980     10.2548     51.7876
   481.2500      0.0000    871.4757     10.3186     55.8612
   481.5000      0.0000    837.2913     10.3683     58.9783
   481.7500      0.0000    800.1547     10.3949     61.0613
   482.0000      0.0000    771.3534     10.3889     61.5156
   482.2500      0.0000    754.0490     10.3455     59.6642
   482.5000      0.0000    745.2664     10.2658     55.6027
   482.7500      0.0000    741.4004     10.1558     50.4208
   483.0000      0.0000    740.4740     10.0255     45.6225
   483.2500      0.0000    741.0575      9.8911     42.4509
   483.5000      0.0000    741.4863      9.7760     41.6833
   483.7500      0.0000    740.7775      9.7018     43.7094
   484.0000      0.0000    739.5373      9.6724     48.2989
   484.2500      0.0000    739.3752      9.6691     54.1234
   484.5000      0.0000    741.4901      9.6637     58.9746
   484.7500      0.0000    745.9031      9.6386     60.9888
   485.0000      0.0000    751.7568      9.5946     59.6903
   485.2500      0.0000    758.0021      9.5399     55.9089
   485.5000      0.0000    763.6410      9.4738     51.0916
   485.7500      0.0000    767.5549      9.3868     46.6866
   486.0000      0.0000    768.6171      9.2738     43.5760
   486.2500      0.0000    766.3517      9.1424     41.7233
   486.5000      0.0000    761.5460      9.0096     40.4332
   486.7500      0.0000    755.9524      8.8944     39.0111
   487.0000      0.0000    751.0185      8.8110     37.2489
   487.2500      0.0000    746.9294      8.7650     35.4779
   487.5000      0.0000    743.1407      8.7547     34.2324
   487.7500      0.0000    739.5284      8.7721     33.7950
   488.0000      0.0000    736.5986      8.8009     34.0939
   488.2500      0.0000    734.8640      8.8204     35.0782
   488.5000      0.0000    734.5329      8.8175     36.9762
   488.7500      0.0000    735.6141      8.7921     39.9585
   489.0000      0.0000    737.7994      8.7494     43.6606
   489.2500      0.0000    740.1548      8.6926     47.2368
   489.5000      0.0000    741.4119      8.6286     49.8916
   489.7500      0.0000    741.0072      8.5757     51.4189
   490.0000      0.0000    739.7512      8.5558     52.2941
   490.2500      0.0000    739.1892      8.5804     53.1156
   490.5000      0.0000    740.2448      8.6449     53.9953
   490.7500      0.0000    742.5279      8.7357     54.7065
   491.0000      0.0000    744.8969      8.8420     55.1910
   491.2500      0.0000    746.5746      8.9661     55.5263
   491.5000      0.0000    747.6279      9.1186     55.6547
   491.7500      0.0000    748.5837      9.2958     55.5933
   492.0000      0.0000    749.8739      9.4630     55.6639
   492.2500      0.0000    751.3309      9.5728     56.1705
   492.5000      0.0000    751.8870      9.5991     57.1101
   492.7500      0.0000    750.2635      9.5497     58.4520
   493.0000      0.0000    746.3878      9.4534     60.4390
   493.2500      0.0000    741.7108      9.3418     63.3957
   493.5000      0.0000    737.9047      9.2367     67.2897
   493.7500      0.0000    735.6116      9.1424     71.5664
   494.0000      0.0000    734.4868      9.0562     75.4871
   494.2500      0.0000    733.9421      8.9873     78.7173
   494.5000      0.0000    733.6476      8.9546     81.4811
   494.7500      0.0000    733.6278      8.9608     84.0404
   495.0000      0.0000    734.1979      8.9777     86.2523
   495.2500      0.0000    735.7915      8.9672     87.9958
   495.5000      0.0000    738.5385      8.9106     89.8324
