~Version Information
VERS.                      2.0: CWLS Log ASCII Standard - VERSION 2.0
WRAP.                       NO: One line per depth step
~Well Information Block
STRT.FT                -8.0000: 
STOP.FT               918.7500: 
STEP.FT                 0.2500: 
NULL.                -999.2500: 
COMP.          Pioneer Natural Resources: COMPANY
WELL.          Sculpin 32-30 Tr: WELL
FLD.           Purgatorie River: FIELD
LOC.           1600' FNL & 1857' FEL--: LOCATION
CNTY.               Las Animas: COUNTY
SRVC.          Patterson Wireline: SERVICE COMPANY
DATE.          Thu Aug 03 08:40:45 2006: LOG DATE
UWI.           05 071 08706 00: UNIQUE WELL ID
STAT.                       CO: STATE
~Curve Information Block
DEPT.FT            0 000 00 00: Depth
CCL.                          : Casing Collar Locator
TT3.usec                      : CBL 3' Travel Time
AMP3.mV                       : CBL 3' Amplitude
GR.GAPI                       : Gamma Ray
~Parameter Information Block
~A  Depth       CCL         TT3         AMP3         GR     
# ...
   126.0000      0.0000    728.3391      6.2258     84.4972
   126.2500      0.0000    714.6586      6.3710     85.9938
   126.5000      0.0000    703.6408      6.5660     89.5126
   126.7500      0.0000    696.5824      6.7875     94.0702
   127.0000      0.0000    692.8115      6.9953     97.6359
   127.2500      0.0000    690.9935      7.1347     98.7633
   127.5000      0.0000    689.9561      7.1459     98.0397
   127.7500      0.0000    689.0001      6.9903     97.4690
   128.0000      0.0000    688.0828      6.6840     98.6865
   128.2500      0.0000    688.1077      6.3024    101.8422
   128.5000      0.0000    690.4982      5.9379    105.7018
   128.7500      0.0000    695.5729      5.6452    108.4974
   129.0000      0.0000    700.7526      5.4283    108.9573
   129.2500      0.0000    701.0343      5.2651    106.9208
   129.5000      0.0000    692.9259      5.1369    103.2664
   129.7500      0.0000    678.7288      5.0360     99.3044
   130.0000      0.0000    665.2331      4.9608     96.0875
   130.2500      0.0000    656.0342      4.9152     94.1322
   130.5000      0.0000    645.9725      4.9166     93.5234
   130.7500      0.0000    625.4776      4.9930     94.0485
   131.0000      0.0000    590.5532      5.1519     95.2962
   131.2500      0.0000    547.3215      5.3468     96.9465
   131.5000      0.0000    506.8929      5.4925     98.9250
   131.7500      0.0000    477.0186      5.5258    101.0063
   132.0000      0.0000    458.8393      5.4479    102.4787
   132.2500      0.0000    449.7149      5.3077    102.6262
   132.5000      0.0000    446.9969      5.1563    101.5226
   132.7500      0.0000    449.1651      5.0192     99.9768
   133.0000      0.0000    454.9063      4.8997     98.5990
   133.2500      0.0000    462.3042      4.7976     97.3115
   133.5000      0.0000    469.1841      4.7220     95.9911
   133.7500      0.0000    474.1199      4.6880     95.1300
   134.0000      0.0000    476.9315      4.7046     95.4608
   134.2500      0.0000    478.2613      4.7673     97.0604
   134.5000      0.0000    478.9254      4.8586     99.1657
   134.7500      0.0000    479.7169      4.9569    101.0126
   135.0000      0.0000    481.6515      5.0494    102.6634
   135.2500      0.0000    486.1514      5.1410    104.8406
   135.5000      0.0000    494.6653      5.2464    108.1071
   135.7500      0.0000    507.8849      5.3689    112.3412
   136.0000      0.0000    525.7481      5.4859    116.6579
   136.2500      0.0000    548.8393      5.5571    119.5823
   136.5000      0.0000    579.1520      5.5493    119.6766
   136.7500      0.0000    617.6674      5.4528    116.5408
   137.0000      0.0000    660.5663      5.2797    111.3257
   137.2500      0.0000    699.1616      5.0517    106.1283
   137.5000      0.0000    724.7531      4.7941    102.5844
   137.7500      0.0000    733.7236      4.5354    100.8912
   138.0000      0.0000    728.6208      4.3062    100.2306
   138.2500      0.0000    715.5276      4.1381     99.8685
   138.5000      0.0000    700.2780      4.0660     99.6019
   138.7500      0.0000    685.9832      4.1184     99.5450
   139.0000      0.0000    673.3563      4.2807     99.9744
   139.2500      0.0000    662.9406      4.4668    101.1213
   139.5000      0.0000    656.3333      4.5632    102.6242
   139.7500      0.0000    654.8870      4.5265    103.3873
   140.0000      0.0000    657.8667      4.4189    102.5097
   140.2500      0.0000    662.9700      4.3317    100.3929
   140.5000      0.0000    668.6961      4.2973     98.5439
   140.7500     -2.0000    674.9384      4.2861     98.0442
   141.0000      0.0000    680.9779      4.2586     98.3569
   141.2500      0.0000    684.5990      4.2033     97.9259
   141.5000      0.0000    684.0175      4.1346     95.9413
   141.7500      0.0000    679.4203      4.0655     93.2252
   142.0000      0.0000    672.1833      3.9769     91.2713
   142.2500      0.0000    663.9399      3.8235     90.5954
   142.5000      0.0000    656.9976      3.5868     90.2061
   142.7500      0.0000    654.4318      3.3124     88.6129
   143.0000      0.0000    658.3335      3.0755     85.1843
   143.2500      0.0000    667.4080      2.9182     80.6376
   143.5000      0.0000    676.2599      2.8354     76.5446
   143.7500      0.0000    677.3230      2.8040     74.4023
   144.0000      0.0000    663.9217      2.8089     74.7931
   144.2500      0.0000    632.6057      2.8436     77.0733
   144.5000      0.0000    584.8572      2.9039     79.7802
   144.7500      0.0000    528.3022      2.9842     81.4709
   145.0000      0.0000    475.0831      3.0751     81.5008
   145.2500      0.0000    436.1165      3.1642     80.2925
   145.5000      0.0000    415.2047      3.2416     78.8937
   145.7500      0.0000    408.3738      3.3047     78.2228
   146.0000      0.0000    408.3892      3.3585     78.7451
   146.2500      0.0000    409.5571      3.4099     80.6507
   146.5000      0.0000    409.2364      3.4642     83.9888
   146.7500      0.0000    406.6938      3.5254     88.4247
   147.0000      0.0000    401.8343      3.5960     92.8421
   147.2500      0.0000    395.0645      3.6758     95.3821
   147.5000      0.0000    387.5806      3.7617     94.4124
   147.7500      0.0000    380.9574      3.8477     90.0270
   148.0000      0.0000    376.1100      3.9264     84.5172
   148.2500      0.0000    372.6712      3.9929     80.7444
   148.5000      0.0000    369.3244      4.0488     79.8062
   148.7500      0.0000    364.7466      4.1034     80.5417
   149.0000      0.0000    358.5534      4.1682     81.2193
   149.2500      0.0000    351.6409      4.2486     81.0078
   149.5000      0.0000    345.5529      4.3398     79.6798
   149.7500      0.0000    341.3589      4.4289     76.8688
   150.0000      0.0000    339.0973      4.5040     72.3803
   150.2500      0.0000    338.1388      4.5610     66.8369
   150.5000      0.0000    337.8282      4.6043     61.6217
   150.7500      0.0000    337.7887      4.6420     58.2579
   151.0000      0.0000    337.8740      4.6813     57.5994
   151.2500      0.0000    338.0317      4.7274     59.2735
   151.5000      0.0000    338.2252      4.7837     62.2207
   151.7500      0.0000    338.4148      4.8534     65.9773
   152.0000      0.0000    338.5674      4.9394     70.9065
   152.2500      0.0000    338.6654      5.0414     76.9864
   152.5000      0.0000    338.7087      5.1534     83.1353
   152.7500      0.0000    338.7056      5.2647     88.2228
   153.0000      0.0000    338.6653      5.3662     92.1184
   153.2500      0.0000    338.6014      5.4551     95.1421
   153.5000      0.0000    338.5364      5.5368     96.9889
   153.7500      0.0000    338.4922      5.6220     96.9587
   154.0000      0.0000    338.4740      5.7212     95.1053
   154.2500      0.0000    338.4757      5.8377     92.5769
   154.5000      0.0000    338.5023      5.9638     90.6432
   154.7500      0.0000    338.5716      6.0843     89.4288
   155.0000      0.0000    338.6802      6.1847     87.6798
   155.2500      0.0000    338.7794      6.2579     84.0677
   155.5000      0.0000    338.8070      6.3044     78.8851
   155.7500      0.0000    338.7789      6.3307     74.0873
   156.0000      0.0000    338.8919      6.3477     71.4963
   156.2500      0.0000    339.6087      6.3688     71.3735
   156.5000      0.0000    341.6332      6.4032     72.8614
   156.7500      0.0000    345.5882      6.4514     75.1986
   157.0000      0.0000    351.4119      6.5072     78.0534
   157.2500      0.0000    358.0306      6.5638     80.9099
   157.5000      0.0000    363.8758      6.6180     82.6445
   157.7500      0.0000    367.8913      6.6673     82.1465
   158.0000      0.0000    370.0308      6.7057     79.5132
   158.2500      0.0000    370.9156      6.7226     76.3553
   158.5000      0.0000    371.2470      6.7060     74.6593
   158.7500      0.0000    371.5233      6.6463     75.5154
   159.0000      0.0000    372.0415      6.5397     78.7838
   159.2500      0.0000    372.9337      6.3892     83.3704
