~Version Information
VERS.                      2.0: CWLS Log ASCII Standard - VERSION 2.0
WRAP.                       NO: One line per depth step
~Well Information Block
STRT.FT               230.2000: 
STOP.FT              1518.7000: 
STEP.FT                 0.1000: 
NULL.                -999.2500: 
COMP.          Pioneer Natural Resources: COMPANY
WELL.          Mow 8-14-33-67 Tr: WELL
FLD.           Purgatoire River: FIELD
LOC.           2258' FNL & 929' FEL: LOCATION
PROV.                 Colorado: PROVINCE
CNTY.               Las Animas: COUNTRY
SRVC.                Patterson: SERVICE COMPANY
DATE.          Mon Jan 30 11:22:55 2006: LOG DATE
UWI.           05 071 08684 00: UNIQUE WELL ID
~Curve Information Block
DEPT.FT            0 000 00 00: Depth
DCAL.in                       : CDL Caliper
DPOR.pu                       : CDL Density Porosity
RHOB.g/cc                     : CDL Bulk Density
RHOC.g/cc                     : CDL Density Correction
GR.GAPI                       : Gamma Ray
~Parameter Information Block
~A  Depth       DCAL        DPOR        RHOB        RHOC         GR     
# ...
  1428.6000      7.8850      8.8779      2.5035      0.0437    155.2399
  1428.7000      7.8850      9.4321      2.4944     -0.0051    165.8674
  1428.8000      7.8825      9.7373      2.4893      0.0327    169.8178
  1428.9000      7.8825     10.4229      2.4780      0.0298    171.3324
  1429.0000      7.8816     10.8656      2.4707      0.0138    171.5869
  1429.1000      7.8816     10.2303      2.4812      0.0471    173.4428
  1429.2000      7.8816      9.4672      2.4938      0.0708    182.1660
  1429.3000      7.8801      9.5949      2.4917      0.0400    186.7873
  1429.4000      7.8801      9.7572      2.4890      0.0273    175.4698
  1429.5000      7.8793      9.0909      2.5000      0.0647    159.3832
  1429.6000      7.8793      8.2917      2.5132      0.0830    151.8522
  1429.7000      7.8793      7.7885      2.5215      0.0233    155.0988
  1429.8000      7.8806      7.3671      2.5284      0.1036    172.9968
  1429.9000      7.8806      7.4739      2.5267      0.0927    199.2711
  1430.0000      7.8818      7.8766      2.5200      0.0895    217.2494
  1430.1000      7.8818      7.5938      2.5247      0.0882    218.7496
  1430.2000      7.8818      7.2997      2.5296      0.1516    209.4731
  1430.3000      7.8879      8.4659      2.5103      0.1127    204.7381
  1430.4000      7.8879     10.5387      2.4761      0.0414    209.0624
  1430.5000      7.9010     11.9958      2.4521      0.0833    213.0797
  1430.6000      7.9010     12.4663      2.4443      0.0351    213.9756
  1430.7000      7.9010     12.2762      2.4474      0.0319    213.1860
  1430.8000      7.9102     11.7445      2.4562      0.0643    208.5924
  1430.9000      7.9102     10.8758      2.4706      0.0489    206.3866
  1431.0000      7.9125      9.9900      2.4852      0.0973    212.8529
  1431.1000      7.9125      9.4067      2.4948      0.0751    218.6937
  1431.2000      7.9125      8.3521      2.5122      0.0591    218.8958
  1431.3000      7.9120      6.8263      2.5374      0.1319    215.7792
  1431.4000      7.9120      6.1016      2.5493      0.0939    204.3711
  1431.5000      7.9111      6.2477      2.5469      0.0709    184.9777
  1431.6000      7.9111      6.0953      2.5494      0.0654    169.3620
  1431.7000      7.9111      5.1044      2.5658      0.0823    162.5166
  1431.8000      7.9078      3.9897      2.5842      0.0972    159.9323
  1431.9000      7.9078      3.4187      2.5936      0.0791    158.1541
  1432.0000      7.8974      3.4121      2.5937      0.1030    153.0148
  1432.1000      7.8974      4.1046      2.5823      0.0987    139.0878
  1432.2000      7.8974      5.1295      2.5654      0.0507    120.8553
  1432.3000      7.8842      5.4512      2.5601      0.0544    118.4005
  1432.4000      7.8842      4.9627      2.5681      0.0754    138.1081
  1432.5000      7.8781      4.6104      2.5739      0.1005    149.8190
  1432.6000      7.8781      4.6583      2.5731      0.0445    139.1762
  1432.7000      7.8781      4.4860      2.5760      0.0645    133.6353
  1432.8000      7.8791      3.9510      2.5848      0.0897    147.6389
  1432.9000      7.8791      3.5725      2.5911      0.0765    165.4719
  1433.0000      7.8823      3.9982      2.5840      0.1357    170.2309
  1433.1000      7.8823      5.1622      2.5648      0.0316    161.5156
  1433.2000      7.8823      5.7633      2.5549      0.0149    156.2733
  1433.3000      7.8881      5.1522      2.5650      0.0188    162.8591
  1433.4000      7.8881      4.5059      2.5757      0.0657    177.6989
  1433.5000      7.8962      4.8216      2.5704      0.0201    194.7126
  1433.6000      7.8962      5.2552      2.5633      0.0404    207.2633
  1433.7000      7.8962      5.4501      2.5601      0.0802    204.2004
  1433.8000      7.9016      6.1383      2.5487      0.0203    183.0026
  1433.9000      7.9016      6.7214      2.5391      0.0245    164.0596
  1434.0000      7.8992      6.0485      2.5502      0.0072    162.0647
  1434.1000      7.8992      4.8101      2.5706      0.0947    166.8628
  1434.2000      7.8992      4.7020      2.5724      0.0437    167.3784
  1434.3000      7.8888      5.4124      2.5607      0.0523    170.6992
  1434.4000      7.8888      5.1570      2.5649      0.0365    180.7322
  1434.5000      7.8816      3.2282      2.5967      0.0593    181.8271
  1434.6000      7.8816      0.9646      2.6341      0.1306    160.7803
  1434.7000      7.8816      0.1990      2.6467      0.1356    128.8040
  1434.8000      7.8803      0.8938      2.6353      0.1082    105.1736
  1434.9000      7.8803      1.1430      2.6311      0.0921     97.1747
  1435.0000      7.8792     -0.2261      2.6537      0.1023    105.5392
  1435.1000      7.8792     -1.9989      2.6830      0.1216    126.8920
  1435.2000      7.8792     -2.7909      2.6961      0.1164    142.3612
  1435.3000      7.8788     -2.8152      2.6965      0.1176    137.0000
  1435.4000      7.8788     -2.3677      2.6891      0.1137    129.1175
  1435.5000      7.8824     -1.1339      2.6687      0.0772    138.5130
  1435.6000      7.8824      0.7483      2.6377      0.0410    156.3941
  1435.7000      7.8824      2.2788      2.6124      0.0428    164.4302
  1435.8000      7.8851      2.8260      2.6034      0.0556    161.0269
  1435.9000      7.8851      3.0815      2.5992      0.0975    152.0766
  1436.0000      7.8822      3.7030      2.5889      0.0666    141.0930
  1436.1000      7.8822      4.1561      2.5814      0.0067    133.6604
  1436.2000      7.8822      4.2252      2.5803      0.0714    127.9113
  1436.3000      7.8814      4.6584      2.5731      0.0672    126.4040
  1436.4000      7.8814      5.2751      2.5630      0.0399    133.2965
  1436.5000      7.8863      5.3164      2.5623      0.0627    141.5954
  1436.6000      7.8863      4.8002      2.5708      0.0428    144.1915
  1436.7000      7.8863      3.9624      2.5846      0.0553    143.3892
  1436.8000      7.8945      3.1732      2.5976      0.0880    147.6132
  1436.9000      7.8945      2.8934      2.6023      0.0809    162.2714
  1437.0000      7.9002      2.9895      2.6007      0.0783    177.7803
  1437.1000      7.9002      3.2373      2.5966      0.0576    178.8863
  1437.2000      7.9002      3.6915      2.5891      0.0767    166.4724
  1437.3000      7.8968      3.9706      2.5845      0.0499    147.0616
  1437.4000      7.8968      3.4733      2.5927      0.0854    127.2843
  1437.5000      7.8886      2.7197      2.6051      0.1002    121.0244
  1437.6000      7.8886      2.5216      2.6084      0.0372    125.1487
  1437.7000      7.8886      2.6697      2.6060      0.0689    124.8860
  1437.8000      7.8838      2.7824      2.6041      0.0560    122.1533
  1437.9000      7.8838      2.8678      2.6027      0.0566    122.9432
  1438.0000      7.8818      2.8571      2.6029      0.0671    123.9901
  1438.1000      7.8818      2.3334      2.6115      0.0444    119.0233
  1438.2000      7.8818      1.3727      2.6274      0.0949    106.3874
  1438.3000      7.8821      0.9821      2.6338      0.1016     93.3019
  1438.4000      7.8821      1.9494      2.6178      0.0758     87.6610
  1438.5000      7.8837      3.7966      2.5874      0.0287     91.2212
  1438.6000      7.8837      4.8253      2.5704     -0.0001    103.6249
  1438.7000      7.8837      4.0040      2.5839      0.0320    116.3423
  1438.8000      7.8838      2.3076      2.6119      0.0268    119.0107
  1438.9000      7.8838      1.1149      2.6316      0.0684    114.0873
  1439.0000      7.8819      1.2279      2.6297      0.0972    110.9833
  1439.1000      7.8819      2.7165      2.6052      0.0679    111.5126
  1439.2000      7.8819      4.9584      2.5682      0.0396    107.9292
  1439.3000      7.8799      7.1211      2.5325      0.0393     95.5527
  1439.4000      7.8799      8.5056      2.5097      0.0114     84.5485
  1439.5000      7.8788      9.0642      2.5004      0.0650     87.2704
  1439.6000      7.8788      9.2782      2.4969      0.0491     97.0950
  1439.7000      7.8788      9.4672      2.4938      0.0721     94.9513
