~Version Information
VERS.                      2.0: CWLS Log ASCII Standard - VERSION 2.0
WRAP.                       NO: One line per depth step
~Well Information Block
STRT.FT                 0.0000: 
STOP.FT               878.0000: 
STEP.FT                 0.2500: 
NULL.                -999.2500: 
COMP.          Pioneer Natural Resources: COMPANY
WELL.           Hartford 31-18: WELL
FLD.           Purgatorie River: FIELD
LOC.           375' FNL & 1660' FEL: LOCATION
PROV.                 Colorado: PROVINCE
CNTY.               Las Animas: COUNTRY
SRVC.                Patterson: SERVICE COMPANY
DATE.          Mon Nov 28 12:10:49 2005: LOG DATE
UWI.             05-071-08555             : UNIQUE WELL ID
~Curve Information Block
DEPT.FT            0 000 00 00: Depth
CCL.                          : Casing Collar Locator
TT3.usec                      : CBL 3' Travel Time
AMP3.mV                       : CBL 3' Amplitude
GR.GAPI                       : Gamma Ray
~Parameter Information Block
~A  Depth       CCL         TT3         AMP3         GR     
# ...
   234.5000      0.0000    723.3998      6.9685     74.6528
   234.7500      0.0000    724.0165      7.0306     73.8658
   235.0000      0.0000    724.5685      7.0692     72.5736
   235.2500      0.0000    724.7408      7.1036     71.3324
   235.5000      0.0000    724.3652      7.1569     71.0617
   235.7500      0.0000    723.4417      7.2071     72.2318
   236.0000      0.0000    721.5608      7.2106     74.3627
   236.2500      0.0000    717.6483      7.1462     76.6598
   236.5000      0.0000    711.5984      7.0357     78.9368
   236.7500      0.0000    705.9182      6.9331     81.3888
   237.0000      0.0000    703.6723      6.8798     83.5202
   237.2500      0.0000    705.8525      6.8643     84.0361
   237.5000      0.0000    711.0571      6.8427     82.1251
   237.7500      0.0000    715.6135      6.7963     78.5165
   238.0000      0.0000    716.1219      6.7503     74.9784
   238.2500      0.0000    713.2361      6.7470     72.9100
   238.5000      0.0000    711.4612      6.8107     72.5266
   238.7500      0.0000    713.8070      6.9148     73.0789
   239.0000      0.0000    718.2263      7.0056     73.5678
   239.2500      0.0000    721.3844      7.0740     73.5043
   239.5000      0.0000    722.3078      7.1353     73.3766
   239.7500      0.0000    720.8383      7.1762     74.2741
   240.0000      0.0000    715.7273      7.1940     76.6999
   240.2500      0.0000    706.2552      7.2191     79.7404
   240.5000      0.0000    695.8171      7.2815     81.6514
   240.7500      0.0000    691.0157      7.3929     81.4519
   241.0000      0.0000    694.6506      7.5351     79.8704
   241.2500      0.0000    701.6594      7.6623     78.5643
   241.5000      0.0000    705.0529      7.7485     78.4865
   241.7500      0.0000    704.1993      7.8100     79.0465
   242.0000      0.0000    703.4317      7.8778     78.6276
   242.2500      0.0000    705.7571      7.9561     75.8664
   242.5000      0.0000    710.2758      7.9992     70.7477
   242.7500      0.0000    712.6911      7.9666     64.8354
   243.0000      0.0000    710.0630      7.8920     60.5113
   243.2500      0.0000    704.4136      7.8427     59.7007
   243.5000      0.0000    698.9012      7.8478     62.7973
   243.7500      0.0000    694.9496      7.9064     68.3734
   244.0000      0.0000    693.1961      8.0175     73.9805
   244.2500      0.0000    691.7791      8.1626     77.7377
   244.5000      0.0000    687.9692      8.2762     79.4741
   244.7500      0.0000    682.9803      8.3041     80.3950
   245.0000      0.0000    679.7057      8.2952     81.6087
   245.2500      0.0000    678.5613      8.3342     82.9271
   245.5000      0.0000    678.3596      8.4062     83.1813
   245.7500      0.0000    678.4979      8.4307     81.6940
   246.0000      0.0000    679.6982      8.3875     79.2451
   246.2500      0.0000    683.2043      8.3363     77.6364
   246.5000      0.0000    688.1995      8.3337     78.4755
   246.7500      0.0000    690.6775      8.3679     82.1600
   247.0000      0.0000    688.0508      8.3727     87.6448
   247.2500      0.0000    683.0132      8.2799     93.0563
   247.5000      0.0000    679.4640      8.1038     96.6657
   247.7500      0.0000    678.2326      7.9735     97.6957
   248.0000      0.0000    678.1978      7.9902     96.5914
   248.2500      0.0000    678.2790      8.0995     94.5702
   248.5000      0.0000    678.0001      8.1697     92.6599
   248.7500      0.0000    677.5181      8.1316     91.1228
   249.0000      0.0000    677.2396      8.0244     89.8185
   249.2500      0.0000    677.2745      7.9272     88.9118
   249.5000      0.0000    677.4250      7.8700     88.9801
   249.7500      0.0000    677.5156      7.8464     90.4501
   250.0000      0.0000    677.4863      7.8602     93.1327
   250.2500      0.0000    677.3412      7.9116     96.2328
   250.5000      0.0000    677.1609      7.9935     98.4582
   250.7500      0.0000    677.0715      8.1044     98.1635
   251.0000      0.0000    677.1731      8.2231     94.0975
   251.2500      0.0000    677.6902      8.3007     86.4927
   251.5000      0.0000    679.5306      8.3072     77.1983
   251.7500      0.0000    684.5215      8.2883     68.5200
   252.0000      0.0000    693.3397      8.3398     62.0995
   252.2500      0.0000    702.4028      8.5016     58.7287
   252.5000      0.0000    706.6007      8.7220     58.4962
   252.7500      0.0000    705.9944      8.9399     60.8033
   253.0000      0.0000    704.9221      9.1333     64.5282
   253.2500      0.0000    705.8312      9.2788     68.5152
   253.5000      0.0000    706.6732      9.3418     72.0784
   253.7500      0.0000    703.1449      9.3267     75.1695
   254.0000      0.0000    695.1230      9.2882     78.0976
   254.2500      0.0000    688.4671      9.2741     81.0571
   254.5000      0.0000    688.5552      9.2934     84.0345
   254.7500      0.0000    695.0677      9.3387     87.0935
   255.0000      0.0000    701.7590      9.3947     90.3325
   255.2500      0.0000    701.5267      9.4268     93.3708
   255.5000      0.0000    694.2228      9.4028     95.3630
   255.7500      0.0000    686.3286      9.3212     95.9940
   256.0000      0.0000    683.0753      9.1920     96.1445
   256.2500      0.0000    685.3261      9.0130     97.0179
   256.5000      0.0000    691.4637      8.7905     98.7582
   256.7500      0.0000    698.8565      8.5561    100.3240
   257.0000      0.0000    706.0784      8.3514    100.4716
   257.2500      0.0000    712.8964      8.2047     98.5307
   257.5000      0.0000    716.8378      8.1188     94.5194
   257.7500      0.0000    714.5878      8.0464     89.0740
   258.0000      0.0000    708.4717      7.8414     83.3771
   258.2500      0.0000    708.6132      7.3251     78.8026
   258.5000      0.0000    726.9204      6.5335     76.2322
   258.7500      0.0000    769.5704      5.8073     75.5371
   259.0000      0.0000    825.0808      5.4422     75.7805
   259.2500      2.0000    861.1912      5.3825     76.0212
   259.5000     -2.0000    863.3943      5.4145     75.9997
   259.7500     -2.0000    854.3956      5.4465     76.1476
   260.0000      0.0000    844.0861      5.4747     77.1289
   260.2500      0.0000    815.3216      5.4852     79.4946
   260.5000      0.0000    768.2139      5.5828     83.5705
   260.7500      0.0000    723.5279      6.0664     89.1907
   261.0000      0.0000    696.0776      7.0451     95.2755
   261.2500      0.0000    687.2345      8.1003    100.0034
   261.5000      0.0000    689.4931      8.7289    101.8522
   261.7500      0.0000    693.4415      8.8854    100.5779
   262.0000      0.0000    695.0936      8.8078     97.1429
   262.2500      0.0000    696.7585      8.6825     92.9366
   262.5000      0.0000    700.5080      8.6093     89.2374
   262.7500      0.0000    705.8663      8.6270     87.0481
   263.0000      0.0000    711.2534      8.6958     86.7806
   263.2500      0.0000    712.7209      8.7478     87.7033
   263.5000      0.0000    706.8430      8.7727     87.9004
   263.7500      0.0000    696.0837      8.8092     85.3850
   264.0000      0.0000    686.7720      8.8851     79.6508
   264.2500      0.0000    682.9683      9.0177     71.9723
   264.5000      0.0000    685.0676      9.2235     64.0812
   264.7500      0.0000    691.3673      9.4559     56.8445
   265.0000      0.0000    699.0438      9.6134     50.3935
   265.2500      0.0000    706.5744      9.6752     45.0926
   265.5000      0.0000    714.1093      9.7172     41.8225
   265.7500      0.0000    720.4957      9.7880     41.2105
   266.0000      0.0000    724.0707      9.8713     42.8083
   266.2500      0.0000    724.9402      9.9366     45.2616
   266.5000      0.0000    723.3109      9.9675     47.3822
   266.7500      0.0000    717.3703      9.9748     48.9945
   267.0000      0.0000    705.5061      9.9918     50.7135
   267.2500      0.0000    691.7177     10.0311     53.1195
   267.5000      0.0000    684.1037     10.0528     56.2916
   267.7500      0.0000    683.2115     10.0155     59.8980
