~Version Information
VERS.                      2.0: CWLS Log ASCII Standard - VERSION 2.0
WRAP.                       NO: One line per depth step
~Well Information Block
STRT.FT                 8.2500: 
STOP.FT              1156.2500: 
STEP.FT                 0.2500: 
NULL.                -999.2500: 
COMP.          Pioneer Natural Resources: COMPANY
WELL.              Davida 34-8: WELL
FLD.           Purgatoire River: FIELD
LOC.           418' FSL & 1923' FEL: LOCATION
CNTY.               Las Animas: COUNTY
SRVC.                Patterson: SERVICE COMPANY
DATE.          Thu Mar 30 09:09:42 2006: LOG DATE
UWI.           05 071 08722 00: UNIQUE WELL ID
STAT.                 Colorado: STATE
~Curve Information Block
DEPT.FT            0 000 00 00: Depth
GR.GAPI                       : Gamma Ray
CCL.                          : Casing Collar Locator
TT3.usec                      : CBL 3' Travel Time
AMP3.mV                       : CBL 3' Amplitude
~Parameter Information Block
~A  Depth        GR         CCL         TT3         AMP3    
# ...
   242.7500     75.5076      0.0000    701.2452      7.9834
   243.0000     74.0570      0.0000    706.4241      7.9794
   243.2500     73.2098      0.0000    709.1446      7.9656
   243.5000     72.7039      0.0000    709.7251      7.9501
   243.7500     71.2253      0.0000    708.4564      7.9397
   244.0000     67.4114      0.0000    705.7699      7.9396
   244.2500     61.0735      0.0000    702.7292      7.9556
   244.5000     53.6240      0.0000    700.8134      7.9921
   244.7500     47.1854      0.0000    700.8470      8.0484
   245.0000     43.1134      0.0000    702.3322      8.1174
   245.2500     41.3278      0.0000    704.0721      8.1885
   245.5000     40.8984      0.0000    705.2662      8.2508
   245.7500     40.9773      0.0000    705.8590      8.2941
   246.0000     41.0785      0.0000    706.1517      8.3098
   246.2500     40.8076      0.0000    706.3828      8.2962
   246.5000     39.8779      0.0000    706.6201      8.2587
   246.7500     38.4737      0.0000    706.8531      8.2037
   247.0000     37.2049      0.0000    707.0909      8.1310
   247.2500     36.4717      0.0000    707.3810      8.0373
   247.5000     36.0843      0.0000    707.7540      7.9225
   247.7500     35.6512      0.0000    708.1815      7.7926
   248.0000     35.1637      0.0000    708.5834      7.6579
   248.2500     35.0598      0.0000    708.8735      7.5287
   248.5000     35.9456      0.0000    709.0132      7.4124
   248.7500     38.4294      0.0000    709.0331      7.3106
   249.0000     42.8044      0.0000    708.9861      7.2214
   249.2500     48.3420      0.0000    708.8400      7.1442
   249.5000     53.1276      0.0000    708.3283      7.0830
   249.7500     55.2402      0.0000    706.8018      7.0444
   250.0000     54.1650      0.0000    703.2106      7.0273
   250.2500     50.8095      0.0000    696.6861      7.0173
   250.5000     46.4493      0.0000    687.9731      6.9911
   250.7500     42.0762      0.0000    680.6875      6.9271
   251.0000     38.4702      0.0000    680.3696      6.8108
   251.2500     36.2593      0.0000    690.7798      6.6409
   251.5000     35.8742      0.0000    710.2842      6.4422
   251.7500     37.8272      0.0000    732.3237      6.2636
   252.0000     43.0000      0.0000    750.0630      6.1450
   252.2500     52.1676     -3.0000    760.4224      6.0867
   252.5000     65.0049     -3.0000    763.6884      6.0616
   252.7500     79.8528      0.0000    760.8682      6.0518
   253.0000     94.6524      0.0000    752.9043      6.0748
   253.2500    107.7582      0.0000    741.7813      6.1792
   253.5000    117.7349      0.0000    730.8702      6.3957
   253.7500    123.2205      0.0000    723.3571      6.6756
   254.0000    123.8567      0.0000    720.3362      6.9003
   254.2500    120.9886      0.0000    721.1559      6.9866
   254.5000    116.7634      0.0000    725.6494      6.9616
   254.7500    112.7785      0.0000    734.7772      6.9114
   255.0000    109.8829      0.0000    748.3156      6.8862
   255.2500    108.5818      0.0000    762.5536      6.8783
   255.5000    108.9363      0.0000    771.2177      6.8614
   255.7500    110.4204      0.0000    769.2059      6.8242
   256.0000    112.3558      0.0000    756.1223      6.7734
   256.2500    114.2130      0.0000    736.9940      6.7202
   256.5000    115.2253      0.0000    719.3938      6.6722
   256.7500    114.1161      0.0000    708.8076      6.6321
   257.0000    109.6454      0.0000    706.0117      6.6014
   257.2500    101.4671      0.0000    708.4911      6.5817
   257.5000     90.4911      0.0000    713.8060      6.5737
   257.7500     78.5745      0.0000    721.1754      6.5760
   258.0000     67.7423      0.0000    730.1865      6.5849
   258.2500     59.2540      0.0000    738.9789      6.5942
   258.5000     53.1381      0.0000    744.6492      6.5977
   258.7500     48.6452      0.0000    745.6755      6.5905
   259.0000     45.2617      0.0000    743.3974      6.5706
   259.2500     43.2588      0.0000    740.8829      6.5422
   259.5000     43.1425      0.0000    740.8658      6.5173
   259.7500     44.7212      0.0000    744.7820      6.5096
   260.0000     47.0956      0.0000    752.7417      6.5238
   260.2500     49.6885      0.0000    763.5041      6.5509
   260.5000     52.9128      0.0000    774.5304      6.5756
   260.7500     57.4255      0.0000    782.5008      6.5873
   261.0000     62.8637      0.0000    784.2252      6.5836
   261.2500     67.8029      0.0000    777.8619      6.5693
   261.5000     70.9790      0.0000    764.2454      6.5555
   261.7500     72.1150      0.0000    747.2872      6.5580
   262.0000     71.4981      0.0000    732.3283      6.5934
   262.2500     69.3182      0.0000    723.1423      6.6746
   262.5000     65.9006      0.0000    720.0146      6.8073
   262.7500     62.4128      0.0000    720.5044      6.9890
   263.0000     60.7982      0.0000    722.1139      7.2093
   263.2500     62.6404      0.0000    724.1956      7.4522
   263.5000     68.1372      0.0000    727.1132      7.6983
   263.7500     76.2743      0.0000    729.9646      7.9279
   264.0000     85.7527      0.0000    730.1085      8.1255
   264.2500     95.4766      0.0000    725.1928      8.2816
   264.5000    104.4284      0.0000    714.9105      8.3914
   264.7500    111.6071      0.0000    700.9941      8.4507
   265.0000    116.3018      0.0000    687.0793      8.4531
   265.2500    118.4397      0.0000    678.7744      8.3921
   265.5000    118.7022      0.0000    681.4193      8.2647
   265.7500    118.2111      0.0000    695.9654      8.0778
   266.0000    117.8656      0.0000    717.7785      7.8535
   266.2500    117.6820      0.0000    740.4004      7.6257
   266.5000    116.6530      0.0000    759.8826      7.4255
   266.7500    113.6327      0.0000    775.2988      7.2687
   267.0000    108.8323      0.0000    786.7357      7.1551
   267.2500    104.2943      0.0000    794.2548      7.0779
   267.5000    102.4117      0.0000    798.3010      7.0272
   267.7500    103.8518      0.0000    799.7294      6.9889
   268.0000    107.1587      0.0000    798.9823      6.9467
   268.2500    110.3801      0.0000    795.3621      6.8897
   268.5000    112.7315      0.0000    787.5504      6.8187
   268.7500    114.6332      0.0000    775.8340      6.7462
   269.0000    116.6368      0.0000    764.1310      6.6892
   269.2500    118.6005      0.0000    758.2228      6.6571
   269.5000    119.6367      0.0000    760.1714      6.6456
   269.7500    118.7191      0.0000    765.5557      6.6418
   270.0000    115.6797      0.0000    768.2283      6.6343
   270.2500    111.9206      0.0000    767.2332      6.6203
   270.5000    109.9712      0.0000    767.1082      6.6034
   270.7500    111.8028      0.0000    771.6011      6.5884
   271.0000    117.2411      0.0000    778.9791      6.5774
   271.2500    123.9970      0.0000    783.9737      6.5729
   271.5000    129.2427      0.0000    782.7558      6.5776
   271.7500    131.2814      0.0000    775.2417      6.5917
   272.0000    130.0865      0.0000    763.8685      6.6109
   272.2500    126.7000      0.0000    751.5888      6.6325
   272.5000    122.3005      0.0000    741.3788      6.6619
   272.7500    117.7771      0.0000    736.5568      6.7099
   273.0000    113.9350      0.0000    739.8159      6.7840
   273.2500    111.6958      0.0000    751.0374      6.8805
   273.5000    111.7206      0.0000    766.2928      6.9835
   273.7500    113.8560      0.0000    779.6157      7.0724
   274.0000    117.1492      0.0000    785.8770      7.1357
   274.2500    120.4083      0.0000    782.6075      7.1797
   274.5000    122.7635      0.0000    770.9988      7.2208
   274.7500    123.8935      0.0000    756.6138      7.2686
   275.0000    123.9416      0.0000    747.5400      7.3166
   275.2500    123.2472      0.0000    748.9730      7.3515
   275.5000    122.1762      0.0000    759.1357      7.3672
   275.7500    121.0330      0.0000    771.5923      7.3702
   276.0000    119.8180      0.0000    781.1420      7.3733
