~Version Information
VERS.                      2.0: CWLS Log ASCII Standard - VERSION 2.0
WRAP.                       NO: One line per depth step
~Well Information Block
STRT.FT               520.0000: 
STOP.FT              2555.2000: 
STEP.FT                 0.1000: 
NULL.                -999.2500: 
COMP.          Pioneer Natural Resources: COMPANY
WELL.          Horsefeathers 24-34: WELL
FLD.           Purgatoire River: FIELD
LOC.           183' FSL & 1570' FWL--: LOCATION
CNTY.               Las Animas: COUNTY
SRVC.                Patterson: SERVICE COMPANY
DATE.          Mon Feb 06 08:03:40 2006: LOG DATE
UWI.           05 071 08675 00: UNIQUE WELL ID
STAT.                 Colorado: STATE
~Curve Information Block
DEPT.FT            0 000 00 00: Depth
DCAL.in                       : CDL Caliper
RHOB.g/cc                     : CDL Bulk Density
RHOC.g/cc                     : CDL Density Correction
DPOR.pu                       : CDL Density Porosity
NPOR.pu                       : Neutron Porosity
GR.GAPI                       : Gamma Ray
~Parameter Information Block
~A  Depth       DCAL        RHOB        RHOC        DPOR        NPOR         GR     
# ...
  1854.4000      7.9734      2.6121      0.1264      2.2994     19.1781     95.5603
  1854.5000      7.9751      2.6036      0.0919      2.8130     19.2237     85.8790
  1854.6000      7.9751      2.5919      0.0524      3.5201     19.6735     81.1281
  1854.7000      7.9751      2.5926      0.1009      3.4771     20.0829     85.8684
  1854.8000      7.9764      2.5981      0.1034      3.1427     20.0870     93.8787
  1854.9000      7.9764      2.5979      0.0884      3.1557     20.0149     97.7301
  1855.0000      7.9741      2.6000      0.0212      3.0288     20.0187     96.7336
  1855.1000      7.9741      2.6206      0.0354      1.7831     19.9881     92.5247
  1855.2000      7.9741      2.6594      0.0599     -0.5710     20.0377     86.5735
  1855.3000      7.9688      2.6946      0.0933     -2.7034     20.1960     81.9997
  1855.4000      7.9688      2.6968      0.1179     -2.8348     20.1921     81.0925
  1855.5000      7.9648      2.6635      0.0518     -0.8173     19.5628     83.0541
  1855.6000      7.9648      2.6246      0.0783      1.5368     18.6282     84.9642
  1855.7000      7.9648      2.6017      0.0712      2.9251     18.3277     84.4393
  1855.8000      7.9645      2.6002      0.0596      3.0158     18.6801     83.9829
  1855.9000      7.9645      2.6110      0.0931      2.3621     19.2947     86.0006
  1856.0000      7.9654      2.6115      0.1082      2.3340     19.8170     87.5826
  1856.1000      7.9654      2.5969      0.0411      3.2173     19.6223     86.3272
  1856.2000      7.9654      2.5847      0.0784      3.9570     18.9557     84.0098
  1856.3000      7.9625      2.5879      0.0781      3.7634     18.6453     81.4053
  1856.4000      7.9625      2.6105      0.0746      2.3969     18.7320     78.2852
  1856.5000      7.9581      2.6386      0.1378      0.6938     19.0537     76.1179
  1856.6000      7.9581      2.6451      0.0879      0.2945     19.3374     78.3255
  1856.7000      7.9581      2.6289      0.0757      1.2802     19.2191     86.1576
  1856.8000      7.9560      2.6097      0.0645      2.4445     19.0664     93.8640
  1856.9000      7.9560      2.6011      0.0714      2.9658     19.0524     93.8964
  1857.0000      7.9543      2.6059      0.0651      2.6730     18.9037     88.4097
  1857.1000      7.9543      2.6212      0.0779      1.7455     18.8452     84.6890
  1857.2000      7.9543      2.6374      0.0783      0.7612     18.7420     83.1799
  1857.3000      7.9523      2.6444      0.1463      0.3422     18.5121     82.7407
  1857.4000      7.9523      2.6458      0.0415      0.2530     18.7422     84.1944
  1857.5000      7.9501      2.6469      0.0811      0.1863     19.2207     88.6236
  1857.6000      7.9501      2.6315      0.0705      1.1184     19.2077     93.8954
  1857.7000      7.9501      2.5943      0.0562      3.3763     18.9741     94.3467
  1857.8000      7.9472      2.5554      0.0365      5.7308     19.2733     89.7753
  1857.9000      7.9472      2.5281      0.0476      7.3888     20.0595     85.4178
  1858.0000      7.9463      2.5068      0.0412      8.6760     20.8821     85.6663
  1858.1000      7.9463      2.4825      0.0518     10.1489     21.5514     93.2880
  1858.2000      7.9463      2.4551      0.0255     11.8132     22.4296    107.8863
  1858.3000      7.9516      2.4408      0.0104     12.6786     23.6468    124.1998
  1858.4000      7.9516      2.4474      0.0447     12.2783     24.6429    136.2673
  1858.5000      7.9737      2.4521      0.0777     11.9937     25.4390    144.6263
  1858.6000      7.9737      2.4362      0.0401     12.9556     26.4727    152.0714
  1858.7000      7.9737      2.4200      0.0181     13.9410     27.4746    158.9157
  1858.8000      8.0326      2.4306      0.0607     13.2986     28.1085    167.5602
  1858.9000      8.0326      2.4688      0.1027     10.9832     28.4739    174.6208
  1859.0000      8.1251      2.5253      0.2058      7.5580     28.4849    171.2692
  1859.1000      8.1251      2.5967      0.2267      3.2326     28.2028    162.2206
  1859.2000      8.1251      2.6738      0.2670     -1.4399     28.0352    158.5400
  1859.3000      8.1690      2.7253      0.3017     -4.5612     27.9573    159.8042
  1859.4000      8.1690      2.7324      0.2457     -4.9936     27.8716    164.3585
  1859.5000      8.1074      2.7189      0.2337     -4.1743     27.8641    174.1864
  1859.6000      8.1074      2.7135      0.2335     -3.8497     27.7438    182.1165
  1859.7000      8.1074      2.7206      0.2211     -4.2758     27.4783    182.6394
  1859.8000      8.0355      2.7227      0.1900     -4.4088     27.5255    180.7463
  1859.9000      8.0355      2.7005      0.1667     -3.0600     28.0687    177.4669
  1860.0000      8.0133      2.6576      0.0922     -0.4629     28.4146    169.2466
  1860.1000      8.0133      2.6191      0.0466      1.8709     27.9566    157.5001
  1860.2000      8.0133      2.5998      0.0450      3.0447     27.0958    145.9304
  1860.3000      8.0155      2.5880      0.0831      3.7601     26.6794    139.3084
  1860.4000      8.0155      2.5698      0.0386      4.8578     26.8842    142.2098
  1860.5000      8.0230      2.5592     -0.0204      5.5013     27.1611    150.2996
  1860.6000      8.0230      2.5699      0.0097      4.8517     27.4689    152.9498
  1860.7000      8.0230      2.5797      0.0275      4.2608     27.9855    151.4110
  1860.8000      8.0299      2.5612      0.0311      5.3837     28.3897    153.3317
  1860.9000      8.0299      2.5259     -0.0396      7.5193     28.4542    155.1644
  1861.0000      8.0350      2.5050     -0.0514      8.7903     27.9957    152.9825
  1861.1000      8.0350      2.5012      0.0180      9.0207     27.1589    153.0806
  1861.2000      8.0350      2.4933      0.0083      9.4954     26.5567    160.4547
  1861.3000      8.0411      2.4736      0.0145     10.6935     26.3764    167.7292
  1861.4000      8.0411      2.4530      0.0256     11.9400     26.6424    168.2664
  1861.5000      8.0523      2.4480     -0.0143     12.2408     27.1605    167.5301
  1861.6000      8.0523      2.4689      0.0234     10.9747     27.5084    170.1681
  1861.7000      8.0523      2.5099      0.0269      8.4924     27.6950    173.5608
  1861.8000      8.0647      2.5507      0.1073      6.0178     28.0539    175.6189
  1861.9000      8.0647      2.5735      0.1024      4.6367     28.5427    174.8947
  1862.0000      8.0722      2.5827      0.0856      4.0812     28.6321    169.5982
  1862.1000      8.0722      2.5883      0.1200      3.7389     28.1344    161.2064
  1862.2000      8.0722      2.5898      0.1199      3.6489     27.7347    152.4755
  1862.3000      8.0715      2.5897      0.1285      3.6532     27.5099    145.7038
  1862.4000      8.0715      2.5965      0.1216      3.2430     26.9823    143.1022
  1862.5000      8.0649      2.6127      0.1489      2.2624     26.7296    143.5923
  1862.6000      8.0649      2.6311      0.1302      1.1426     27.0161    145.3582
  1862.7000      8.0649      2.6410      0.1301      0.5446     27.1473    149.4044
  1862.8000      8.0585      2.6353      0.0961      0.8905     27.0061    155.2630
  1862.9000      8.0585      2.6197      0.0659      1.8363     26.8410    158.0003
  1863.0000      8.0550      2.6063      0.0566      2.6504     26.4821    155.9145
  1863.1000      8.0550      2.6008      0.0591      2.9793     26.0001    155.8802
  1863.2000      8.0550      2.6041      0.0741      2.7830     25.7057    155.4622
  1863.3000      8.0528      2.6143      0.0780      2.1614     25.7019    146.7768
  1863.4000      8.0528      2.6219      0.1112      1.7022     25.9253    138.8298
  1863.5000      8.0531      2.6112      0.0552      2.3539     26.0490    140.8703
  1863.6000      8.0531      2.5894      0.0009      3.6712     26.1792    142.8538
  1863.7000      8.0531      2.5882     -0.0180      3.7427     26.2796    136.7131
  1863.8000      8.0554      2.6118      0.0664      2.3170     25.8033    129.2728
  1863.9000      8.0554      2.6296      0.0633      1.2361     25.3359    126.0941
