~Version Information
VERS.                      2.0: CWLS Log ASCII Standard - VERSION 2.0
WRAP.                       NO: One line per depth step
~Well Information Block
STRT.FT               240.0000: 
STOP.FT              1185.5000: 
STEP.FT                 0.2500: 
NULL.                -999.2500: 
COMP.          Pioneer Natural Resources: COMPANY
WELL.          Whitecoat 14-36: WELL
FLD.           Purgatorie River: FIELD
LOC.           606' FSL & 260' FWL: LOCATION
PROV.                 Colorado: PROVINCE
CNTY.               Las Animas: COUNTRY
SRVC.                Patterson: SERVICE COMPANY
DATE.          Mon Dec 05 16:51:12 2005: LOG DATE
UWI.                          : UNIQUE WELL ID
~Curve Information Block
DEPT.FT            0 000 00 00: Depth
DIR.Ohm-m                     : IEL Induction Resistivity
GR.GAPI                       : Gamma Ray
~Parameter Information Block
~A  Depth       DIR          GR     
# ...
   797.5000     12.2718    135.3695
   797.7500     12.0422    136.5131
   798.0000     11.8453    136.9745
   798.2500     11.6672    136.9891
   798.5000     11.4880    137.3781
   798.7500     11.2928    138.0197
   799.0000     11.0759    139.3823
   799.2500     10.8370    140.4831
   799.5000     10.5775    142.4062
   799.7500     10.3022    143.7576
   800.0000     10.0239    145.5087
   800.2500      9.7626    146.3349
   800.5000      9.5364    146.9874
   800.7500      9.3526    146.9807
   801.0000      9.2041    146.2397
   801.2500      9.0756    145.4395
   801.5000      8.9525    144.6220
   801.7500      8.8289    144.8685
   802.0000      8.7089    146.7539
   802.2500      8.6023    148.7523
   802.5000      8.5189    151.9642
   802.7500      8.4646    153.7535
   803.0000      8.4409    155.4347
   803.2500      8.4455    155.8328
   803.5000      8.4734    155.4692
   803.7500      8.5171    154.6948
   804.0000      8.5680    152.8113
   804.2500      8.6196    151.0202
   804.5000      8.6717    147.5928
   804.7500      8.7291    145.2012
   805.0000      8.7964    142.5651
   805.2500      8.8731    141.8765
   805.5000      8.9543    142.1344
   805.7500      9.0355    142.4881
   806.0000      9.1185    142.1408
   806.2500      9.2081    141.0630
   806.5000      9.3053    138.5314
   806.7500      9.4012    136.7217
   807.0000      9.4787    134.8396
   807.2500      9.5226    134.7157
   807.5000      9.5273    136.6776
   807.7500      9.4991    139.0830
   808.0000      9.4495    143.0156
   808.2500      9.3886    145.2159
   808.5000      9.3221    147.6800
   808.7500      9.2529    148.8898
   809.0000      9.1851    149.8354
   809.2500      9.1249    149.5349
   809.5000      9.0795    147.5859
   809.7500      9.0535    145.8056
   810.0000      9.0477    143.6990
   810.2500      9.0605    143.0359
   810.5000      9.0904    142.6339
   810.7500      9.1368    142.1238
   811.0000      9.1994    140.3297
   811.2500      9.2762    138.5611
   811.5000      9.3639    135.8663
   811.7500      9.4603    134.5807
   812.0000      9.5669    133.9144
   812.2500      9.6888    134.2664
   812.5000      9.8319    135.6143
   812.7500     10.0005    136.8235
   813.0000     10.1945    138.6062
   813.2500     10.4100    139.4262
   813.5000     10.6391    139.8174
   813.7500     10.8732    139.7140
   814.0000     11.1085    139.6588
   814.2500     11.3514    139.9210
   814.5000     11.6190    140.6699
   814.7500     11.9294    141.1812
   815.0000     12.2868    141.5859
   815.2500     12.6704    141.4547
   815.5000     13.0389    140.4786
   815.7500     13.3543    139.2860
   816.0000     13.6087    136.9513
   816.2500     13.8329    135.3846
   816.5000     14.0783    133.7049
   816.7500     14.3900    133.2251
   817.0000     14.7883    133.0912
   817.2500     15.2622    132.8165
   817.5000     15.7727    131.1875
   817.7500     16.2665    129.1527
   818.0000     16.6943    125.2320
   818.2500     17.0244    122.6034
   818.5000     17.2446    119.6280
   818.7500     17.3561    118.7214
   819.0000     17.3700    119.1352
   819.2500     17.3070    120.2800
   819.5000     17.1960    122.4011
   819.7500     17.0737    123.5918
   820.0000     16.9836    124.4945
   820.2500     16.9734    124.4365
   820.5000     17.0849    123.7896
   820.7500     17.3390    123.4556
   821.0000     17.7221    123.7071
   821.2500     18.1859    124.3404
   821.5000     18.6623    125.3275
   821.7500     19.0803    125.5932
   822.0000     19.3784    125.1442
   822.2500     19.5163    124.3524
   822.5000     19.4921    122.4167
   822.7500     19.3517    120.3860
   823.0000     19.1703    115.7075
   823.2500     19.0187    111.4226
   823.5000     18.9434    103.7930
   823.7500     18.9762     98.6027
   824.0000     19.1531     92.1824
   824.2500     19.5124     89.5189
   824.5000     20.0650     88.0959
   824.7500     20.7568     88.3349
   825.0000     21.4571     89.5387
   825.2500     21.9964     90.8623
   825.5000     22.2476     94.0922
   825.7500     22.1950     97.0032
   826.0000     21.9425    101.3201
   826.2500     21.6604    103.3565
   826.5000     21.5098    104.8018
   826.7500     21.5883    105.1338
   827.0000     21.9128    105.4217
   827.2500     22.4422    105.4070
   827.5000     23.1226    104.4412
   827.7500     23.9151    102.9967
   828.0000     24.7812     99.9970
   828.2500     25.6411     97.7824
   828.5000     26.3606     94.4529
   828.7500     26.8052     92.2562
   829.0000     26.9312     89.0186
   829.2500     26.8283     86.9442
   829.5000     26.6666     84.0437
   829.7500     26.5934     82.3065
   830.0000     26.6609     80.1172
   830.2500     26.8125     78.9981
   830.5000     26.9235     77.9120
   830.7500     26.8683     77.6466
   831.0000     26.5899     78.0763
   831.2500     26.1394     78.9388
   831.5000     25.6567     80.9167
   831.7500     25.3015     82.4583
   832.0000     25.1772     84.5501
   832.2500     25.2885     85.5293
   832.5000     25.5494     86.5807
   832.7500     25.8421     87.6301
   833.0000     26.1028     90.7840
   833.2500     26.3672     93.8482
   833.5000     26.7264     98.3880
   833.7500     27.2229    100.3321
   834.0000     27.7737    100.6024
   834.2500     28.1818     99.0290
   834.5000     28.2420     94.9819
   834.7500     27.8696     92.0777
   835.0000     27.1442     88.9381
   835.2500     26.2453     88.0790
   835.5000     25.3648     88.2806
   835.7500     24.6568     88.7893
   836.0000     24.2194     88.9904
   836.2500     24.0778     88.3212
   836.5000     24.1748     86.1290
   836.7500     24.3893     84.4154
   837.0000     24.5927     82.8682
   837.2500     24.7015     83.1303
   837.5000     24.6819     85.6377
   837.7500     24.5115     88.4372
   838.0000     24.1641     93.5200
   838.2500     23.6458     96.8505
   838.5000     23.0333    100.4852
   838.7500     22.4583    101.4683
   839.0000     22.0478    100.7774
   839.2500     21.8776     99.4035
   839.5000     21.9714     97.1806
   839.7500     22.3258     96.0233
   840.0000     22.9284     94.6909
   840.2500     23.7441     93.7663
   840.5000     24.6876     92.0599
   840.7500     25.6122     90.8133
   841.0000     26.3446     88.9903
   841.2500     26.7577     87.7043
   841.5000     26.8324     85.2427
   841.7500     26.6584     83.1656
   842.0000     26.3728     79.8713
   842.2500     26.0797     77.9982
   842.5000     25.8048     76.0908
   842.7500     25.4978     75.3958
   843.0000     25.0752     75.1109
   843.2500     24.4782     75.4705
   843.5000     23.7183     76.9611
   843.7500     22.8881     78.5947
   844.0000     22.1286     81.9058
   844.2500     21.5751     84.5645
   844.5000     21.3185     88.7694
   844.7500     21.3902     91.2594
   845.0000     21.7546     93.7038
   845.2500     22.2999     94.2577
   845.5000     22.8415     93.7276
   845.7500     23.1747     92.7786
   846.0000     23.1773     90.9001
   846.2500     22.8943     89.5375
   846.5000     22.5153     87.6710
   846.7500     22.2599     86.7346
   847.0000     22.2662     85.9974
   847.2500     22.5468     85.9658
   847.5000     23.0165     86.4524
   847.7500     23.5640     86.9558
   848.0000     24.1180     87.5982
   848.2500     24.6572     87.7433
   848.5000     25.1705     87.3325
   848.7500     25.6284     86.6618
   849.0000     25.9977     85.3343
   849.2500     26.2732     84.4460
   849.5000     26.4911     83.2623
   849.7500     26.7044     82.4668
   850.0000     26.9371     81.0982
   850.2500     27.1436     80.2678
   850.5000     27.2016     79.8572
   850.7500     26.9683     80.3080
   851.0000     26.3864     81.4645
   851.2500     25.5605     82.0058
   851.5000     24.7164     81.9940
   851.7500     24.0718     81.4536
   852.0000     23.7279     80.0022
   852.2500     23.6450     78.7468
   852.5000     23.6933     76.8451
   852.7500     23.7347     75.8006
   853.0000     23.6767     74.6877
