~Version Information
VERS.                      2.0: CWLS Log ASCII Standard - VERSION 2.0
WRAP.                       NO: One line per depth step
~Well Information Block
STRT.FT                -8.0000: 
STOP.FT              1472.2500: 
STEP.FT                 0.2500: 
NULL.                -999.2500: 
COMP.          Pioneer Natural Resources: COMPANY
WELL.           Amore 32-09 Tr: WELL
FLD.           Purgatoire River: FIELD
LOC.           1941' FNL & 2297' FEL--: LOCATION
PROV.                       CO: PROVINCE
CNTY.               Las Animas: COUNTRY
SRVC.          Patterson Wireline: SERVICE COMPANY
DATE.          Tue Nov 22 11:37:00 2005: LOG DATE
UWI.           05 071 08584 00: UNIQUE WELL ID
~Curve Information Block
DEPT.FT            0 000 00 00: Depth
CCL.                          : Casing Collar Locator
TT3.usec                      : CBL 3' Travel Time
AMP3.mV                       : CBL 3' Amplitude
GR.GAPI                       : Gamma Ray
~Parameter Information Block
~A  Depth       CCL         TT3         AMP3         GR     
# ...
   963.5000      0.0000    802.9487      7.3679     69.9339
   963.7500      0.0000    833.2106      7.3337     66.6435
   964.0000      0.0000    860.4401      7.2497     63.2753
   964.2500      0.0000    879.0139      7.1208     60.9217
   964.5000      0.0000    887.8172      6.9782     60.2030
   964.7500      0.0000    886.7010      6.8630     60.8073
   965.0000      0.0000    873.8845      6.8087     62.1119
   965.2500      0.0000    849.3024      6.8268     63.9345
   965.5000      0.0000    818.1395      6.8957     66.6172
   965.7500      0.0000    788.3599      6.9676     70.7409
   966.0000      0.0000    765.5824      6.9985     76.8635
   966.2500      0.0000    751.1503      6.9827     85.2201
   966.5000      0.0000    743.5770      6.9577     95.3558
   966.7500      0.0000    740.4869      6.9713    105.8774
   967.0000      0.0000    739.7589      7.0392    114.5216
   967.2500      0.0000    739.9263      7.1278    118.8758
   967.5000      0.0000    740.1663      7.1811    117.7761
   967.7500      0.0000    740.1404      7.1730    112.5014
   968.0000      0.0000    739.8413      7.1298    106.3644
   968.2500      0.0000    739.4139      7.0950    102.4382
   968.5000      0.0000    738.9927      7.0853    101.4303
   968.7500      0.0000    738.6364      7.0927    102.0042
   969.0000      0.0000    738.3916      7.1163    102.9621
   969.2500      0.0000    738.4166      7.1710    104.3222
   969.5000      0.0000    739.0505      7.2661    106.2743
   969.7500      0.0000    740.6615      7.3862    108.2136
   970.0000      0.0000    743.1806      7.4978    109.3600
   970.2500      0.0000    745.7251      7.5681    109.6436
   970.5000      0.0000    747.0902      7.5787    109.4074
   970.7500      0.0000    747.0878      7.5311    108.6399
   971.0000      0.0000    747.2565      7.4440    106.9723
   971.2500      0.0000    749.7534      7.3397    104.3329
   971.5000      0.0000    755.3497      7.2320    101.2353
   971.7500      0.0000    762.5452      7.1256     98.5346
   972.0000      0.0000    768.5175      7.0241     97.3151
   972.2500      0.0000    770.8191      6.9410     98.7421
   972.5000      0.0000    768.4886      6.9001    103.1722
   972.7500      0.0000    762.2948      6.9197    109.2037
   973.0000      0.0000    754.3504      6.9918    114.3226
   973.2500      0.0000    747.0992      7.0791    116.8231
   973.5000      0.0000    742.1178      7.1405    116.7140
   973.7500      0.0000    739.6842      7.1597    114.7532
   974.0000      0.0000    739.3680      7.1511    111.4385
   974.2500      0.0000    740.7056      7.1416    107.3973
   974.5000      0.0000    743.1207      7.1522    104.0843
   974.7500      0.0000    745.4756      7.1926    103.1321
   975.0000      0.0000    746.3757      7.2585    104.7497
   975.2500      0.0000    745.3886      7.3241    107.2160
   975.5000      0.0000    743.8273      7.3468    108.3583
   975.7500      0.0000    744.0062      7.2980    107.4792
   976.0000      0.0000    747.5761      7.1919    105.6847
   976.2500      0.0000    754.2626      7.0723    104.5482
   976.5000      0.0000    761.7460      6.9760    104.6768
   976.7500      0.0000    766.7659      6.9170    105.2931
   977.0000      0.0000    766.9219      6.9035    105.0633
   977.2500      0.0000    762.0729      6.9496    103.5968
   977.5000      0.0000    754.6877      7.0579    102.1008
   977.7500      0.0000    749.2167      7.1955    102.1809
   978.0000      0.0000    750.7902      7.2932    104.2252
   978.2500      0.0000    763.0810      7.2731    107.5024
   978.5000      0.0000    785.4506      7.0970    111.4103
   978.7500      0.0000    811.5075      6.8087    115.5722
   979.0000      0.0000    831.7490      6.5146    118.6842
   979.2500      0.0000    839.2668      6.3003    118.4167
   979.5000      0.0000    834.0518      6.1836    113.2793
   979.7500      2.0000    822.8094      6.1567    104.5106
   980.0000      0.0000    814.4179      6.2445     95.7873
   980.2500      0.0000    812.8982      6.5009     90.7835
   980.5000      0.0000    813.6714      6.9473     90.7428
   980.7500      0.0000    808.7282      7.5028     94.1450
   981.0000      0.0000    795.6531      7.9742     98.4236
   981.2500      0.0000    779.2849      8.1563    101.8283
   981.5000      0.0000    765.3323      7.9852    104.0002
   981.7500      0.0000    755.5015      7.5873    105.4266
   982.0000      0.0000    748.7359      7.1668    106.6304
   982.2500      0.0000    744.0707      6.8604    107.7363
   982.5000      0.0000    741.1864      6.6953    108.5736
   982.7500      0.0000    739.7444      6.6376    108.9017
   983.0000      0.0000    739.2174      6.6447    108.3758
   983.2500      0.0000    739.1207      6.6841    106.5908
   983.5000      0.0000    739.1285      6.7362    103.5776
   983.7500      0.0000    739.0306      6.7929    100.1683
   984.0000      0.0000    738.7440      6.8528     97.4986
   984.2500      0.0000    738.3161      6.9200     96.1954
   984.5000      0.0000    737.8976      7.0056     96.2624
   984.7500      0.0000    737.6490      7.1178     97.3733
   985.0000      0.0000    737.6542      7.2426     98.7280
   985.2500      0.0000    737.8956      7.3419     98.8087
   985.5000      0.0000    738.2964      7.3837     96.0621
   985.7500      0.0000    738.8166      7.3703     90.3961
   986.0000      0.0000    739.5799      7.3308     83.9689
   986.2500      0.0000    740.9961      7.2896     80.0646
   986.5000      0.0000    743.7343      7.2486     80.8764
   986.7500      0.0000    748.2842      7.1915     86.3532
   987.0000      0.0000    754.2697      7.1009     94.9031
   987.2500      0.0000    760.3978      6.9790    104.3861
   987.5000      0.0000    765.5126      6.8548    112.2977
   987.7500      0.0000    769.4785      6.7686    116.2855
   988.0000      0.0000    772.5004      6.7489    115.7084
   988.2500      0.0000    773.7173      6.8032    112.3137
   988.5000      0.0000    771.1786      6.9176    108.6392
   988.7500      0.0000    763.6988      7.0546    105.9650
   989.0000      0.0000    752.8375      7.1591    104.0169
   989.2500      0.0000    742.6164      7.1897    102.0711
   989.5000      0.0000    736.5989      7.1509     99.8955
   989.7500      0.0000    735.2603      7.0872     97.7814
   990.0000      0.0000    736.4817      7.0431     96.0385
   990.2500      0.0000    738.0322      7.0327     94.8220
   990.5000      0.0000    739.0162      7.0476     94.5819
   990.7500      0.0000    739.5320      7.0830     96.2805
   991.0000      0.0000    739.8632      7.1464    100.6141
   991.2500      0.0000    740.1493      7.2380    107.0730
   991.5000      0.0000    740.4238      7.3291    114.1664
   991.7500      0.0000    740.6017      7.3710    120.3701
   992.0000      0.0000    740.1494      7.3347    124.4832
   992.2500      0.0000    737.5968      7.2459    125.5188
   992.5000      0.0000    730.8596      7.1696    123.0293
   992.7500      0.0000    719.1224      7.1488    117.4942
   993.0000      0.0000    705.0011      7.1672    110.0692
   993.2500      0.0000    694.1251      7.1830    102.1654
   993.5000      0.0000    691.5464      7.1847     95.2993
   993.7500      0.0000    698.1200      7.1981     90.8419
   994.0000      0.0000    710.1351      7.2419     89.5207
   994.2500      0.0000    722.1525      7.2985     91.1695
   994.5000      0.0000    730.2259      7.3296     95.1663
   994.7500      0.0000    732.8717      7.3161    101.1582
   995.0000      0.0000    729.9017      7.2751    109.0044
   995.2500      0.0000    721.4464      7.2366    117.9915
   995.5000      0.0000    708.5850      7.2076    126.7344
   995.7500      0.0000    694.3667      7.1705    133.9001
   996.0000      0.0000    683.2503      7.1169    138.3686
   996.2500      0.0000    679.0903      7.0645    138.9124
   996.5000      0.0000    683.3701      7.0333    134.7349
   996.7500      0.0000    694.6064      7.0218    126.5106
