~Version Information
VERS.                      2.0: CWLS Log ASCII Standard - VERSION 2.0
WRAP.                       NO: One line per depth step
~Well Information Block
STRT.FT               428.8000: 
STOP.FT               951.7000: 
STEP.FT                 0.1000: 
NULL.                -999.2500: 
COMP.          Pioneer Natural Resources: COMPANY
WELL.          Sculpin 32-30 Tr: WELL
FLD.           Purgatoire River: FIELD
LOC.           1600' FNL & 1857' FEL--: LOCATION
CNTY.               Las Animas: COUNTY
SRVC.                Patterson: SERVICE COMPANY
DATE.          Wed Jul 19 09:12:32 2006: LOG DATE
UWI.           05 071 08706 00: UNIQUE WELL ID
STAT.                 Colorado: STATE
~Curve Information Block
DEPT.FT            0 000 00 00: Depth
DCAL.in                       : CDL Caliper
RHOB.g/cc                     : CDL Bulk Density
RHOC.g/cc                     : CDL Density Correction
DPOR.pu                       : CDL Density Porosity
GR.GAPI                       : Gamma Ray
~Parameter Information Block
~A  Depth       DCAL        RHOB        RHOC        DPOR         GR     
# ...
   731.2000      7.9722      2.5743      0.0434      4.5884     72.6895
   731.3000      7.9763      2.5581      0.0264      5.5675     73.7920
   731.4000      7.9763      2.5443      0.0916      6.4045     74.7458
   731.5000      7.9845      2.5310     -0.0246      7.2092     77.7955
   731.6000      7.9845      2.5406      0.0071      6.6285     81.2881
   731.7000      7.9845      2.5767      0.0740      4.4408     82.2794
   731.8000      7.9876      2.6053      0.1106      2.7061     83.5370
   731.9000      7.9876      2.6042      0.0695      2.7754     85.7018
   732.0000      7.9852      2.5912      0.0417      3.5664     85.1484
   732.1000      7.9852      2.5872      0.0577      3.8091     82.6930
   732.2000      7.9852      2.5839      0.0892      4.0089     82.5561
   732.3000      7.9844      2.5704      0.0848      4.8241     84.5546
   732.4000      7.9844      2.5565      0.0300      5.6660     85.1122
   732.5000      7.9843      2.5509      0.0765      6.0084     83.8012
   732.6000      7.9843      2.5461      0.0324      6.2966     83.4250
   732.7000      7.9843      2.5324      0.0704      7.1248     82.7853
   732.8000      7.9824      2.5095     -0.0109      8.5141     79.8872
   732.9000      7.9824      2.4859      0.0147      9.9443     77.2831
   733.0000      7.9820      2.4669     -0.0260     11.0966     76.6634
   733.1000      7.9820      2.4563      0.0140     11.7419     77.5505
   733.2000      7.9820      2.4588     -0.0139     11.5897     78.5366
   733.3000      7.9838      2.4706      0.0470     10.8699     77.1947
   733.4000      7.9838      2.4772      0.0637     10.4698     73.7452
   733.5000      7.9856      2.4770      0.0627     10.4850     71.5184
   733.6000      7.9856      2.4754      0.0857     10.5812     70.5214
   733.7000      7.9856      2.4691      0.0712     10.9607     67.9499
   733.8000      7.9870      2.4590      0.0689     11.5736     63.8097
   733.9000      7.9870      2.4531      0.0448     11.9349     60.7011
   734.0000      7.9857      2.4517      0.0496     12.0170     60.9727
   734.1000      7.9857      2.4433      0.0700     12.5261     62.4023
   734.2000      7.9857      2.4314      0.0168     13.2513     62.5779
   734.3000      7.9844      2.4370      0.0515     12.9068     61.2596
   734.4000      7.9844      2.4567      0.1145     11.7180     58.0458
   734.5000      7.9873      2.4665      0.0797     11.1187     54.0882
   734.6000      7.9873      2.4614      0.0894     11.4315     50.1671
   734.7000      7.9873      2.4497      0.0610     12.1424     47.3280
   734.8000      7.9898      2.4383      0.0929     12.8282     47.3719
   734.9000      7.9898      2.4341      0.0427     13.0848     48.8546
   735.0000      7.9886      2.4375      0.0719     12.8795     49.1484
   735.1000      7.9886      2.4375      0.0489     12.8772     49.0354
   735.2000      7.9886      2.4312      0.0547     13.2592     51.0068
   735.3000      7.9866      2.4256      0.0682     13.5984     54.2278
   735.4000      7.9866      2.4259      0.0877     13.5827     55.4723
   735.5000      7.9876      2.4341      0.0654     13.0840     54.0647
   735.6000      7.9876      2.4443      0.0828     12.4689     51.2779
   735.7000      7.9876      2.4461      0.0504     12.3602     50.5745
   735.8000      7.9917      2.4432      0.0587     12.5312     53.7503
   735.9000      7.9917      2.4471      0.0753     12.2961     57.5986
   736.0000      7.9977      2.4589      0.0868     11.5802     59.7395
   736.1000      7.9977      2.4674      0.0839     11.0694     62.3054
   736.2000      7.9977      2.4660      0.0677     11.1518     65.8161
   736.3000      8.0030      2.4607      0.0986     11.4751     64.8763
   736.4000      8.0030      2.4544      0.0651     11.8547     59.1698
   736.5000      8.0061      2.4460      0.0431     12.3645     55.2209
   736.6000      8.0061      2.4362      0.0340     12.9563     56.2896
   736.7000      8.0061      2.4275      0.0093     13.4840     59.7062
   736.8000      8.0077      2.4190      0.0503     13.9999     61.3213
   736.9000      8.0077      2.4115      0.0091     14.4541     59.9783
   737.0000      8.0074      2.4133      0.0390     14.3460     56.7768
   737.1000      8.0074      2.4255      0.0638     13.6058     53.6441
   737.2000      8.0074      2.4342      0.0842     13.0767     51.5621
   737.3000      8.0075      2.4301      0.0763     13.3286     50.8329
   737.4000      8.0075      2.4228      0.0445     13.7727     51.0609
   737.5000      8.0085      2.4196      0.0604     13.9626     49.8629
   737.6000      8.0085      2.4113      0.0540     14.4683     46.9341
   737.7000      8.0085      2.3962      0.0405     15.3800     45.8058
   737.8000      8.0092      2.3910      0.0032     15.6956     48.7868
   737.9000      8.0092      2.4004      0.0441     15.1265     53.3461
   738.0000      8.0086      2.4062      0.0615     14.7753     54.5363
   738.1000      8.0086      2.3984      0.0336     15.2511     50.7363
   738.2000      8.0086      2.3860      0.0069     15.9992     44.7910
   738.3000      8.0085      2.3810     -0.0053     16.3024     41.5375
   738.4000      8.0085      2.3860      0.0272     16.0006     43.1857
   738.5000      8.0077      2.3923      0.0490     15.6195     47.2320
   738.6000      8.0077      2.3943      0.0510     15.4961     49.9157
   738.7000      8.0077      2.3975      0.0385     15.3008     48.5379
   738.8000      8.0058      2.4044      0.0628     14.8824     43.7383
   738.9000      8.0058      2.4090      0.0701     14.6045     39.0006
   739.0000      8.0057      2.4100      0.0401     14.5453     36.6149
   739.1000      8.0057      2.4094      0.0635     14.5792     36.2656
   739.2000      8.0057      2.4057      0.0491     14.8080     36.2962
   739.3000      8.0068      2.3979      0.0670     15.2774     36.0997
   739.4000      8.0068      2.3896      0.0375     15.7820     36.1304
   739.5000      8.0071      2.3882      0.0217     15.8695     36.0217
   739.6000      8.0071      2.3957      0.0222     15.4135     35.5564
   739.7000      8.0071      2.4043      0.0342     14.8894     36.9197
   739.8000      8.0077      2.4077      0.0254     14.6835     41.5073
   739.9000      8.0077      2.4138      0.0110     14.3126     46.9941
   740.0000      8.0086      2.4269      0.0683     13.5191     50.4009
   740.1000      8.0086      2.4330      0.0631     13.1494     49.9580
   740.2000      8.0086      2.4281      0.0497     13.4464     46.7069
   740.3000      8.0096      2.4271      0.0312     13.5121     44.3591
   740.4000      8.0096      2.4377      0.0443     12.8661     45.2274
   740.5000      8.0064      2.4496      0.0878     12.1473     47.3161
   740.6000      8.0064      2.4520      0.0723     12.0016     48.7439
   740.7000      8.0064      2.4523      0.0728     11.9793     49.7390
   740.8000      7.9959      2.4577      0.0907     11.6522     48.4944
   740.9000      7.9959      2.4630      0.0858     11.3360     44.5991
   741.0000      7.9848      2.4702      0.0492     10.8942     41.5157
   741.1000      7.9848      2.4862      0.0860      9.9290     42.1577
   741.2000      7.9848      2.4987      0.1093      9.1673     46.7475
   741.3000      7.9798      2.4945      0.0520      9.4247     51.9358
   741.4000      7.9798      2.4829      0.0449     10.1268     53.7758
   741.5000      7.9809      2.4723      0.0892     10.7679     52.6272
   741.6000      7.9809      2.4578      0.0480     11.6496     50.8707
   741.7000      7.9809      2.4457      0.0072     12.3805     48.8347
   741.8000      7.9853      2.4465      0.0270     12.3322     47.5580
   741.9000      7.9853      2.4540      0.0608     11.8769     50.5116
   742.0000      7.9868      2.4576      0.0527     11.6612     57.4091
   742.1000      7.9868      2.4568      0.0441     11.7080     62.3426
   742.2000      7.9868      2.4606      0.0215     11.4766     62.7538
   742.3000      7.9849      2.4742      0.0391     10.6538     61.9729
