~Version Information
VERS.                      2.0: CWLS Log ASCII Standard - VERSION 2.0
WRAP.                       NO: One line per depth step
~Well Information Block
STRT.FT                10.0000: 
STOP.FT               907.0000: 
STEP.FT                 0.1000: 
NULL.                -999.2500: 
COMP.          Pioneer Natural Resources: COMPANY
WELL.           Hartford 31-18: WELL
FLD.           Purgatorie River: FIELD
LOC.           375' FNL & 1660' FEL: LOCATION
PROV.                 Colorado: PROVINCE
CNTY.               Las Animas: COUNTRY
SRVC.                Patterson: SERVICE COMPANY
DATE.          Mon Nov 21 07:39:41 2005: LOG DATE
UWI.            05-071-08555              : UNIQUE WELL ID
~Curve Information Block
DEPT.FT            0 000 00 00: Depth
DCAL.in                       : CDL Caliper
RHOB.g/cc                     : CDL Bulk Density
RHOC.g/cc                     : CDL Density Correction
DPOR.pu                       : CDL Density Porosity
GR.GAPI                       : Gamma Ray
NPOR.pu                       : Neutron Porosity
~Parameter Information Block
~A  Depth       DCAL        RHOB        RHOC        DPOR         GR         NPOR    
# ...
   250.0000     -3.1029      2.0181      2.5896     -0.0126    181.0045     24.4069
   250.1000     -3.1029      2.0238      2.5774     -0.0125    185.7260     24.6619
   250.2000     -3.1029      2.0353      2.6098     -0.0123    188.4700     24.9484
   250.3000     -3.1029      2.0427      2.6389     -0.0122    185.4503     25.2480
   250.4000     -3.1029      2.0421      2.6005     -0.0122    179.1998     25.5830
   250.5000     -3.1029      2.0402      2.6053     -0.0122    174.1583     25.7048
   250.6000     -3.1029      2.0407      2.5933     -0.0122    173.6295     25.4261
   250.7000     -3.1029      2.0460      2.5919     -0.0121    178.5584     25.0061
   250.8000     -3.1029      2.0566      2.6177     -0.0119    183.8063     24.7569
   250.9000     -3.1029      2.0719      2.5664     -0.0116    182.0792     24.7137
   251.0000     -3.1029      2.0882      2.6422     -0.0112    172.8830     24.6944
   251.1000     -3.1029      2.0943      2.6434     -0.0111    163.8600     24.5547
   251.2000     -3.1029      2.0957      2.5826     -0.0111    160.2159     24.4911
   251.3000     -3.1029      2.1101      2.6200     -0.0108    158.5455     24.7067
   251.4000     -3.1029      2.1310      2.6633     -0.0104    155.6899     24.9670
   251.5000     -3.1029      2.1401      2.6604     -0.0102    152.4257     24.8748
   251.6000     -3.1029      2.1284      2.6373     -0.0104    150.5051     24.4515
   251.7000     -3.1029      2.0983      2.6091     -0.0110    151.8309     24.0621
   251.8000     -3.1029      2.0680      2.5936     -0.0116    155.3386     23.7804
   251.9000     -3.1029      2.0537      2.5903     -0.0119    156.3380     23.4066
   252.0000     -3.1029      2.0543      2.5823     -0.0119    153.4629     22.8877
   252.1000     -3.1029      2.0562      2.6332     -0.0119    151.5767     22.4511
   252.2000     -3.1029      2.0484      2.5860     -0.0120    153.6261     22.2156
   252.3000     -3.1029      2.0367      2.5769     -0.0123    155.1942     21.8611
   252.4000     -3.1029      2.0318      2.5691     -0.0124    151.4824     21.3302
   252.5000     -3.1029      2.0344      2.5993     -0.0123    144.8744     20.9392
   252.6000     -3.1029      2.0411      2.5706     -0.0122    141.2409     20.9222
   252.7000     -3.1029      2.0514      2.6098     -0.0120    142.5785     21.1306
   252.8000     -3.1029      2.0589      2.6179     -0.0118    145.9939     21.2714
   252.9000     -3.1029      2.0553      2.6168     -0.0119    148.3175     21.5328
   253.0000     -3.1029      2.0410      2.6071     -0.0122    148.3771     22.0271
   253.1000     -3.1029      2.0271      2.5644     -0.0125    147.1294     22.3676
   253.2000     -3.1029      2.0273      2.5792     -0.0125    146.8991     22.2900
   253.3000     -3.1029      2.0388      2.6239     -0.0122    150.3544     21.9872
   253.4000     -3.1029      2.0476      2.5931     -0.0121    158.2564     21.9360
   253.5000     -3.1029      2.0497      2.6008     -0.0120    167.5621     22.3124
   253.6000     -3.1029      2.0458      2.6196     -0.0121    172.1640     22.8195
   253.7000     -3.1029      2.0382      2.5718     -0.0122    171.8237     23.1682
   253.8000     -3.1029      2.0358      2.5865     -0.0123    175.1562     23.4830
   253.9000     -3.1029      2.0399      2.6119     -0.0122    183.3720     23.8656
   254.0000     -3.1029      2.0414      2.6055     -0.0122    187.3245     23.8960
   254.1000     -3.1029      2.0391      2.5699     -0.0122    183.1596     23.5456
   254.2000     -3.1029      2.0400      2.6113     -0.0122    177.2277     23.2887
   254.3000     -3.1029      2.0468      2.5679     -0.0121    173.2279     23.4401
   254.4000     -3.1029      2.0563      2.6213     -0.0119    171.1493     24.0682
   254.5000     -3.1029      2.0626      2.6031     -0.0118    175.3427     24.7568
   254.6000     -3.1029      2.0663      2.5941     -0.0117    186.0076     24.9625
   254.7000     -3.1029      2.0709      2.6031     -0.0116    193.8020     24.8898
   254.8000     -3.1029      2.0746      2.6187     -0.0115    194.2430     24.8667
   254.9000     -3.1029      2.0756      2.6070     -0.0115    192.8915     24.7833
   255.0000     -3.1029      2.0728      2.6417     -0.0116    192.5314     24.5483
   255.1000     -3.1029      2.0628      2.6295     -0.0118    191.4565     24.3302
   255.2000     -3.1029      2.0516      2.5767     -0.0120    187.9157     24.3595
   255.3000     -3.1029      2.0519      2.5812     -0.0120    181.6902     24.6484
   255.4000     -3.1029      2.0590      2.6586     -0.0118    178.4852     24.9032
   255.5000     -3.1029      2.0568      2.6298     -0.0119    180.9354     24.8947
   255.6000     -3.1029      2.0447      2.5990     -0.0121    182.7684     24.7372
   255.7000     -3.1029      2.0352      2.5672     -0.0123    181.7108     24.6406
   255.8000     -3.1029      2.0356      2.5709     -0.0123    183.2176     24.6148
   255.9000     -3.1029      2.0435      2.5872     -0.0121    189.9949     24.7281
   256.0000     -3.1029      2.0550      2.5898     -0.0119    197.4290     25.0366
   256.1000     -3.1029      2.0670      2.6072     -0.0117    199.1261     24.7183
   256.2000     -3.1029      2.0742      2.6021     -0.0115    193.1543     23.0664
   256.3000     -3.1029      2.0781      2.5927     -0.0114    183.6471     21.7731
   256.4000     -3.1029      2.0831      2.6253     -0.0113    178.0083     22.8606
   256.5000     -3.1029      2.0856      2.6407     -0.0113    178.3021     24.9718
   256.6000     -3.1029      2.0846      2.6113     -0.0113    179.3616     25.9108
   256.7000     -3.1029      2.0824      2.6241     -0.0114    179.2605     25.6006
   256.8000     -3.1029      2.0768      2.6181     -0.0115    179.5515     24.8960
   256.9000     -3.1029      2.0698      2.6058     -0.0116    180.0108     24.5830
   257.0000     -3.1029      2.0654      2.6020     -0.0117    181.5829     24.9821
   257.1000     -3.1029      2.0625      2.5960     -0.0118    182.9949     25.7589
   257.2000     -3.1029      2.0606      2.6093     -0.0118    180.7534     26.5897
   257.3000     -3.1029      2.0615      2.5907     -0.0118    175.7458     27.0448
   257.4000     -3.1029      2.0675      2.5941     -0.0117    171.5743     26.6812
   257.5000     -3.1029      2.0791      2.6021     -0.0114    173.5140     25.9359
   257.6000     -3.1029      2.0915      2.6280     -0.0112    181.6892     25.4200
   257.7000     -3.1029      2.0978      2.6169     -0.0110    186.6330     25.3149
   257.8000     -3.1029      2.0954      2.6033     -0.0111    182.3709     25.6407
   257.9000     -3.1029      2.0855      2.6340     -0.0113    174.7507     26.0520
   258.0000     -3.1029      2.0736      2.6060     -0.0115    172.2212     26.1912
   258.1000     -3.1029      2.0690      2.5833     -0.0116    173.9489     26.1516
   258.2000     -3.1029      2.0733      2.6010     -0.0115    174.8644     25.9372
   258.3000     -3.1029      2.0822      2.5793     -0.0114    174.8937     25.4273
   258.4000     -3.1029      2.0940      2.6215     -0.0111    175.9250     24.9799
   258.5000     -3.1029      2.0997      2.6556     -0.0110    174.6867     24.9257
   258.6000     -3.1029      2.0941      2.6181     -0.0111    168.9171     24.9203
   258.7000     -3.1029      2.0862      2.6104     -0.0113    165.0143     24.5330
   258.8000     -3.1029      2.0808      2.6160     -0.0114    168.2217     24.1634
   258.9000     -3.1029      2.0731      2.5990     -0.0115    172.1406     24.3656
   259.0000     -3.1029      2.0650      2.5754     -0.0117    170.6057     24.8363
   259.1000     -3.1029      2.0608      2.5905     -0.0118    167.6196     25.0011
   259.2000     -3.1029      2.0587      2.5826     -0.0118    167.0510     24.9428
   259.3000     -3.1029      2.0569      2.5912     -0.0119    167.2283     25.0698
   259.4000     -3.1029      2.0554      2.6159     -0.0119    168.3251     25.3099
   259.5000     -3.1029      2.0545      2.6128     -0.0119    172.4977     25.5517
