~Version Information
VERS.                      2.0: CWLS Log ASCII Standard - VERSION 2.0
WRAP.                       NO: One line per depth step
~Well Information Block
STRT.FT                65.0000: 
STOP.FT               998.0000: 
STEP.FT                 0.2500: 
NULL.                -999.2500: 
COMP.          Pioneer Natural Resources: COMPANY
WELL.              Gough 14-29: WELL
FLD.           Purgatorie River: FIELD
LOC.           1199' FSL & 676' FWL: LOCATION
PROV.                 Colorado: PROVINCE
CNTY.               Las Animas: COUNTRY
SRVC.                Patterson: SERVICE COMPANY
DATE.          Wed Dec 28 08:38:26 2005: LOG DATE
UWI.                          : UNIQUE WELL ID
~Curve Information Block
DEPT.FT            0 000 00 00: Depth
CCL.                          : Casing Collar Locator
TT3.usec                      : CBL 3' Travel Time
AMP3.mV                       : CBL 3' Amplitude
GR.GAPI                       : Gamma Ray
~Parameter Information Block
~A  Depth       CCL         TT3         AMP3         GR     
# ...
   433.5000      0.0000    733.0126     12.9499    113.4354
   433.7500      0.0000    738.1255     12.9122    107.3378
   434.0000      0.0000    735.9413     12.8543    102.0349
   434.2500      0.0000    705.2554     12.8066     99.6267
   434.5000      0.0000    639.4666     12.8240    101.3099
   434.7500      0.0000    575.1349     12.8769    106.8687
   435.0000      0.0000    566.2002     12.8891    114.3829
   435.2500      0.0000    616.8865     12.8515    120.6965
   435.5000      0.0000    681.1869     12.7960    122.9498
   435.7500      0.0000    725.7122     12.7211    120.2561
   436.0000      0.0000    750.2109     12.6269    114.1915
   436.2500      0.0000    763.0468     12.5527    107.7265
   436.5000      0.0000    768.6872     12.5367    103.4699
   436.7500      0.0000    768.4411     12.5796    102.5261
   437.0000      0.0000    758.1289     12.6651    104.5276
   437.2500      0.0000    729.5469     12.7868    108.2900
   437.5000      0.0000    688.7346     12.9274    112.3701
   437.7500      0.0000    667.6597     13.0432    115.4696
   438.0000      0.0000    688.2216     13.0979    116.8115
   438.2500      0.0000    728.7905     13.0794    116.3725
   438.5000      0.0000    757.6628     12.9876    114.7668
   438.7500      0.0000    769.0896     12.8438    112.7570
   439.0000      0.0000    772.0678     12.6998    110.7674
   439.2500      0.0000    772.7838     12.6011    108.8876
   439.5000      0.0000    772.9966     12.5563    107.3849
   439.7500      0.0000    773.0264     12.5483    107.2100
   440.0000      0.0000    772.8979     12.5631    109.7778
   440.2500      0.0000    772.2344     12.6066    115.8187
   440.5000      0.0000    770.1028     12.6904    124.3503
   440.7500      0.0000    765.4498     12.8071    133.0463
   441.0000      0.0000    758.4686     12.9352    139.8058
   441.2500      0.0000    750.9941     13.0567    143.9831
   441.5000      0.0000    744.1688     13.1623    146.2931
   441.7500      0.0000    738.3109     13.2624    148.0152
   442.0000      0.0000    735.5207     13.3904    150.4348
   442.2500      0.0000    736.9144     13.5640    154.2766
   442.5000      0.0000    739.4852     13.7543    158.8297
   442.7500      0.0000    741.5668     13.9181    161.9779
   443.0000      0.0000    746.2301     14.0546    161.9010
   443.2500      0.0000    753.9736     14.2174    158.6285
   443.5000      0.0000    759.4606     14.4504    153.4855
   443.7500      0.0000    759.7537     14.7066    147.3131
   444.0000      0.0000    759.0526     14.8756    139.8587
   444.2500      0.0000    761.5811     14.9096    130.8407
   444.5000      0.0000    764.0659     14.8602    121.0861
   444.7500      0.0000    758.3290     14.7970    112.5036
   445.0000      0.0000    741.2433     14.7576    107.2820
   445.2500      0.0000    722.3365     14.7521    107.1169
   445.5000      0.0000    714.5171     14.7670    112.6774
   445.7500      0.0000    718.3383     14.7532    123.0204
   446.0000      0.0000    726.2941     14.6253    135.2523
   446.2500      0.0000    733.4826     14.3257    145.3377
   446.5000      0.0000    736.6057     13.9287    150.1968
   446.7500      0.0000    734.1233     13.5788    149.6134
   447.0000      0.0000    729.2950     13.2949    146.1233
   447.2500      0.0000    726.1543     12.9866    142.8970
   447.5000      0.0000    725.2494     12.6365    141.5501
   447.7500      0.0000    725.5376     12.3153    141.5571
   448.0000      0.0000    727.2125     12.0674    141.2717
   448.2500      0.0000    732.2023     11.8912    139.3390
   448.5000      0.0000    741.9727     11.7788    135.5542
   448.7500      0.0000    754.2155     11.6856    131.1544
   449.0000      0.0000    763.9736     11.5282    128.5915
   449.2500      0.0000    768.7667     11.3012    130.1922
   449.5000      0.0000    769.9702     11.1187    136.1210
   449.7500      0.0000    769.8427     11.0600    143.5930
   450.0000      0.0000    769.3291     11.0730    148.6410
   450.2500      0.0000    767.7250     11.0768    148.9900
   450.5000      0.0000    763.1998     11.0626    145.4745
   450.7500      0.0000    755.0763     11.0541    141.1152
   451.0000      0.0000    746.6063     11.0411    139.1414
   451.2500      0.0000    742.0720     10.9895    141.5114
   451.5000      0.0000    741.1039     10.8810    148.3505
   451.7500      0.0000    741.7540     10.7404    158.1144
   452.0000      0.0000    745.1211     10.6270    168.2562
   452.2500      0.0000    750.2480     10.5894    176.3729
   452.5000      0.0000    752.6054     10.6535    181.4632
   452.7500      0.0000    751.4452     10.8163    184.0797
   453.0000      0.0000    750.6856     10.9938    184.7339
   453.2500      0.0000    753.5379     11.0532    182.3801
   453.5000      0.0000    760.3466     10.9663    175.1690
   453.7500      0.0000    768.9775     10.8429    162.6436
   454.0000      0.0000    776.7582     10.7818    146.8154
   454.2500      0.0000    782.7814     10.7903    131.1348
   454.5000      0.0000    789.6188     10.8451    118.5174
   454.7500      0.0000    800.8109     10.9370    110.0731
   455.0000      0.0000    812.9963     11.0688    105.3583
   455.2500      0.0000    816.9194     11.2539    103.4172
   455.5000      0.0000    809.3613     11.4679    103.2256
   455.7500      0.0000    796.3020     11.5948    103.6040
   456.0000      0.0000    785.2165     11.5206    103.6824
   456.2500      0.0000    780.0676     11.2940    103.7495
   456.5000      0.0000    780.6725     11.0873    105.1259
   456.7500      0.0000    783.9960     11.0060    108.9222
   457.0000      0.0000    787.1996     11.0241    114.9511
   457.2500      0.0000    788.5744     11.0747    121.5940
   457.5000      0.0000    786.6099     11.1223    126.4178
   457.7500      0.0000    781.7303     11.1581    127.2950
   458.0000      0.0000    776.5678     11.1834    123.7330
   458.2500      0.0000    771.1257     11.2289    117.4378
   458.5000      0.0000    757.9656     11.3921    111.2512
   458.7500      0.0000    724.7490     11.7669    107.1479
   459.0000      0.0000    673.5986     12.2319    105.2155
   459.2500      0.0000    638.5315     12.3401    104.4386
   459.5000      0.0000    654.0763     11.6108    104.0600
   459.7500      0.0000    710.0504     10.1367    103.8756
   460.0000      0.0000    770.8188      8.6831    103.5041
   460.2500      0.0000    817.2184      7.8811    102.1870
   460.5000      0.0000    846.5004      7.6643     99.7188
   460.7500     -2.0000    862.6031      7.6694     97.0026
   461.0000      2.0000    882.5159      7.7053     95.1480
   461.2500      0.0000    918.2504      7.7303     94.4387
   461.5000      0.0000    944.2784      7.7546     94.5982
   461.7500      0.0000    923.9805      7.9035     95.5053
   462.0000      0.0000    863.7897      8.3647     96.9753
   462.2500      0.0000    805.8086      9.0925     98.0498
   462.5000      0.0000    778.1630      9.7813     97.2432
   462.7500      0.0000    775.9845     10.2500     93.7639
   463.0000      0.0000    780.9666     10.5307     88.2269
   463.2500      0.0000    783.7727     10.6535     82.0512
   463.5000      0.0000    786.2722     10.6458     76.6006
   463.7500      0.0000    790.2699     10.5874     72.9711
   464.0000      0.0000    793.1024     10.5532     71.9501
   464.2500      0.0000    793.1392     10.5746     73.5747
   464.5000      0.0000    793.3166     10.6357     76.7924
   464.7500      0.0000    798.5916     10.6923     79.8229
   465.0000      0.0000    812.4413     10.7163     81.0341
   465.2500      0.0000    831.0486     10.7121     79.7196
   465.5000      0.0000    839.5953     10.7005     76.3643
   465.7500      0.0000    830.6755     10.7054     72.4341
   466.0000      0.0000    821.5964     10.7460     69.7299
   466.2500      0.0000    830.3510     10.8225     69.2774
   466.5000      0.0000    849.2101     10.9146     70.4176
   466.7500      0.0000    858.8281     11.0037     71.1959
