~Version Information
VERS.                      2.0: CWLS Log ASCII Standard - VERSION 2.0
WRAP.                       NO: One line per depth step
~Well Information Block
STRT.FT               315.0000: 
STOP.FT              1292.5000: 
STEP.FT                 0.1000: 
NULL.                -999.2500: 
COMP.          Pioneer Natural Resources: COMPANY
WELL.          Hot Tomatoes 22-20: WELL
FLD.           Purgatoire River: FIELD
LOC.           2120' FNL & 2585' FWL: LOCATION
CNTY.               Las Animas: COUNTY
SRVC.                Patterson: SERVICE COMPANY
DATE.          Mon Feb 27 07:06:41 2006: LOG DATE
UWI.           05 071 08701 00: UNIQUE WELL ID
STAT.                 Colorado: STATE
~Curve Information Block
DEPT.FT            0 000 00 00: Depth
DCAL.in                       : CDL Caliper
RHOB.g/cc                     : CDL Bulk Density
RHOC.g/cc                     : CDL Density Correction
DPOR.pu                       : CDL Density Porosity
GR.GAPI                       : Gamma Ray
NPOR.pu                       : Neutron Porosity
~Parameter Information Block
~A  Depth       DCAL        RHOB        RHOC        DPOR         GR         NPOR    
# ...
   699.0000      7.9469      2.5596      0.1284      5.4806    123.0537     20.3101
   699.1000      7.9469      2.5591      0.1099      5.5076    121.8955     19.8824
   699.2000      7.9469      2.5594      0.1460      5.4905    118.8399     19.7926
   699.3000      7.9519      2.5535      0.0942      5.8463    115.5507     20.4116
   699.4000      7.9519      2.5456      0.0880      6.3259    120.0199     20.9875
   699.5000      7.9491      2.5397      0.1419      6.6852    126.3429     20.9090
   699.6000      7.9491      2.5332      0.0860      7.0761    126.3958     20.5486
   699.7000      7.9491      2.5316      0.0744      7.1751    125.2954     20.5441
   699.8000      7.9518      2.5392      0.1062      6.7154    127.5241     21.1347
   699.9000      7.9518      2.5488      0.0975      6.1360    130.3105     22.2495
   700.0000      7.9492      2.5571      0.0567      5.6282    129.7066     23.2382
   700.1000      7.9492      2.5695      0.1035      4.8792    125.0554     23.2880
   700.2000      7.9492      2.5831      0.1000      4.0568    120.7580     23.0632
   700.3000      7.9367      2.5869      0.1147      3.8234    119.2976     23.3560
   700.4000      7.9367      2.5738      0.1311      4.6155    117.4322     23.3621
   700.5000      7.9312      2.5563      0.0708      5.6818    113.8610     22.7350
   700.6000      7.9312      2.5477      0.1110      6.1987    111.5650     22.1345
   700.7000      7.9312      2.5427      0.0627      6.5036    110.1376     21.8513
   700.8000      7.9183      2.5393      0.0328      6.7092    107.2934     21.5522
   700.9000      7.9183      2.5350      0.0643      6.9681    101.7856     20.8952
   701.0000      7.9099      2.5243     -0.0062      7.6183     96.1431     20.1018
   701.1000      7.9099      2.5180     -0.0011      8.0014     94.1213     19.3725
   701.2000      7.9099      2.5224      0.0244      7.7361     93.4720     18.8797
   701.3000      7.9194      2.5276      0.0243      7.4194     92.8788     19.0915
   701.4000      7.9194      2.5279     -0.0120      7.3996     94.7001     19.8324
   701.5000      7.9343      2.5220      0.0132      7.7590     96.3695     20.1311
   701.6000      7.9343      2.5127      0.0138      8.3183     96.1345     19.8730
   701.7000      7.9343      2.5070      0.0334      8.6637     99.1574     19.7692
   701.8000      7.9555      2.5009      0.0367      9.0342    109.0000     20.1946
   701.9000      7.9555      2.4849     -0.0120     10.0073    122.4663     20.7795
   702.0000      7.9548      2.4621     -0.0020     11.3896    132.7805     20.9620
   702.1000      7.9548      2.4545     -0.0532     11.8462    137.2419     20.7064
   702.2000      7.9548      2.4751     -0.0003     10.5986    138.1385     20.4790
   702.3000      7.9693      2.4970      0.0522      9.2733    138.6566     20.7912
   702.4000      7.9693      2.4987      0.0063      9.1712    139.8361     21.5196
   702.5000      7.9676      2.4949      0.0270      9.3978    137.2396     22.1635
   702.6000      7.9676      2.4971      0.0430      9.2640    129.8850     22.5387
   702.7000      7.9676      2.5033      0.0378      8.8934    122.4093     22.7335
   702.8000      7.9868      2.5070      0.0145      8.6680    116.0718     22.6067
   702.9000      7.9868      2.5029      0.0032      8.9149    110.7161     22.0538
   703.0000      7.9861      2.4951     -0.0181      9.3877    108.9271     21.4934
   703.1000      7.9861      2.4904      0.0122      9.6726    110.7858     21.2402
   703.2000      7.9861      2.4938     -0.0095      9.4656    112.1954     21.3077
   703.3000      7.9805      2.5089     -0.0045      8.5499    111.5727     21.3950
   703.4000      7.9805      2.5311      0.0313      7.2045    110.5515     20.9483
   703.5000      7.9750      2.5508      0.0121      6.0134    108.4830     20.3070
   703.6000      7.9750      2.5692      0.0174      4.8962    104.6516     20.1424
   703.7000      7.9750      2.5893      0.0341      3.6799    101.2948     20.4947
   703.8000      7.9611      2.5988      0.0797      3.1024     98.2480     21.0648
   703.9000      7.9611      2.5847      0.0335      3.9601     95.6949     21.2719
   704.0000      7.9401      2.5462      0.0621      6.2885     96.9891     20.5436
   704.1000      7.9401      2.4947     -0.0144      9.4103    100.6694     19.3928
   704.2000      7.9401      2.4565     -0.0490     11.7245    103.2970     18.9820
   704.3000      7.9256      2.4496     -0.0154     12.1470    107.0022     19.3492
   704.4000      7.9256      2.4602      0.0036     11.5001    113.3087     19.8666
   704.5000      7.9179      2.4668      0.0643     11.1051    119.6852     20.1516
   704.6000      7.9179      2.4621      0.0427     11.3874    127.3588     20.1123
   704.7000      7.9179      2.4530      0.0040     11.9412    138.4225     20.1170
   704.8000      7.9272      2.4469      0.0528     12.3104    144.5915     20.4559
   704.9000      7.9272      2.4419      0.0728     12.6091    144.5401     20.8523
   705.0000      7.9268      2.4384      0.0395     12.8240    147.5101     20.8093
   705.1000      7.9268      2.4479      0.0547     12.2464    152.6625     20.1841
   705.2000      7.9268      2.4665      0.1349     11.1194    154.9627     19.3975
   705.3000      7.9225      2.4709      0.1041     10.8554    157.6527     19.2188
   705.4000      7.9225      2.4603      0.0546     11.4961    165.2626     20.0345
   705.5000      7.9115      2.4601      0.0408     11.5112    176.6364     21.4898
   705.6000      7.9115      2.4816      0.0913     10.2073    186.3329     22.8071
   705.7000      7.9115      2.5101      0.0986      8.4786    189.1598     23.1357
   705.8000      7.9292      2.5280      0.1715      7.3920    185.0037     22.8166
   705.9000      7.9292      2.5290      0.1094      7.3351    179.5902     23.4072
   706.0000      7.9539      2.5200      0.1084      7.8811    177.1928     25.2757
   706.1000      7.9539      2.5110      0.0369      8.4271    174.9373     26.8949
   706.2000      7.9539      2.5115      0.0211      8.3939    170.1489     27.1374
   706.3000      7.9459      2.5230      0.0528      7.6997    165.8629     26.2430
   706.4000      7.9459      2.5275      0.0710      7.4217    166.2923     24.7430
   706.5000      7.9363      2.5116      0.0341      8.3889    170.7815     23.1690
   706.6000      7.9363      2.4891      0.0006      9.7497    171.3649     22.3009
   706.7000      7.9363      2.4834     -0.0163     10.0967    162.5627     22.3913
   706.8000      7.9360      2.4957      0.0410      9.3511    150.7395     22.8201
   706.9000      7.9360      2.5058      0.0579      8.7373    145.6216     23.0583
   707.0000      7.9282      2.5046      0.0076      8.8132    148.4542     23.0391
   707.1000      7.9282      2.4928      0.0665      9.5287    156.8411     22.9541
   707.2000      7.9282      2.4673      0.0101     11.0749    165.6966     22.8756
   707.3000      7.9257      2.4433     -0.0157     12.5286    165.8948     22.5131
   707.4000      7.9257      2.4418     -0.0079     12.6191    154.9960     22.0390
   707.5000      7.9389      2.4537      0.0616     11.8966    141.8791     21.8674
   707.6000      7.9389      2.4648      0.0003     11.2221    135.6915     22.0094
   707.7000      7.9389      2.4844      0.0230     10.0384    136.2615     22.6151
   707.8000      7.9368      2.5039      0.0608      8.8567    137.9674     23.7328
   707.9000      7.9368      2.5014      0.0071      9.0036    137.3402     24.8132
   708.0000      7.9457      2.4905     -0.0255      9.6696    138.9465     25.0883
   708.1000      7.9457      2.4934      0.0144      9.4933    146.7910     24.7015
   708.2000      7.9457      2.5058      0.0422      8.7406    153.6039     24.3188
   708.3000      7.9481      2.5196      0.0623      7.9041    153.1004     24.1642
   708.4000      7.9481      2.5368      0.0690      6.8595    148.5213     24.1549
   708.5000      7.9589      2.5585      0.0477      5.5439    144.4960     24.1276
