~Version Information
VERS.                      2.0: CWLS Log ASCII Standard - VERSION 2.0
WRAP.                       NO: One line per depth step
~Well Information Block
STRT.FT                -0.5000: 
STOP.FT              1417.0000: 
STEP.FT                 0.2500: 
NULL.                -999.2500: 
COMP.          Pioneer Natural Resources: COMPANY
WELL.              Darren 11-7: WELL
FLD.           Purgatoire River: FIELD
LOC.           230' FNL & 596' FWL: LOCATION
CNTY.               Las Animas: COUNTY
SRVC.                Patterson: SERVICE COMPANY
DATE.          Thu Mar 30 10:43:52 2006: LOG DATE
UWI.           05 071 08720 00: UNIQUE WELL ID
STAT.                 Colorado: STATE
~Curve Information Block
DEPT.FT            0 000 00 00: Depth
GR.GAPI                       : Gamma Ray
CCL.                          : Casing Collar Locator
TT3.usec                      : CBL 3' Travel Time
AMP3.mV                       : CBL 3' Amplitude
~Parameter Information Block
~A  Depth        GR         CCL         TT3         AMP3    
# ...
   368.0000    122.2174      0.0000    739.9380     12.0908
   368.2500    118.8704      0.0000    739.1798     11.9583
   368.5000    114.1874      0.0000    735.4609     11.7927
   368.7500    109.1544      0.0000    731.2338     11.6108
   369.0000    104.7852      0.0000    729.6667     11.4462
   369.2500    101.9235      0.0000    732.5743     11.3282
   369.5000    101.0402      0.0000    739.5978     11.2725
   369.7500    101.8622      0.0000    748.5793     11.2867
   370.0000    103.3795      0.0000    756.8204     11.3764
   370.2500    104.5258      0.0000    762.5548     11.5394
   370.5000    105.0340      0.0000    765.5718     11.7549
   370.7500    105.6789      0.0000    766.6621     11.9835
   371.0000    107.6057      0.0000    766.6568     12.1807
   371.2500    111.2924      0.0000    765.8578     12.3111
   371.5000    116.1949      0.0000    764.1289     12.3563
   371.7500    121.4453      0.0000    761.5347     12.3182
   372.0000    126.6438      0.0000    758.9428     12.2190
   372.2500    131.6351      0.0000    757.7286     12.0913
   372.5000    135.6155      0.0000    758.5953     11.9603
   372.7500    137.1573      0.0000    760.8728     11.8285
   373.0000    135.7322      0.0000    763.1694     11.6753
   373.2500    132.8541      0.0000    764.4587     11.4739
   373.5000    130.9465      0.0000    764.3657     11.2175
   373.7500    130.9386      0.0000    762.8637     10.9309
   374.0000    131.3969      0.0000    760.2955     10.6515
   374.2500    130.0611      0.0000    757.7095     10.4000
   374.5000    125.9195      0.0000    756.5812     10.1715
   374.7500    119.9602      0.0000    757.6987      9.9517
   375.0000    114.5350      0.0000    760.4657      9.7350
   375.2500    112.0804      0.0000    763.5349      9.5287
   375.5000    113.7672      0.0000    765.9231      9.3468
   375.7500    118.6328      0.0000    767.3463      9.2043
   376.0000    123.8833      0.0000    767.7896      9.1123
   376.2500    126.4093      0.0000    767.0354      9.0700
   376.5000    124.4200      0.0000    764.6132      9.0567
   376.7500    118.0878      0.0000    760.3895      9.0368
   377.0000    109.1136      0.0000    755.5328      8.9836
   377.2500     99.7327      0.0000    752.7055      8.9064
   377.5000     91.6180      0.0000    754.4976      8.8498
   377.7500     85.1553      0.0000    761.1579      8.8603
   378.0000     79.7125      0.0000    769.9924      8.9485
   378.2500     74.8056      0.0000    777.2457      9.0773
   378.5000     71.0060      0.0000    780.8215      9.1805
   378.7500     69.7813      0.0000    781.5662      9.1988
   379.0000     72.6557      0.0000    782.1121      9.1145
   379.2500     80.2685      0.0000    784.3471      8.9650
   379.5000     91.5697      0.0000    787.7944      8.8213
   379.7500    103.7973      0.0000    790.2062      8.7395
   380.0000    113.8488      0.0000    789.5394      8.7254
   380.2500    120.0965      0.0000    785.5181      8.7381
   380.5000    122.9824      0.0000    779.7024      8.7279
   380.7500    124.2869      0.0000    774.2400      8.6732
   381.0000    125.9824      0.0000    770.4326      8.5890
   381.2500    129.0615      0.0000    768.2860      8.5053
   381.5000    132.7301      0.0000    767.1184      8.4390
   381.7500    134.9150      0.0000    766.3510      8.3923
   382.0000    134.2621      0.0000    765.8062      8.3728
   382.2500    131.8551      0.0000    765.5384      8.4038
   382.5000    130.5401      0.0000    765.5339      8.5099
   382.7500    132.2672      0.0000    765.5080      8.6980
   383.0000    136.2642      0.0000    764.8567      8.9558
   383.2500    139.8357      0.0000    762.8203      9.2583
   383.5000    140.6517      0.0000    759.0350      9.5720
   383.7500    138.3597      0.0000    754.3423      9.8595
   384.0000    134.5227      0.0000    750.8851     10.0917
   384.2500    131.2301      0.0000    750.6861     10.2568
   384.5000    129.4901      0.0000    753.8433     10.3638
   384.7500    128.6307      0.0000    758.4734     10.4411
   385.0000    127.1043      0.0000    762.4532     10.5223
   385.2500    123.9709      0.0000    764.8217     10.6224
   385.5000    120.0147      0.0000    765.6815     10.7249
   385.7500    117.5055      0.0000    765.4633     10.7986
   386.0000    118.3846      0.0000    764.6995     10.8214
   386.2500    122.5148      0.0000    764.3840     10.7898
   386.5000    127.8969      0.0000    766.0735     10.7137
   386.7500    132.2139      0.0000    770.8820     10.6095
   387.0000    133.7762      0.0000    777.9212     10.4879
   387.2500    131.7172      0.0000    784.1414     10.3444
   387.5000    126.4016      0.0000    786.3588     10.1661
   387.7500    119.6413      0.0000    783.5954      9.9535
   388.0000    113.7730      0.0000    777.6307      9.7292
   388.2500    110.4056      0.0000    771.7548      9.5231
   388.5000    110.1305      0.0000    768.8819      9.3462
   388.7500    112.7068      0.0000    769.8708      9.1801
   389.0000    116.9007      0.0000    772.7734      8.9940
   389.2500    120.6479      0.0000    773.8954      8.7741
   389.5000    122.2037      0.0000    770.4118      8.5427
   389.7500    121.2804      0.0000    762.6489      8.3491
   390.0000    119.0342      0.0000    754.3179      8.2348
   390.2500    117.1656      0.0000    750.3328      8.2046
   390.5000    116.8658      0.0000    753.3553      8.2325
   390.7500    118.0055      0.0000    761.6286      8.2897
   391.0000    119.1702      0.0000    770.2463      8.3591
   391.2500    118.8417      0.0000    774.9727      8.4255
   391.5000    116.6940      0.0000    775.1596      8.4708
   391.7500    113.6192      0.0000    773.3960      8.4858
   392.0000    110.7000      0.0000    772.9568      8.4789
   392.2500    108.6026      0.0000    775.6325      8.4646
   392.5000    107.8708      0.0000    781.1380      8.4467
   392.7500    109.0026      0.0000    787.7129      8.4157
   393.0000    111.6907      0.0000    793.2318      8.3620
   393.2500    114.4296      0.0000    796.2084      8.2877
   393.5000    115.5199      0.0000    796.2334      8.2078
   393.7500    114.3749      0.0000    794.0156      8.1437
   394.0000    111.6310      0.0000    791.2781      8.1150
   394.2500    108.3387      0.0000    790.0642      8.1307
   394.5000    105.3607      0.0000    791.3609      8.1827
   394.7500    103.3268      0.0000    794.3765      8.2517
   395.0000    102.7692      0.0000    797.4547      8.3195
   395.2500    104.1206      0.0000    799.5221      8.3763
   395.5000    107.5253      0.0000    800.5202      8.4208
   395.7500    112.5593      0.0000    800.8787      8.4630
   396.0000    118.0985      0.0000    800.9711      8.5250
   396.2500    122.7223      0.0000    800.9613      8.6281
   396.5000    125.5324      0.0000    800.8135      8.7717
   396.7500    126.3274      0.0000    800.2272      8.9261
   397.0000    124.7661      0.0000    798.4658      9.0497
   397.2500    120.0125      0.0000    794.3464      9.1171
   397.5000    111.9343      0.0000    786.8335      9.1312
   397.7500    102.3139      0.0000    776.1221      9.1149
   398.0000     94.0570      0.0000    764.2226      9.0939
   398.2500     89.0902      0.0000    754.2179      9.0782
   398.5000     87.4349      0.0000    748.6711      9.0560
   398.7500     88.3016      0.0000    748.3066      9.0044
   399.0000     91.3430      0.0000    751.7046      8.9062
   399.2500     96.3219      0.0000    756.2619      8.7622
   399.5000    102.1468      0.0000    759.8302      8.5926
   399.7500    107.2006      0.0000    761.7026      8.4293
   400.0000    110.5394      0.0000    762.3405      8.3009
   400.2500    112.2432      0.0000    762.5225      8.2208
   400.5000    112.8699      0.0000    762.7519      8.1855
   400.7500    113.0969      0.0000    763.1447      8.1834
   401.0000    113.5784      0.0000    763.5978      8.2035
   401.2500    114.5763      0.0000    764.0180      8.2402
