~Version Information
VERS.                      2.0: CWLS Log ASCII Standard - VERSION 2.0
WRAP.                       NO: One line per depth step
~Well Information Block
STRT.FT               595.7000: 
STOP.FT              1567.2000: 
STEP.FT                 0.1000: 
NULL.                -999.2500: 
COMP.          Pioneer Natural Resources: COMPANY
WELL.           Butch 33-10 Tr: WELL
FLD.           Purgatoire River: FIELD
LOC.           2309' FSL & 1337' FEL--: LOCATION
PROV.                 Colorado: PROVINCE
CNTY.               Las Animas: COUNTRY
SRVC.                Patterson: SERVICE COMPANY
DATE.          Mon Jan 16 07:34:05 2006: LOG DATE
UWI.           05 071 08649 00: UNIQUE WELL ID
~Curve Information Block
DEPT.FT            0 000 00 00: Depth
DCAL.in                       : CDL Caliper
RHOB.g/cc                     : CDL Bulk Density
RHOC.g/cc                     : CDL Density Correction
DPOR.pu                       : CDL Density Porosity
GR.GAPI                       : Gamma Ray
~Parameter Information Block
~A  Depth       DCAL        RHOB        RHOC        DPOR         GR     
# ...
   797.3000      8.1415      2.5726      0.0279      4.6904    116.7749
   797.4000      8.1415      2.5513     -0.0377      5.9834    113.2572
   797.5000      8.1421      2.5567      0.0370      5.6573    108.2091
   797.6000      8.1421      2.5742      0.0510      4.5947    100.5987
   797.7000      8.1421      2.5878      0.0034      3.7680     93.1947
   797.8000      8.1366      2.6053      0.0366      2.7102     92.6210
   797.9000      8.1366      2.6249      0.0443      1.5187     99.1612
   798.0000      8.1248      2.6310      0.0700      1.1492    103.9025
   798.1000      8.1248      2.6181      0.0456      1.9353    103.4119
   798.2000      8.1248      2.6054      0.0051      2.7056    102.0088
   798.3000      8.1080      2.6082      0.0481      2.5348    103.7930
   798.4000      8.1080      2.6105      0.0821      2.3930    107.9047
   798.5000      8.0931      2.6018      0.0069      2.9209    111.8319
   798.6000      8.0931      2.5961      0.0384      3.2668    116.1498
   798.7000      8.0931      2.6016      0.0256      2.9351    120.4330
   798.8000      8.0862      2.6104      0.0448      2.3989    122.4570
   798.9000      8.0862      2.6134      0.0251      2.2152    121.3778
   799.0000      8.0854      2.6110      0.0524      2.3625    117.8051
   799.1000      8.0854      2.6120      0.0630      2.3050    112.1532
   799.2000      8.0854      2.6220      0.0523      1.6945    106.5827
   799.3000      8.0864      2.6343      0.0621      0.9535    104.8831
   799.4000      8.0864      2.6332      0.0659      1.0171    108.4869
   799.5000      8.0916      2.6118      0.0589      2.3175    116.3186
   799.6000      8.0916      2.5847     -0.0040      3.9547    125.5957
   799.7000      8.0916      2.5728      0.0313      4.6815    133.0566
   799.8000      8.0968      2.5748      0.0215      4.5568    136.4273
   799.9000      8.0968      2.5734      0.0243      4.6417    136.6777
   800.0000      8.0975      2.5668     -0.0003      5.0417    136.0547
   800.1000      8.0975      2.5705      0.0444      4.8171    131.3715
   800.2000      8.0975      2.5816      0.0229      4.1435    121.8804
   800.3000      8.0985      2.5782      0.0675      4.3537    116.4520
   800.4000      8.0985      2.5544      0.0213      5.7947    119.5560
   800.5000      8.0989      2.5381      0.0376      6.7827    126.4965
   800.6000      8.0989      2.5438      0.0336      6.4336    131.2913
   800.7000      8.0989      2.5502      0.0502      6.0495    130.2295
   800.8000      8.0993      2.5471      0.0376      6.2380    125.2165
   800.9000      8.0993      2.5505      0.0238      6.0275    120.9040
   801.0000      8.0957      2.5680      0.0282      4.9714    120.6921
   801.1000      8.0957      2.5976      0.0101      3.1767    127.7000
   801.2000      8.0957      2.6357      0.0889      0.8642    139.7793
   801.3000      8.0873      2.6681      0.0677     -1.0995    148.8657
   801.4000      8.0873      2.6872      0.0676     -2.2566    148.0680
   801.5000      8.0818      2.6948      0.0825     -2.7152    138.3711
   801.6000      8.0818      2.6855      0.1002     -2.1508    126.7456
   801.7000      8.0818      2.6545      0.0320     -0.2710    117.3104
   801.8000      8.0805      2.6179     -0.0126      1.9475    110.2471
   801.9000      8.0805      2.5995     -0.0439      3.0610    103.9839
   802.0000      8.0848      2.6032     -0.0277      2.8355    100.9090
   802.1000      8.0848      2.6205     -0.0545      1.7858    104.0927
   802.2000      8.0848      2.6392     -0.0136      0.6551    105.6505
   802.3000      8.0943      2.6385      0.0468      0.6947     99.7048
   802.4000      8.0943      2.6143      0.0080      2.1629     94.2204
   802.5000      8.0991      2.5860      0.0503      3.8771     95.9833
   802.6000      8.0991      2.5645      0.0958      5.1847    102.5367
   802.7000      8.0991      2.5521      0.1214      5.9346    109.6553
   802.8000      8.1007      2.5500      0.1289      6.0601    114.9811
   802.9000      8.1007      2.5481      0.1474      6.1768    119.8531
   803.0000      8.0991      2.5384      0.1394      6.7607    127.7080
   803.1000      8.0991      2.5269      0.0765      7.4625    137.3601
   803.2000      8.0991      2.5203      0.0520      7.8618    142.4549
   803.3000      8.0915      2.5185      0.0399      7.9693    139.3993
   803.4000      8.0915      2.5199      0.0373      7.8869    133.2234
   803.5000      8.0853      2.5244      0.0525      7.6139    132.2135
   803.6000      8.0853      2.5321      0.0142      7.1476    136.9246
   803.7000      8.0853      2.5420      0.0697      6.5447    143.4416
   803.8000      8.0880      2.5485      0.0459      6.1497    148.4151
   803.9000      8.0880      2.5457      0.0539      6.3188    148.3076
   804.0000      8.0940      2.5318      0.0685      7.1607    142.4377
   804.1000      8.0940      2.5083      0.0444      8.5895    136.9199
   804.2000      8.0940      2.4807      0.0756     10.2577    137.1090
   804.3000      8.0969      2.4593      0.0241     11.5581    139.8236
   804.4000      8.0969      2.4545      0.0347     11.8456    139.6876
   804.5000      8.1022      2.4659      0.0100     11.1548    135.6739
   804.6000      8.1022      2.4834      0.0194     10.0959    132.5905
   804.7000      8.1022      2.4991      0.0209      9.1445    134.8328
   804.8000      8.1109      2.5022      0.0820      8.9553    141.6619
   804.9000      8.1109      2.4908      0.0548      9.6471    150.3476
   805.0000      8.1192      2.4854      0.0673      9.9765    156.5571
   805.1000      8.1192      2.4960      0.1244      9.3325    156.7763
   805.2000      8.1192      2.5146      0.1105      8.2064    149.7555
   805.3000      8.1256      2.5397      0.1114      6.6839    136.4648
   805.4000      8.1256      2.5718      0.1313      4.7366    122.7433
   805.5000      8.1301      2.6025      0.1157      2.8787    117.4434
   805.6000      8.1301      2.6213      0.0925      1.7402    121.3379
   805.7000      8.1301      2.6200      0.1146      1.8184    127.1232
   805.8000      8.1258      2.5951      0.0681      3.3276    130.7464
   805.9000      8.1258      2.5601      0.0044      5.4462    129.8287
   806.0000      8.1177      2.5375      0.0072      6.8199    124.1190
   806.1000      8.1177      2.5271      0.0324      7.4509    123.3662
   806.2000      8.1177      2.5161      0.0201      8.1174    131.7245
   806.3000      8.1140      2.5032      0.0198      8.8998    137.5447
   806.4000      8.1140      2.4939      0.0381      9.4579    132.4821
   806.5000      8.1108      2.4849      0.0733     10.0053    126.9948
   806.6000      8.1108      2.4558      0.1005     11.7712    133.2759
   806.7000      8.1108      2.4023      0.0011     15.0122    147.4861
   806.8000      8.1049      2.3490      0.0240     18.2400    158.2682
   806.9000      8.1049      2.3038      0.0186     20.9806    160.6942
   807.0000      8.1010      2.2571     -0.0135     23.8140    156.3359
   807.1000      8.1010      2.2101     -0.0102     26.6587    149.2006
   807.2000      8.1010      2.1628      0.0089     29.5299    142.6689
   807.3000      8.1020      2.1080     -0.0182     32.8510    136.9831
   807.4000      8.1020      2.0515     -0.0516     36.2700    132.0948
   807.5000      8.1020      2.0057     -0.0165     39.0511    129.9619
   807.6000      8.1020      1.9687     -0.0162     41.2908    130.4495
   807.7000      8.1020      1.9386     -0.0334     43.1138    132.7520
   807.8000      8.1000      1.9236     -0.0372     44.0271    133.4518
   807.9000      8.1000      1.9264      0.0060     43.8575    131.4348
   808.0000      8.1003      1.9488     -0.0060     42.4978    132.2238
   808.1000      8.1003      2.0044      0.0349     39.1283    136.9220
   808.2000      8.1003      2.0945      0.1463     33.6653    138.6124
   808.3000      8.1093      2.1970      0.1851     27.4573    135.2737
   808.4000      8.1093      2.2899      0.2153     21.8236    133.0633
