~Version Information
VERS.                      2.0: CWLS Log ASCII Standard - VERSION 2.0
WRAP.                       NO: One line per depth step
~Well Information Block
STRT.FT                -6.7500: 
STOP.FT              1466.2500: 
STEP.FT                 0.2500: 
NULL.                -999.2500: 
COMP.          Pioneer Natural Resources: COMPANY
WELL.          Pallet Ranch 34-15 Tr: WELL
FLD.           Purgatorie River: FIELD
LOC.           465' FSL & 2138' FEL--: LOCATION
PROV.                       CO: PROVINCE
CNTY.               Las Animas: COUNTRY
SRVC.          Patterson Wireline: SERVICE COMPANY
DATE.          Wed Jan 25 09:38:09 2006: LOG DATE
UWI.           05 071 08657 00: UNIQUE WELL ID
~Curve Information Block
DEPT.FT            0 000 00 00: Depth
CCL.                          : Casing Collar Locator
TT3.usec                      : CBL 3' Travel Time
AMP3.mV                       : CBL 3' Amplitude
GR.GAPI                       : Gamma Ray
~Parameter Information Block
~A  Depth       CCL         TT3         AMP3         GR     
# ...
   663.2500      0.0000    745.0928      8.3112     86.0949
   663.5000      0.0000    748.0581      8.4655     90.7037
   663.7500      0.0000    750.9349      8.6281     90.6350
   664.0000      0.0000    753.7268      8.7922     87.5496
   664.2500      0.0000    756.1447      8.9554     83.8471
   664.5000      0.0000    757.9684      9.1204     80.7463
   664.7500      0.0000    759.0380      9.2925     77.8949
   665.0000      0.0000    759.0258      9.4778     74.5259
   665.2500      0.0000    757.8701      9.6788     70.6364
   665.5000      0.0000    756.3762      9.8860     66.9970
   665.7500      0.0000    755.8767     10.0778     64.2436
   666.0000      0.0000    757.1625     10.2334     62.2743
   666.2500      0.0000    759.8077     10.3443     60.6779
   666.5000      0.0000    762.4260     10.4102     59.5999
   666.7500      0.0000    763.6107     10.4292     59.8865
   667.0000      0.0000    762.8995     10.3984     62.2011
   667.2500      0.0000    761.0380     10.3248     66.0868
   667.5000      0.0000    759.2935     10.2335     70.0762
   667.7500      0.0000    758.4582     10.1609     72.9235
   668.0000      0.0000    758.5541     10.1329     74.7978
   668.2500      0.0000    759.2397     10.1459     77.0819
   668.5000      0.0000    760.0154     10.1726     80.7464
   668.7500      0.0000    760.2390     10.1858     85.0367
   669.0000      0.0000    759.4958     10.1720     88.0639
   669.2500      0.0000    757.8107     10.1273     88.6938
   669.5000      0.0000    755.1835     10.0518     87.6621
   669.7500      0.0000    751.4068      9.9508     86.8153
   670.0000      0.0000    746.7589      9.8352     87.4113
   670.2500      0.0000    742.4232      9.7164     89.1922
   670.5000      0.0000    739.8766      9.6036     90.7720
   670.7500      0.0000    740.1526      9.5107     90.6570
   671.0000      0.0000    743.6182      9.4594     88.2733
   671.2500      0.0000    749.8030      9.4643     84.4746
   671.5000      0.0000    757.2301      9.5129     80.9576
   671.7500      0.0000    763.9199      9.5704     78.9762
   672.0000      0.0000    768.4656      9.6079     78.5726
   672.2500      0.0000    770.6102      9.6239     78.7807
   672.5000      0.0000    770.8330      9.6362     78.3085
   672.7500      0.0000    769.6710      9.6593     76.3936
   673.0000      0.0000    767.6208      9.6947     73.6210
   673.2500      0.0000    765.4769      9.7386     71.8545
   673.5000      0.0000    764.1905      9.7911     72.8247
   673.7500      0.0000    763.9691      9.8486     76.6187
   674.0000      0.0000    763.7228      9.8859     81.6866
   674.2500      0.0000    761.9245      9.8559     86.1898
   674.5000      0.0000    758.1617      9.7195     89.0984
   674.7500      0.0000    753.6059      9.4780     90.2649
   675.0000      0.0000    749.9177      9.1736     90.0789
   675.2500      0.0000    747.9936      8.8613     89.2983
   675.5000      0.0000    747.7435      8.5835     88.7922
   675.7500      0.0000    748.3154      8.3624     88.9208
   676.0000      0.0000    748.1494      8.2006     89.0896
   676.2500      0.0000    745.5804      8.0890     88.2113
   676.5000      0.0000    740.1496      8.0181     85.9153
   676.7500      0.0000    733.1150      7.9780     83.1638
   677.0000      0.0000    726.3673      7.9504     81.3091
   677.2500      0.0000    720.7366      7.9108     80.6641
   677.5000      0.0000    715.4374      7.8470     80.3234
   677.7500      0.0000    709.6421      7.7679     79.1381
   678.0000      0.0000    704.6600      7.6913     76.5147
   678.2500      0.0000    703.1732      7.6323     72.5903
   678.5000      0.0000    705.3483      7.6011     68.1643
   678.7500      0.0000    707.2553      7.6001     64.4129
   679.0000      0.0000    704.7344      7.6176     62.0983
   679.2500      0.0000    697.9257      7.6334     60.7742
   679.5000      0.0000    690.8129      7.6308     59.1009
   679.7500      0.0000    687.0828      7.6044     56.2852
   680.0000      0.0000    687.5303      7.5591     52.9874
   680.2500      0.0000    690.8767      7.5086     50.5821
   680.5000      0.0000    695.5959      7.4708     49.8730
   680.7500      0.0000    700.4389      7.4622     50.8318
   681.0000      0.0000    704.1119      7.4942     53.2066
   681.2500      0.0000    705.3925      7.5712     56.9157
   681.5000      0.0000    703.8243      7.6877     61.9783
   681.7500      0.0000    700.1375      7.8331     68.4187
   682.0000      0.0000    695.8784      7.9989     76.1551
   682.2500      0.0000    692.5016      8.1820     84.6553
   682.5000      0.0000    690.7458      8.3761     92.7189
   682.7500      0.0000    690.8457      8.5682     98.9064
   683.0000      0.0000    693.1105      8.7444    102.3405
   683.2500      0.0000    697.9581      8.8974    103.2170
   683.5000      0.0000    705.2074      9.0232    102.6762
   683.7500      0.0000    713.5156      9.1114    102.0428
   684.0000      0.0000    720.9141      9.1457    101.9430
   684.2500      0.0000    726.0517      9.1189    102.0271
   684.5000      0.0000    728.8491      9.0407    101.5799
   684.7500      0.0000    730.0674      8.9274    100.4775
   685.0000      0.0000    730.5638      8.7887     99.5356
   685.2500      0.0000    730.9714      8.6285     99.8569
   685.5000      0.0000    731.7805      8.4549    101.7784
   685.7500      0.0000    733.3771      8.2853    104.3858
   686.0000      0.0000    735.8046      8.1454    105.9619
   686.2500      0.0000    738.5320      8.0600    105.0208
   686.5000      0.0000    740.8607      8.0390    101.2420
   686.7500      0.0000    742.7431      8.0688     95.5825
   687.0000      0.0000    744.6800      8.1221     89.3785
   687.2500      0.0000    746.4775      8.1762     83.4086
   687.5000      0.0000    746.8967      8.2210     77.9910
   687.7500      0.0000    745.3376      8.2530     73.7153
   688.0000      0.0000    743.3203      8.2706     71.4607
   688.2500      0.0000    743.4328      8.2772     71.4097
   688.5000      0.0000    746.9946      8.2843     72.4129
   688.7500      0.0000    753.2673      8.3092     72.7970
   689.0000      0.0000    760.6910      8.3664     71.8267
   689.2500      0.0000    768.1445      8.4579     70.2260
   689.5000      0.0000    774.6212      8.5717     69.4301
   689.7500      0.0000    778.1922      8.6927     70.4293
   690.0000      0.0000    776.4406      8.8128     72.9838
   690.2500      0.0000    768.5967      8.9274     75.6598
   690.5000      0.0000    756.9340      9.0245     76.8051
   690.7500      0.0000    745.4470      9.0869     75.8539
   691.0000      0.0000    737.1452      9.1079     73.8100
   691.2500      0.0000    732.7579      9.0984     72.4862
   691.5000      0.0000    731.5435      9.0770     73.3119
   691.7500      0.0000    732.5374      9.0561     76.6997
   692.0000      0.0000    734.8304      9.0357     82.0127
   692.2500      0.0000    737.2355      9.0055     87.8174
   692.5000      0.0000    738.5011      8.9508     92.4854
   692.7500      0.0000    738.2814      8.8631     94.9339
   693.0000      0.0000    737.5557      8.7477     94.9293
   693.2500      0.0000    737.5931      8.6229     92.8988
   693.5000      0.0000    738.5999      8.5132     89.6608
   693.7500      0.0000    739.8526      8.4414     86.1070
   694.0000      0.0000    741.0867      8.4210     82.7212
   694.2500      0.0000    743.0101      8.4499     79.3214
   694.5000      0.0000    746.0416      8.5076     75.3546
   694.7500      0.0000    749.2309      8.5643     70.3845
   695.0000      0.0000    751.2617      8.5943     64.4370
   695.2500      0.0000    752.1492      8.5829     58.3628
   695.5000      0.0000    753.0182      8.5255     53.9390
   695.7500      0.0000    754.3411      8.4269     53.1373
   696.0000      0.0000    755.1271      8.3051     56.8045
   696.2500      0.0000    753.5474      8.1899     63.8101
   696.5000      0.0000    747.6730      8.1106     71.5882
