~Version Information
VERS.                      2.0: CWLS Log ASCII Standard - VERSION 2.0
WRAP.                       NO: One line per depth step
~Well Information Block
STRT.FT                 0.0000: 
STOP.FT              1871.2500: 
STEP.FT                 0.2500: 
NULL.                -999.2500: 
COMP.          Petrogulf Corporation: COMPANY
WELL.             Norton 9-14R: WELL
FLD.           Purgatorie River: FIELD
LOC.           725' FSL & 1103' FWL: LOCATION
STAT.                 Colorado: State
CNTY.               Las Animas: COUNTY
CTRY. USA : Country
SECT. 9 : Section
TOWN. 33S : Township
RANG. 67W : Range
SRVC.                Patterson: SERVICE COMPANY
DATE.          Thu Nov 10 13:05:53 2005: LOG DATE
API. 05-071-08444                         : UNIQUE WELL ID
~Curve Information Block
DEPT.FT            0 000 00 00: Depth
CCL.                          : Casing Collar Locator
TT3.usec                      : CBL 3' Travel Time
AMP3.mV                       : CBL 3' Amplitude
GR.GAPI                       : Gamma Ray
~Parameter Information Block
~A  Depth       CCL         TT3         AMP3         GR     
# ...
  1708.5000      0.0000    643.7380      3.4852    100.6376
  1708.7500      0.0000    637.9126      4.1109     97.8910
  1709.0000      0.0000    630.9764      4.5780     94.5101
  1709.2500      0.0000    630.3789      4.8510     91.4817
  1709.5000      0.0000    635.7116      4.9738     89.2283
  1709.7500      0.0000    640.4654      5.0015     87.0574
  1710.0000      0.0000    641.6951      4.9341     83.9803
  1710.2500      0.0000    644.3193      4.7408     80.2430
  1710.5000      0.0000    652.7037      4.4548     77.9675
  1710.7500      0.0000    662.8306      4.1582     79.9273
  1711.0000      0.0000    668.8191      3.8837     87.3250
  1711.2500      0.0000    672.3420      3.6267     98.5982
  1711.5000      0.0000    678.2838      3.3965    110.3106
  1711.7500      0.0000    684.4389      3.1894    119.1951
  1712.0000      0.0000    683.9906      2.9976    123.6795
  1712.2500      0.0000    676.0134      2.8588    124.2149
  1712.5000      0.0000    666.0786      2.8199    122.7847
  1712.7500      0.0000    659.2270      2.8835    121.9285
  1713.0000      0.0000    656.4931      3.0181    123.3538
  1713.2500      0.0000    656.7310      3.1896    126.7957
  1713.5000      0.0000    660.0069      3.3941    130.2732
  1713.7500      0.0000    668.7286      3.6401    131.8053
  1714.0000      0.0000    683.9482      3.9071    131.0318
  1714.2500      0.0000    699.7194      4.1616    129.2739
  1714.5000      0.0000    706.2272      4.4000    128.1836
  1714.7500      0.0000    701.6870      4.6533    128.5130
  1715.0000      0.0000    694.8635      4.9369    130.1801
  1715.2500      0.0000    693.4636      5.2248    132.9858
  1715.5000      0.0000    696.6651      5.4932    136.5404
  1715.7500      0.0000    700.2131      5.7558    139.7059
  1716.0000      0.0000    702.2129      6.0283    140.9729
  1716.2500      0.0000    702.9286      6.2850    139.6200
  1716.5000      0.0000    703.0549      6.4957    136.2097
  1716.7500      0.0000    703.0918      6.6699    132.1423
  1717.0000      0.0000    703.3398      6.8064    129.0083
  1717.2500      0.0000    703.8849      6.8603    128.0016
  1717.5000      0.0000    704.4033      6.8253    129.3337
  1717.7500      0.0000    704.4355      6.7738    132.0766
  1718.0000      0.0000    703.7395      6.7576    134.6953
  1718.2500      0.0000    701.6655      6.7575    135.8848
  1718.5000      0.0000    696.5583      6.7577    135.2397
  1718.7500      0.0000    687.2369      6.7696    133.4462
  1719.0000      0.0000    675.4202      6.7496    131.6459
  1719.2500      0.0000    664.3386      6.5677    130.4576
  1719.5000      0.0000    654.6812      6.1678    129.8111
  1719.7500      0.0000    646.7930      5.7998    129.6397
  1720.0000      0.0000    646.2359      5.8124    130.2564
  1720.2500      0.0000    658.4539      6.0948    131.8560
  1720.5000      0.0000    677.6548      6.2533    133.9017
  1720.7500      0.0000    690.6126      6.2845    135.1362
  1721.0000      0.0000    693.6318      6.4188    134.2532
  1721.2500      0.0000    695.4144      6.6259    130.9245
  1721.5000     -2.0000    700.5173      6.7422    126.4552
  1721.7500      0.0000    703.7899      6.7629    123.1929
  1722.0000      0.0000    699.8771      6.7840    122.8448
  1722.2500      0.0000    686.1145      6.9040    125.2362
  1722.5000      0.0000    663.1555      7.3456    128.7152
  1722.7500      0.0000    640.2421      8.2797    131.5181
  1723.0000      0.0000    628.9366      9.3312    132.4385
  1723.2500      0.0000    629.2521      9.9209    130.5222
  1723.5000      0.0000    631.7402     10.0658    125.1079
  1723.7500      0.0000    630.5820     10.1271    116.6300
  1724.0000      0.0000    624.6998     10.1892    106.8780
  1724.2500      0.0000    609.9092     10.0926     97.9604
  1724.5000      0.0000    581.5807      9.7013     91.0799
  1724.7500      0.0000    547.6943      9.0087     86.3725
  1725.0000      0.0000    529.6982      8.1334     83.6532
  1725.2500      0.0000    539.7549      7.2230     82.9220
  1725.5000      0.0000    567.6779      6.3572     84.0832
  1725.7500      0.0000    601.7707      5.5767     86.5313
  1726.0000      0.0000    640.7180      4.9129     89.4253
  1726.2500      0.0000    676.6746      4.3729     92.5006
  1726.5000      0.0000    692.3166      3.9642     96.4156
  1726.7500      0.0000    683.2772      3.6946    101.9770
  1727.0000      0.0000    665.1042      3.5513    108.9284
  1727.2500      0.0000    653.6562      3.5241    115.6702
  1727.5000      0.0000    651.7616      3.6429    120.4564
  1727.7500      0.0000    654.2407      3.9611    123.0571
  1728.0000      0.0000    656.2551      4.4697    125.2399
  1728.2500      0.0000    655.5237      5.0716    129.2514
  1728.5000      0.0000    651.4936      5.6727    135.4592
  1728.7500      0.0000    645.6650      6.1864    141.6544
  1729.0000      0.0000    640.7614      6.5152    145.0604
  1729.2500      0.0000    638.0732      6.6685    144.8232
  1729.5000      0.0000    636.9974      6.7518    142.2590
  1729.7500      0.0000    636.6481      6.8137    139.1405
  1730.0000      0.0000    636.6740      6.8763    136.4326
  1730.2500      0.0000    637.4033      7.0178    134.4608
  1730.5000      0.0000    639.8503      7.2959    133.3502
  1730.7500      0.0000    644.3027      7.6782    132.9355
  1731.0000      0.0000    648.2624      8.0680    132.8143
  1731.2500      0.0000    648.0845      8.3746    132.8861
  1731.5000      0.0000    643.4850      8.5860    133.6091
  1731.7500      0.0000    637.0120      8.7502    135.5993
  1732.0000      0.0000    629.0173      8.9105    139.0534
  1732.2500      0.0000    617.9784      9.0631    143.2499
  1732.5000      0.0000    606.2022      9.1452    146.3356
  1732.7500      0.0000    599.9207      9.1328    146.1529
  1733.0000      0.0000    602.0033      9.1048    142.0575
  1733.2500      0.0000    608.8707      9.1249    135.7171
  1733.5000      0.0000    615.5736      9.1355    129.6511
  1733.7500      0.0000    620.2249      9.0049    125.2472
  1734.0000      0.0000    624.3365      8.6390    122.4468
  1734.2500      0.0000    630.0718      8.0723    120.7371
  1734.5000      0.0000    636.5716      7.4561    119.9027
  1734.7500      0.0000    642.5187      6.9419    119.9716
  1735.0000      0.0000    648.1125      6.5932    120.7188
  1735.2500      0.0000    651.4344      6.3958    121.3433
  1735.5000      0.0000    650.0738      6.3091    120.9305
  1735.7500      0.0000    645.6222      6.2917    119.5537
  1736.0000      0.0000    640.9368      6.3092    118.5444
  1736.2500      0.0000    635.4434      6.3298    119.1731
  1736.5000      0.0000    628.0928      6.3328    121.3213
  1736.7500      0.0000    621.8359      6.3332    123.7664
  1737.0000      0.0000    620.2258      6.3653    125.3381
  1737.2500      0.0000    621.4155      6.4511    125.3823
  1737.5000      0.0000    618.2001      6.5898    123.5779
  1737.7500      0.0000    607.0941      6.7531    120.0748
  1738.0000      0.0000    596.5610      6.8977    115.7882
  1738.2500      0.0000    598.5938      7.0083    111.9456
  1738.5000      0.0000    613.2960      7.1132    109.2287
  1738.7500      0.0000    629.6677      7.2323    107.5419
  1739.0000      0.0000    638.8705      7.3505    106.3767
  1739.2500      0.0000    640.9446      7.4479    105.0985
  1739.5000      0.0000    641.4806      7.5201    103.1214
  1739.7500      0.0000    644.9468      7.5766    100.1719
  1740.0000      0.0000    650.9225      7.6311     96.5725
  1740.2500      0.0000    656.1597      7.6894     93.3912
  1740.5000      0.0000    658.7458      7.7380     91.9858
  1740.7500      0.0000    658.7391      7.7600     92.6233
  1741.0000      0.0000    656.1376      7.7641     93.6098
  1741.2500      0.0000    650.7469      7.7694     92.5837
  1741.5000      0.0000    644.1306      7.7627     88.6652
  1741.7500      0.0000    639.4926      7.7031     82.8544
