~Version Information
VERS.                      2.0: CWLS Log ASCII Standard - VERSION 2.0
WRAP.                       NO: One line per depth step
~Well Information Block
STRT.FT                -7.7500: 
STOP.FT              1485.2500: 
STEP.FT                 0.2500: 
NULL.                -999.2500: 
COMP.          Pioneer Natural Resources: COMPANY
WELL.          Hammerhead 24-24 Tr: WELL
FLD.           Purgatorie River: FIELD
LOC.           953' FSL & 1922' FWL--: LOCATION
CNTY.               Las Animas: COUNTY
SRVC.          Patterson Wireline: SERVICE COMPANY
DATE.          Thu Feb 02 15:03:23 2006: LOG DATE
UWI.           05 071 08669 00: UNIQUE WELL ID
STAT.                       CO: STATE
~Curve Information Block
DEPT.FT            0 000 00 00: Depth
CCL.                          : Casing Collar Locator
TT3.usec                      : CBL 3' Travel Time
AMP3.mV                       : CBL 3' Amplitude
GR.GAPI                       : Gamma Ray
~Parameter Information Block
~A  Depth       CCL         TT3         AMP3         GR     
# ...
   494.7500      0.0000    783.0060      6.8215     85.9759
   495.0000      0.0000    797.4830      6.7918     85.7526
   495.2500      0.0000    807.3470      6.7673     86.3503
   495.5000      0.0000    812.7410      6.7552     85.5440
   495.7500      0.0000    814.7652      6.7564     82.7059
   496.0000      0.0000    813.9084      6.7658     79.4568
   496.2500      0.0000    809.4371      6.7758     78.0551
   496.5000      0.0000    800.2097      6.7811     78.9520
   496.7500      0.0000    786.2543      6.7831     80.3918
   497.0000      0.0000    769.5466      6.7845     80.4714
   497.2500      0.0000    752.8748      6.7803     78.8794
   497.5000      0.0000    737.9633      6.7587     76.6568
   497.7500      0.0000    725.1022      6.7145     75.1609
   498.0000      0.0000    714.3066      6.6549     75.3290
   498.2500      0.0000    706.0530      6.5918     77.0499
   498.5000      0.0000    700.8777      6.5349     79.1838
   498.7500      0.0000    698.9736      6.4907     80.8094
   499.0000      0.0000    700.3618      6.4618     82.3015
   499.2500      0.0000    704.8612      6.4474     84.6770
   499.5000      0.0000    711.3583      6.4433     88.0929
   499.7500      0.0000    717.3209      6.4438     91.4707
   500.0000      0.0000    719.7979      6.4445     93.4833
   500.2500      0.0000    717.5185      6.4453     93.5735
   500.5000      0.0000    712.0297      6.4488     92.0618
   500.7500      0.0000    706.6605      6.4550     89.5711
   501.0000      0.0000    704.4202      6.4584     86.3827
   501.2500      0.0000    706.6119      6.4541     82.2377
   501.5000      0.0000    712.5626      6.4437     76.9184
   501.7500      0.0000    720.0692      6.4356     71.1469
   502.0000      0.0000    726.3671      6.4437     66.6449
   502.2500      0.0000    729.2907      6.4855     64.9536
   502.5000      0.0000    727.9222      6.5752     66.2056
   502.7500      0.0000    722.6468      6.7039     69.1271
   503.0000      0.0000    715.1702      6.8215     72.0643
   503.2500      0.0000    708.5075      6.8462     73.9178
   503.5000      0.0000    706.0969      6.7133     74.4776
   503.7500      0.0000    709.8269      6.4329     74.3089
   504.0000      0.0000    718.6959      6.0964     74.1784
   504.2500      0.0000    729.8788      5.8134     74.2735
   504.5000      0.0000    740.9589      5.6366     74.1536
   504.7500      0.0000    750.7155      5.5515     73.6687
   505.0000     -2.0000    758.4216      5.5258     73.6189
   505.2500      0.0000    763.5195      5.5543     75.1354
   505.5000      0.0000    765.7580      5.6665     78.5152
   505.7500      0.0000    764.7236      5.9032     83.0169
   506.0000      0.0000    759.5687      6.2714     87.8189
   506.2500      0.0000    750.3868      6.7021     92.6571
   506.5000      0.0000    740.0139      7.0649     97.0916
   506.7500      0.0000    733.8998      7.2498     99.5910
   507.0000      0.0000    737.9473      7.2342     98.4729
   507.2500      0.0000    755.7865      7.0736     93.9572
   507.5000      0.0000    786.4617      6.8497     88.3107
   507.7500      0.0000    823.3893      6.6339     83.5639
   508.0000      0.0000    855.9406      6.4706     79.9718
   508.2500      0.0000    874.1178      6.3713     76.9927
   508.5000      0.0000    874.0771      6.3218     74.7011
   508.7500      0.0000    860.0357      6.2996     73.5687
   509.0000      0.0000    840.1080      6.2884     73.5231
   509.2500      0.0000    819.8472      6.2834     73.8750
   509.5000      0.0000    799.9678      6.2884     74.0314
   509.7500      0.0000    779.5523      6.3097     73.9186
   510.0000      0.0000    759.6680      6.3477     73.6621
   510.2500      0.0000    743.2763      6.3933     73.1161
   510.5000      0.0000    732.9280      6.4339     72.0283
   510.7500      0.0000    729.3638      6.4598     70.7574
   511.0000      0.0000    731.2798      6.4687     70.5328
   511.2500      0.0000    735.6389      6.4650     72.5606
   511.5000      0.0000    739.1082      6.4556     76.8271
   511.7500      0.0000    739.9291      6.4466     82.0519
   512.0000      0.0000    738.3149      6.4404     87.0298
   512.2500      0.0000    735.4767      6.4360     91.8270
   512.5000      0.0000    732.8712      6.4334     97.3310
   512.7500      0.0000    731.8956      6.4350    103.6922
   513.0000      0.0000    733.3198      6.4433    109.7145
   513.2500      0.0000    736.9966      6.4569    113.8885
   513.5000      0.0000    742.4087      6.4717    115.5275
   513.7500      0.0000    749.0853      6.4828    114.7344
   514.0000      0.0000    756.1085      6.4853    111.9236
   514.2500      0.0000    761.8588      6.4743    107.8786
   514.5000      0.0000    765.0120      6.4470    103.9382
   514.7500      0.0000    765.6486      6.4074    101.5977
   515.0000      0.0000    765.0458      6.3662    101.7180
   515.2500      0.0000    764.4412      6.3354    104.2773
   515.5000      0.0000    763.9669      6.3214    108.8587
   515.7500      0.0000    762.5526      6.3231    114.8278
   516.0000      0.0000    758.9170      6.3347    120.6449
   516.2500      0.0000    752.7998      6.3509    123.6155
   516.5000      0.0000    745.3359      6.3707    121.3642
   516.7500      0.0000    738.2238      6.3965    113.7647
   517.0000      0.0000    732.3182      6.4284    103.1427
   517.2500      0.0000    727.0936      6.4599     92.6858
   517.5000      0.0000    721.8307      6.4805     84.7039
   517.7500      0.0000    717.1596      6.4851     79.8302
   518.0000      0.0000    714.6860      6.4797     77.3375
   518.2500      0.0000    714.9153      6.4764     76.2577
   518.5000      0.0000    716.2592      6.4847     76.3354
   518.7500      0.0000    716.5531      6.5066     77.8382
   519.0000      0.0000    715.0731      6.5391     80.4352
   519.2500      0.0000    712.5377      6.5780     82.6391
   519.5000      0.0000    709.7523      6.6208     82.8861
   519.7500      0.0000    707.1841      6.6669     81.2423
   520.0000      0.0000    705.5609      6.7145     79.5804
   520.2500      0.0000    705.8453      6.7582     79.8756
   520.5000      0.0000    708.4021      6.7896     82.4618
   520.7500      0.0000    712.5762      6.8005     85.8049
   521.0000      0.0000    717.0190      6.7868     87.6029
   521.2500      0.0000    720.0902      6.7505     86.1233
   521.5000      0.0000    720.3582      6.6995     80.9684
   521.7500      0.0000    717.6578      6.6462     73.1751
   522.0000      0.0000    714.0070      6.6035     64.9261
   522.2500      0.0000    712.9575      6.5796     58.8831
   522.5000      0.0000    717.3293      6.5733     57.0495
   522.7500      0.0000    726.9340      6.5763     59.7330
   523.0000      0.0000    738.2218      6.5822     65.5068
   523.2500      0.0000    746.5895      6.5905     72.3482
   523.5000      0.0000    749.7688      6.6035     78.9744
   523.7500      0.0000    749.2609      6.6202     85.0522
   524.0000      0.0000    748.3955      6.6368     90.3135
   524.2500      0.0000    749.0398      6.6525     94.0025
   524.5000      0.0000    750.2634      6.6724     95.4147
   524.7500      0.0000    749.9866      6.7030     94.5690
   525.0000      0.0000    747.4019      6.7445     92.1425
   525.2500      0.0000    743.5322      6.7880     89.0450
   525.5000      0.0000    739.9070      6.8200     86.0239
   525.7500      0.0000    737.3151      6.8316     83.4025
   526.0000      0.0000    735.7440      6.8237     81.2516
   526.2500      0.0000    734.9111      6.8040     79.7771
   526.5000      0.0000    734.5842      6.7804     79.1209
   526.7500      0.0000    734.5889      6.7577     78.7884
   527.0000      0.0000    734.7525      6.7383     77.9050
   527.2500      0.0000    734.9001      6.7242     76.3593
   527.5000      0.0000    734.8936      6.7158     75.3327
   527.7500      0.0000    734.6745      6.7088     76.3427
   528.0000      0.0000    734.2634      6.6943     79.8028
