~Version Information
VERS.                      2.0: CWLS Log ASCII Standard - VERSION 2.0
WRAP.                       NO: One line per depth step
~Well Information Block
STRT.FT                -8.0000: 
STOP.FT              1060.7500: 
STEP.FT                 0.2500: 
NULL.                -999.2500: 
COMP.          Pioneer Natural Resources: COMPANY
WELL.          Pavillion 44-25: WELL
FLD.           Purgatorie River: FIELD
LOC.           719' FSL & 650' FEL--: LOCATION
PROV.                       CO: PROVINCE
CNTY.               Las Animas: COUNTRY
SRVC.          Patterson Wireline: SERVICE COMPANY
DATE.          Mon Dec 19 11:59:26 2005: LOG DATE
UWI.           05 071 08624 00: UNIQUE WELL ID
~Curve Information Block
DEPT.FT            0 000 00 00: Depth
CCL.                          : Casing Collar Locator
TT3.usec                      : CBL 3' Travel Time
AMP3.mV                       : CBL 3' Amplitude
GR.GAPI                       : Gamma Ray
~Parameter Information Block
~A  Depth       CCL         TT3         AMP3         GR     
# ...
   193.0000      0.0000    730.0146      6.6526     94.2764
   193.2500      0.0000    744.8071      6.6568     94.3128
   193.5000      0.0000    762.3105      6.6576     95.7445
   193.7500      0.0000    774.0903      6.6615     97.2323
   194.0000      0.0000    775.0684      6.6727     97.7961
   194.2500      0.0000    763.5220      6.6792     97.3748
   194.5000      0.0000    738.7313      6.6595     96.6081
   194.7500      0.0000    701.2540      6.6014     96.2645
   195.0000      0.0000    655.0360      6.5080     96.6660
   195.2500      0.0000    607.0043      6.3855     97.4375
   195.5000      0.0000    564.1377      6.2340     97.6978
   195.7500      0.0000    531.1775      6.0535     96.6547
   196.0000      0.0000    509.5949      5.8541     94.2730
   196.2500      0.0000    497.4089      5.6549     91.3609
   196.5000      0.0000    490.5484      5.4742     88.8221
   196.7500      0.0000    485.4019      5.3224     86.9392
   197.0000      0.0000    480.7422      5.1959     85.4252
   197.2500      0.0000    477.6695      5.0774     84.0235
   197.5000      0.0000    477.7142      4.9458     83.1380
   197.7500      0.0000    480.8614      4.7907     83.8424
   198.0000      0.0000    485.3800      4.6122     86.7692
   198.2500      0.0000    489.4010      4.4112     90.8317
   198.5000      0.0000    492.1997      4.1913     93.6640
   198.7500      0.0000    494.3448      3.9726     93.8158
   199.0000      0.0000    497.6117      3.7946     92.1178
   199.2500      0.0000    505.5268      3.6991     90.3950
   199.5000      0.0000    523.5565      3.7082     89.3526
   199.7500      0.0000    556.7261      3.8178     88.4060
   200.0000      0.0000    604.4787      4.0038     87.0551
   200.2500      0.0000    657.3948      4.2380     85.6233
   200.5000      0.0000    701.2311      4.5016     84.9256
   200.7500      0.0000    726.0615      4.7887     85.6673
   201.0000      0.0000    731.6541      5.0895     87.7675
   201.2500      0.0000    724.9157      5.3631     89.9784
   201.5000      0.0000    714.5855      5.5344     90.5731
   201.7500      0.0000    708.5615      5.5439     88.6414
   202.0000      0.0000    713.2501      5.4141     84.5811
   202.2500      0.0000    732.0928      5.2492     79.5087
   202.5000      0.0000    763.8046      5.1472     74.5690
   202.7500      0.0000    802.5919      5.1148     70.6940
   203.0000      2.0000    841.2567      5.0770     68.3782
   203.2500      2.0000    874.4241      4.9622     67.2891
   203.5000      0.0000    897.5167      4.7748     66.6401
   203.7500      0.0000    903.5262      4.6025     66.5521
   204.0000      0.0000    885.5067      4.5560     68.6799
   204.2500      0.0000    844.9615      4.6757     74.7608
   204.5000      0.0000    794.5524      4.8791     84.5056
   204.7500      0.0000    748.2323      5.0147     95.2453
   205.0000      0.0000    709.4075      4.9823    103.6219
   205.2500      0.0000    671.9949      4.7942    107.5227
   205.5000      0.0000    632.8203      4.5303    106.8903
   205.7500      0.0000    599.4776      4.2619    103.4179
   206.0000      0.0000    584.4467      4.0237     99.6183
   206.2500      0.0000    592.5715      3.8321     97.7648
   206.5000      0.0000    615.1396      3.7056     99.1935
   206.7500      0.0000    635.0995      3.6596    103.9244
   207.0000      0.0000    637.7212      3.6865    110.4341
   207.2500      0.0000    618.7955      3.7488    116.1498
   207.5000      0.0000    586.8211      3.8009    118.9294
   207.7500      0.0000    558.6900      3.8221    118.4017
   208.0000      0.0000    550.2245      3.8267    115.9592
   208.2500      0.0000    566.5357      3.8428    113.5135
   208.5000      0.0000    599.3685      3.8832    112.0186
   208.7500      0.0000    633.8455      3.9380    110.6769
   209.0000      0.0000    658.4371      3.9897    107.4276
   209.2500      0.0000    669.2257      4.0313    100.6852
   209.5000      0.0000    667.3683      4.0713     91.0673
   209.7500      0.0000    655.7342      4.1243     81.4370
   210.0000      0.0000    638.7629      4.1971     75.0427
   210.2500      0.0000    623.1791      4.2812     73.4968
   210.5000      0.0000    616.2023      4.3610     76.2761
   210.7500      0.0000    622.1799      4.4248     81.6110
   211.0000      0.0000    640.6121      4.4679     87.5932
   211.2500      0.0000    666.2447      4.4869     92.7800
   211.5000      0.0000    690.0418      4.4795     96.2254
   211.7500      0.0000    701.4507      4.4474     97.3814
   212.0000      0.0000    693.8735      4.3948     96.4441
   212.2500      0.0000    671.2556      4.3250     94.7374
   212.5000      0.0000    648.6301      4.2451     94.0489
   212.7500      0.0000    642.7340      4.1704     95.0988
   213.0000      0.0000    660.2111      4.1194     96.7358
   213.2500      0.0000    694.7681      4.1057     96.7805
   213.5000      0.0000    734.2855      4.1387     93.8353
   213.7500      0.0000    768.5615      4.2273     88.5719
   214.0000      0.0000    791.8549      4.3736     83.3893
   214.2500      0.0000    801.9189      4.5615     80.6189
   214.5000      0.0000    799.1321      4.7584     80.8904
   214.7500      0.0000    786.8719      4.9314     83.1822
   215.0000      0.0000    771.2252      5.0615     86.2138
   215.2500      0.0000    757.4972      5.1482     89.5776
   215.5000      0.0000    745.0396      5.2052     93.6291
   215.7500      0.0000    725.9654      5.2500     98.3921
   216.0000      0.0000    690.7661      5.2927    102.4518
   216.2500      0.0000    637.3026      5.3366    103.3285
   216.5000      0.0000    575.2343      5.3855     99.8250
   216.7500      0.0000    520.9014      5.4447     93.9599
   217.0000      0.0000    487.8253      5.5100     89.6014
   217.2500      0.0000    482.1854      5.5638     88.8823
   217.5000      0.0000    504.0354      5.5906     90.4654
   217.7500      0.0000    548.0615      5.5955     91.4220
   218.0000      0.0000    603.0718      5.6040     90.2923
   218.2500      0.0000    655.1844      5.6414     88.0237
   218.5000      0.0000    694.7515      5.7152     86.4054
   218.7500      0.0000    719.9930      5.8127     86.2165
   219.0000      0.0000    732.4797      5.9130     86.9434
   219.2500      0.0000    729.2549      6.0020     87.8348
   219.5000      0.0000    701.9808      6.0791     88.7687
   219.7500      0.0000    647.2582      6.1511     89.9926
   220.0000      0.0000    578.1166      6.2186     91.2476
   220.2500      0.0000    520.5212      6.2720     91.5096
   220.5000      0.0000    494.2427      6.3022     89.8108
   220.7500      0.0000    498.1653      6.3120     86.3805
   221.0000      0.0000    516.6797      6.3120     82.8214
   221.2500      0.0000    538.4000      6.3058     80.8852
   221.5000      0.0000    563.9703      6.2863     80.8978
   221.7500      0.0000    596.3856      6.2510     81.5069
   222.0000      0.0000    630.1133      6.2165     81.1484
   222.2500      0.0000    651.8829      6.2123     79.6500
   222.5000      0.0000    648.7564      6.2595     78.2496
   222.7500      0.0000    616.0276      6.3556     78.3059
   223.0000      0.0000    561.3388      6.4793     80.3373
   223.2500      0.0000    501.2043      6.6085     84.0501
   223.5000      0.0000    450.8578      6.7349     88.6577
   223.7500      0.0000    416.5211      6.8599     92.9697
   224.0000      0.0000    396.1435      6.9796     95.5272
   224.2500      0.0000    384.6032      7.0781     95.2436
   224.5000      0.0000    377.6436      7.1389     92.2519
   224.7500      0.0000    373.1017      7.1575     88.0063
   225.0000      0.0000    370.2201      7.1412     84.3544
   225.2500      0.0000    368.1488      7.1020     82.4984
   225.5000      0.0000    365.3039      7.0528     82.7095
   225.7500      0.0000    360.4486      7.0069     84.6173
   226.0000      0.0000    353.9849      6.9774     87.4710
   226.2500      0.0000    347.6486      6.9739     90.1853
