~Version Information
VERS.                      2.0: CWLS Log ASCII Standard - VERSION 2.0
WRAP.                       NO: One line per depth step
~Well Information Block
STRT.FT                -7.7500: 
STOP.FT              1485.2500: 
STEP.FT                 0.2500: 
NULL.                -999.2500: 
COMP.          Pioneer Natural Resources: COMPANY
WELL.          Hammerhead 24-24 Tr: WELL
FLD.           Purgatorie River: FIELD
LOC.           953' FSL & 1922' FWL--: LOCATION
CNTY.               Las Animas: COUNTY
SRVC.          Patterson Wireline: SERVICE COMPANY
DATE.          Thu Feb 02 15:03:23 2006: LOG DATE
UWI.           05 071 08669 00: UNIQUE WELL ID
STAT.                       CO: STATE
~Curve Information Block
DEPT.FT            0 000 00 00: Depth
CCL.                          : Casing Collar Locator
TT3.usec                      : CBL 3' Travel Time
AMP3.mV                       : CBL 3' Amplitude
GR.GAPI                       : Gamma Ray
~Parameter Information Block
~A  Depth       CCL         TT3         AMP3         GR     
# ...
   963.7500      0.0000    707.4139      6.8527    144.2412
   964.0000      0.0000    713.0516      6.8896    139.0136
   964.2500      0.0000    721.5350      6.9551    132.0736
   964.5000      0.0000    730.6108      7.0265    124.1063
   964.7500      0.0000    737.3484      7.0970    115.5836
   965.0000      0.0000    740.3814      7.1692    107.3781
   965.2500      0.0000    740.5750      7.2398    100.9003
   965.5000      0.0000    739.7507      7.2959     96.9799
   965.7500      0.0000    738.5602      7.3289     94.5067
   966.0000      0.0000    735.4459      7.3474     91.0257
   966.2500      0.0000    728.3458      7.3695     85.1432
   966.5000      0.0000    717.4583      7.4016     77.9778
   966.7500      0.0000    705.5919      7.4310     72.2187
   967.0000      0.0000    695.8766      7.4362     70.2169
   967.2500      0.0000    689.7009      7.4035     72.7256
   967.5000      0.0000    686.5928      7.3395     78.6004
   967.7500      0.0000    685.2724      7.2730     85.4111
   968.0000      0.0000    684.5873      7.2447     90.7427
   968.2500      0.0000    683.9099      7.2842     93.1220
   968.5000      0.0000    683.1239      7.3926     91.9069
   968.7500      0.0000    682.4101      7.5431     87.0555
   969.0000      0.0000    681.9950      7.6937     79.6553
   969.2500      0.0000    682.0268      7.8035     72.2256
   969.5000      0.0000    682.7080      7.8472     67.4957
   969.7500      0.0000    684.5791      7.8263     66.4549
   970.0000      0.0000    688.5291      7.7684     67.9174
   970.2500      0.0000    694.6946      7.7120     70.1145
   970.5000      0.0000    699.8903      7.6893     72.3827
   970.7500      0.0000    695.6996      7.7177     75.2881
   971.0000      0.0000    671.4153      7.7984     79.7475
   971.2500      0.0000    622.4848      7.9179     86.3160
   971.5000      0.0000    557.2791      8.0522     94.8013
   971.7500      0.0000    494.0442      8.1773    104.1045
   972.0000      0.0000    449.9034      8.2813    112.5412
   972.2500      0.0000    432.3615      8.3681    118.4840
   972.5000      0.0000    439.9300      8.4477    120.8753
   972.7500      0.0000    468.1920      8.5272    119.5325
   973.0000      0.0000    512.9828      8.6110    115.2771
   973.2500      0.0000    567.2802      8.7056    109.7170
   973.5000      0.0000    617.7494      8.8200    104.7103
   973.7500      0.0000    648.0829      8.9618    101.7961
   974.0000      0.0000    646.7291      9.1309    101.7374
   974.2500      0.0000    611.6746      9.3149    104.1875
   974.5000      0.0000    551.0243      9.4916    107.6545
   974.7500      0.0000    480.9553      9.6388    110.0298
   975.0000      0.0000    419.4893      9.7445    109.5505
   975.2500      0.0000    377.9254      9.8088    105.5936
   975.5000      0.0000    357.3933      9.8342     98.8309
   975.7500      0.0000    353.1404      9.8130     90.8144
   976.0000      0.0000    360.0347      9.7336     83.3553
   976.2500      0.0000    373.3332      9.6022     77.8171
   976.5000      0.0000    386.6010      9.4551     74.4440
   976.7500      0.0000    392.8146      9.3398     72.3507
   977.0000      0.0000    389.7173      9.2772     70.4681
   977.2500      0.0000    383.2627      9.2423     68.6184
   977.5000      0.0000    383.5425      9.1810     67.5099
   977.7500      0.0000    395.6964      9.0532     67.6354
   978.0000      0.0000    414.1467      8.8627     68.4145
   978.2500      0.0000    426.7496      8.6521     68.6073
   978.5000      0.0000    426.5811      8.4676     67.4968
   978.7500      0.0000    419.8440      8.3281     65.5162
   979.0000      0.0000    421.2404      8.2210     63.6597
   979.2500      0.0000    441.3727      8.1232     62.6383
   979.5000      0.0000    477.3932      8.0269     62.8383
   979.7500      0.0000    513.9536      7.9489     64.5122
   980.0000      0.0000    533.9749      7.9149     67.3770
   980.2500      0.0000    530.6090      7.9317     70.4581
   980.5000      0.0000    509.4802      7.9785     72.9792
   980.7500      0.0000    480.8681      8.0264     75.1848
   981.0000      0.0000    452.2183      8.0637     77.8633
   981.2500      0.0000    427.3482      8.0989     81.2402
   981.5000      0.0000    408.4287      8.1442     84.5866
   981.7500      0.0000    396.2924      8.2000     86.9504
   982.0000      0.0000    389.9425      8.2527     88.3528
   982.2500      0.0000    387.2659      8.2856     90.0901
   982.5000      0.0000    386.3562      8.2938     93.3915
   982.7500      0.0000    386.1627      8.2865     97.9535
   983.0000      0.0000    386.5577      8.2719    102.5802
   983.2500      0.0000    388.4147      8.2413    107.2275
   983.5000      0.0000    393.8080      8.1776    113.3598
   983.7500      0.0000    405.1763      8.0815    121.7971
   984.0000      0.0000    422.4289      7.9846    130.7188
   984.2500      0.0000    440.1805      7.9337    136.6086
   984.5000      0.0000    450.2666      7.9586    137.5686
   984.7500      0.0000    449.4985      8.0489    135.2236
   985.0000      0.0000    443.4602      8.1569    132.9413
   985.2500      0.0000    440.5548      8.2300    132.7005
   985.5000      0.0000    444.2622      8.2423    134.1239
   985.7500      0.0000    453.8303      8.1977    136.1073
   986.0000      0.0000    470.2643      8.1103    138.5130
   986.2500      0.0000    496.7917      7.9943    141.6727
   986.5000      0.0000    531.4691      7.8721    144.6862
   986.7500      0.0000    561.8258      7.7802    145.3491
   987.0000      0.0000    570.9401      7.7520    142.0277
   987.2500      0.0000    550.8685      7.7897    135.0045
   987.5000      0.0000    509.8647      7.8565    126.0173
   987.7500      0.0000    466.0311      7.9021    117.0125
   988.0000      0.0000    434.2271      7.9022    109.2869
   988.2500      0.0000    418.1868      7.8754    103.3915
   988.5000      0.0000    412.7600      7.8653     99.5124
   988.7500      0.0000    411.8990      7.8992     97.6579
   989.0000      0.0000    415.1025      7.9592     97.6439
   989.2500      0.0000    427.4971      7.9904     99.3162
   989.5000      0.0000    453.1197      7.9500    102.6704
   989.7500      0.0000    487.0786      7.8533    107.5398
   990.0000      0.0000    516.5041      7.7514    113.4454
   990.2500      0.0000    533.3051      7.6483    119.7375
   990.5000      0.0000    544.7216      7.4754    125.3640
   990.7500      0.0000    565.7076      7.1871    128.6602
   991.0000      0.0000    601.0945      6.8527    128.2400
   991.2500      0.0000    640.9420      6.6026    124.4136
   991.5000      0.0000    673.1284      6.5057    119.3707
   991.7500      2.0000    694.0645      6.5350    115.8212
   992.0000      0.0000    705.4683      6.6249    115.2608
   992.2500      0.0000    706.8484      6.7272    117.0841
   992.5000      0.0000    696.3074      6.8288    119.4772
   992.7500      0.0000    676.8497      6.9523    121.5768
   993.0000      0.0000    655.7219      7.1385    124.3298
   993.2500      0.0000    635.0119      7.4068    128.7295
   993.5000      0.0000    607.6320      7.7313    133.7769
   993.7500      0.0000    567.4956      8.0587    136.8789
   994.0000      0.0000    521.9338      8.3367    136.3118
   994.2500      0.0000    489.9300      8.5294    133.1400
   994.5000      0.0000    487.4396      8.6313    130.5008
   994.7500      0.0000    514.8732      8.6724    130.8900
   995.0000      0.0000    557.0575      8.6941    134.1339
   995.2500      0.0000    593.3067      8.7187    137.6116
   995.5000      0.0000    608.5267      8.7438    138.0566
   995.7500      0.0000    598.6265      8.7573    133.7023
   996.0000      0.0000    569.6420      8.7485    125.4835
   996.2500      0.0000    533.4683      8.7141    116.2482
   996.5000      0.0000    503.2861      8.6615    108.4838
   996.7500      0.0000    490.9350      8.6083    102.6936
   997.0000      0.0000    504.7701      8.5746     97.8686
