~Version Information
VERS.                      2.0: CWLS Log ASCII Standard - VERSION 2.0
WRAP.                       NO: One line per depth step
~Well Information Block
STRT.FT                -7.5000: 
STOP.FT              1572.0000: 
STEP.FT                 0.2500: 
NULL.                -999.2500: 
COMP.          Pioneer Natural Resources: COMPANY
WELL.          Galloway 32-13 Tr: WELL
FLD.           Purgatoire River: FIELD
LOC.           --1910' FNL & 2002' FEL----: LOCATION
PROV.                       CO: PROVINCE
CNTY.               Las Animas: COUNTRY
SRVC.          Patterson Wireline: SERVICE COMPANY
DATE.          Thu Nov 17 12:46:45 2005: LOG DATE
UWI.           05 071 08608 00: UNIQUE WELL ID
~Curve Information Block
DEPT.FT            0 000 00 00: Depth
CCL.                          : Casing Collar Locator
TT3.usec                      : CBL 3' Travel Time
AMP3.mV                       : CBL 3' Amplitude
GR.GAPI                       : Gamma Ray
~Parameter Information Block
~A  Depth       CCL         TT3         AMP3         GR     
# ...
  1533.5000      0.0000    750.8611     12.3018     44.4917
  1533.7500      0.0000    754.7477     12.9138     45.2079
  1534.0000      0.0000    756.9390     13.4630     45.0900
  1534.2500      0.0000    759.6312     13.9202     44.8284
  1534.5000      0.0000    763.5577     14.2871     45.0231
  1534.7500      0.0000    767.3163     14.5603     45.8795
  1535.0000      0.0000    768.6499     14.7042     47.1042
  1535.2500      0.0000    766.0627     14.6734     48.0732
  1535.5000      0.0000    759.4555     14.4570     48.3686
  1535.7500      0.0000    749.8818     14.0935     48.1102
  1536.0000      0.0000    738.9857     13.6453     47.5306
  1536.2500      0.0000    728.6602     13.1675     46.6717
  1536.5000      0.0000    721.0009     12.6964     46.0351
  1536.7500      0.0000    717.8613     12.2572     47.0846
  1537.0000      0.0000    719.7928     11.8728     51.3235
  1537.2500      0.0000    725.5200     11.5652     59.0542
  1537.5000      0.0000    732.8248     11.3428     69.5316
  1537.7500      0.0000    739.7816     11.1799     81.9713
  1538.0000      0.0000    745.0381     11.0011     95.7554
  1538.2500      0.0000    747.8342     10.7044    109.9156
  1538.5000      0.0000    748.8597     10.2359    123.0102
  1538.7500      0.0000    750.6021      9.6485    133.4827
  1539.0000      0.0000    755.3772      9.0545    140.0506
  1539.2500      0.0000    762.8572      8.5257    142.2201
  1539.5000      0.0000    770.4085      8.0792    140.7583
  1539.7500      0.0000    775.7255      7.7336    137.3536
  1540.0000      0.0000    778.3900      7.5141    133.4327
  1540.2500      0.0000    779.2032      7.4118    129.4230
  1540.5000      0.0000    778.6718      7.3873    125.2994
  1540.7500      0.0000    775.9386      7.4116    121.4849
  1541.0000      0.0000    768.4983      7.4986    118.7924
  1541.2500      0.0000    753.5985      7.7136    117.7542
  1541.5000      0.0000    731.7960      8.1263    118.4345
  1541.7500      0.0000    709.7837      8.7034    120.7862
  1542.0000      0.0000    697.5865      9.2685    124.6732
  1542.2500      0.0000    700.8573      9.6495    129.4625
  1542.5000      0.0000    716.4931      9.8516    133.8610
  1542.7500      0.0000    736.2593     10.0101    136.4441
  1543.0000      0.0000    753.1047     10.2084    136.6251
  1543.2500      0.0000    763.9158     10.4193    135.1957
  1543.5000      0.0000    768.9231     10.5889    133.6084
  1543.7500      0.0000    770.3133     10.7033    132.7359
  1544.0000      0.0000    770.6918     10.7847    132.7123
  1544.2500      0.0000    771.4918     10.8662    133.5877
  1544.5000      0.0000    772.2442     10.9771    135.2471
  1544.7500      0.0000    771.3315     11.1267    137.0031
  1545.0000      0.0000    767.4467     11.2957    138.0326
  1545.2500      0.0000    760.7591     11.4453    137.8478
  1545.5000      0.0000    753.1149     11.5418    136.1213
  1545.7500      0.0000    747.1934     11.5739    132.9820
  1546.0000      0.0000    745.1223     11.5470    129.6696
  1546.2500      0.0000    747.4398     11.4687    127.6291
  1546.5000      0.0000    752.8047     11.3462    126.5231
  1546.7500      0.0000    758.5133     11.2009    124.2629
  1547.0000      0.0000    761.8362     11.0790    119.7024
  1547.2500      0.0000    761.5042     11.0442    114.6956
  1547.5000      0.0000    758.0588     11.1533    112.6382
  1547.7500      0.0000    752.9171     11.4250    114.9574
  1548.0000      0.0000    747.4318     11.8218    119.6048
  1548.2500      0.0000    742.6474     12.2598    123.0875
  1548.5000      0.0000    739.1985     12.6365    123.4063
  1548.7500      0.0000    736.9017     12.8673    120.9583
  1549.0000      0.0000    734.2758     12.9176    117.3800
  1549.2500      0.0000    728.1149     12.8181    114.1419
  1549.5000      0.0000    713.7888     12.6482    112.0309
  1549.7500      0.0000    687.9246     12.4959    111.4372
  1550.0000      0.0000    653.5716     12.4193    112.8170
  1550.2500      0.0000    623.0304     12.4337    116.5669
  1550.5000      0.0000    612.2061     12.5218    122.1458
  1550.7500      0.0000    628.6076     12.6480    127.5567
  1551.0000      0.0000    664.3949     12.7647    130.5657
  1551.2500      0.0000    702.2940     12.8203    130.7515
  1551.5000      0.0000    728.4911     12.7789    129.6988
  1551.7500      0.0000    740.0731     12.6404    128.8727
  1552.0000      0.0000    742.4284     12.4356    128.1384
  1552.2500      0.0000    742.3351     12.2000    126.8154
  1552.5000      0.0000    743.5961     11.9548    125.1743
  1552.7500      0.0000    746.6011     11.7131    123.9689
  1553.0000      0.0000    749.6325     11.4937    123.0728
  1553.2500      0.0000    749.8624     11.3199    121.5213
  1553.5000      0.0000    743.4023     11.2041    118.8790
  1553.7500      0.0000    725.3694     11.1408    116.0709
  1554.0000      0.0000    692.0343     11.1136    114.6796
  1554.2500      0.0000    644.7389     11.1078    115.4056
  1554.5000      0.0000    591.2161     11.1141    117.2033
  1554.7500      0.0000    541.0549     11.1236    118.0801
  1555.0000      0.0000    499.3684     11.1217    116.8672
  1555.2500      0.0000    465.6492     11.0882    114.1849
  1555.5000      0.0000    438.3230     11.0025    111.7188
  1555.7500      0.0000    418.8933     10.8518    110.6795
  1556.0000      0.0000    411.2600     10.6417    110.9602
  1556.2500      0.0000    418.0134     10.4110    111.7347
  1556.5000      0.0000    438.5714     10.2306    112.6453
  1556.7500      0.0000    470.4192     10.1731    113.9011
  1557.0000      0.0000    509.3128     10.2716    115.1699
  1557.2500      0.0000    546.0110     10.5101    115.1695
  1557.5000      0.0000    565.4446     10.8527    112.4762
  1557.7500      0.0000    555.1467     11.2674    105.7733
  1558.0000      0.0000    517.0894     11.7179     93.4182
  1558.2500      0.0000    468.9819     12.1428     74.5878
  1558.5000      0.0000    432.1690     12.4564     51.6604
  1558.7500      0.0000    418.1621     12.5887     29.9921
  1559.0000      0.0000    424.3490     12.5408     14.2445
  1559.2500      0.0000    438.6534     12.3989      5.4462
  1559.5000      0.0000    447.9893     12.2755      1.6586
  1559.7500      0.0000    445.5097     12.2265      0.3994
  1560.0000      0.0000    432.5082     12.2274      0.0752
  1560.2500      0.0000    414.7208     12.2243      0.0104
  1560.5000      0.0000    397.6077     12.1940      0.0000
  1560.7500      0.0000    384.3982     12.1531   -999.2500
  1561.0000      0.0000    376.4007     12.1266   -999.2500
  1561.2500      0.0000    373.8863     12.1235   -999.2500
  1561.5000      0.0000    376.8076     12.1411   -999.2500
  1561.7500      0.0000    384.5778     12.1830   -999.2500
  1562.0000      0.0000    394.7860     12.2705   -999.2500
  1562.2500      0.0000    402.7475     12.4252   -999.2500
  1562.5000      0.0000    403.2117     12.6026   -999.2500
  1562.7500      0.0000    391.6949     12.5988   -999.2500
  1563.0000      0.0000    363.1887     12.0316   -999.2500
  1563.2500      0.0000    312.5018     10.5207   -999.2500
  1563.5000      0.0000    240.5076      8.0258   -999.2500
  1563.7500      0.0000    159.6948      5.0377   -999.2500
  1564.0000      0.0000     88.8679      2.3270   -999.2500
  1564.2500      0.0000     40.5900      0.4356   -999.2500
  1564.5000      0.0000     14.9972     -0.5859   -999.2500
  1564.7500      0.0000      4.4367     -1.0142   -999.2500
  1565.0000      0.0000      1.0424     -1.1537   -999.2500
  1565.2500      0.0000      0.1916     -1.1891   -999.2500
  1565.5000      0.0000      0.0247     -1.1961   -999.2500
  1565.7500      0.0000   -999.2500   -999.2500   -999.2500
  1566.0000      0.0000   -999.2500   -999.2500   -999.2500
  1566.2500      0.0000   -999.2500   -999.2500   -999.2500
  1566.5000      0.0000   -999.2500   -999.2500   -999.2500
  1566.7500      0.0000   -999.2500   -999.2500   -999.2500
