~Version Information
VERS.                      2.0: CWLS Log ASCII Standard - VERSION 2.0
WRAP.                       NO: One line per depth step
~Well Information Block
STRT.FT               -10.7500: 
STOP.FT              1466.2500: 
STEP.FT                 0.2500: 
NULL.                -999.2500: 
COMP.          Pioneer Natural Resources: COMPANY
WELL.             Andrew 23-15: WELL
FLD.           Purgatorie River: FIELD
LOC.           2137' FSL & 2292' FWL--: LOCATION
PROV.                       CO: PROVINCE
CNTY.               Las Animas: COUNTRY
SRVC.          Patterson Wireline: SERVICE COMPANY
DATE.          Thu Aug 18 11:51:45 2005: LOG DATE
UWI.           05 071 08460 00: UNIQUE WELL ID
~Curve Information Block
DEPT.FT            0 000 00 00: Depth
CCL.                          : Casing Collar Locator
TT3.usec                      : CBL 3' Travel Time
AMP3.mV                       : CBL 3' Amplitude
GR.GAPI                       : Gamma Ray
~Parameter Information Block
~A  Depth       CCL         TT3         AMP3         GR     
# ...
    89.7500      0.0000    788.2305     16.9999     54.4494
    90.0000      0.0000    815.0289     16.9196     52.7333
    90.2500      0.0000    824.1156     16.8568     50.9220
    90.5000      0.0000    812.6525     16.8322     50.2716
    90.7500      0.0000    783.9379     16.8691     50.9274
    91.0000      0.0000    747.9976     16.9707     51.5280
    91.2500      0.0000    717.5727     17.1119     50.6261
    91.5000      0.0000    699.1275     17.2667     48.2143
    91.7500      0.0000    688.4847     17.4401     45.7594
    92.0000      0.0000    674.7752     17.6730     44.9684
    92.2500      0.0000    645.6767     18.0181     46.5567
    92.5000      0.0000    593.2654     18.4993     49.9296
    92.7500      0.0000    522.1287     19.0789     53.9001
    93.0000      0.0000    449.8473     19.6656     57.6906
    93.2500      0.0000    394.3587     20.1707     61.2451
    93.5000      0.0000    361.7425     20.5598     64.7988
    93.7500      0.0000    346.7813     20.8550     68.5973
    94.0000      0.0000    341.2585     21.0990     72.9932
    94.2500      0.0000    339.5240     21.3237     78.2033
    94.5000      0.0000    339.0506     21.5321     83.8719
    94.7500      0.0000    339.0476     21.6970     89.3014
    95.0000      0.0000    339.3171     21.7846     94.0804
    95.2500      0.0000    339.8105     21.7792     98.0326
    95.5000      0.0000    340.6038     21.6771    100.5783
    95.7500      0.0000    342.0365     21.4716    100.6170
    96.0000      0.0000    344.7642     21.1749     97.3578
    96.2500      0.0000    349.3298     20.8590     91.3609
    96.5000      0.0000    355.2898     20.6412     84.7640
    96.7500      0.0000    360.7795     20.6081     80.3026
    97.0000      0.0000    363.5087     20.7590     79.7811
    97.2500      0.0000    362.6031     21.0290     83.1490
    97.5000      0.0000    359.2502     21.3544     88.7654
    97.7500      0.0000    355.3257     21.7082     94.5552
    98.0000      0.0000    351.8506     22.0814     99.1261
    98.2500      0.0000    349.1879     22.4418    101.9797
    98.5000      0.0000    348.0677     22.7182    102.8894
    98.7500      0.0000    349.3255     22.8317    101.3295
    99.0000      0.0000    352.4862     22.7531     96.7476
    99.2500      0.0000    355.3882     22.5268     89.5066
    99.5000      0.0000    355.8732     22.2321     81.2954
    99.7500      0.0000    353.8746     21.9222     74.2544
   100.0000      0.0000    351.5029     21.6030     69.6745
   100.2500      0.0000    351.1407     21.2633     67.5185
   100.5000      0.0000    353.7830     20.9081     66.9608
   100.7500      0.0000    359.3990     20.5559     67.3216
   101.0000      0.0000    368.9360     20.2190     68.6687
   101.2500      0.0000    386.2354     19.8985     71.5658
   101.5000      0.0000    417.4608     19.5926     76.0111
   101.7500      0.0000    465.2873     19.2981     80.6765
   102.0000      0.0000    519.8746     19.0081     83.6899
   102.2500      0.0000    557.8992     18.7237     84.4367
   102.5000      0.0000    558.1896     18.4653     84.1651
   102.7500      0.0000    521.0660     18.2665     84.4984
   103.0000      0.0000    468.3278     18.1547     85.7300
   103.2500      0.0000    423.7781     18.1390     86.8669
   103.5000      0.0000    397.3639     18.2112     86.9634
   103.7500      0.0000    386.4200     18.3471     86.0565
   104.0000      0.0000    385.7810     18.5090     84.8948
   104.2500      0.0000    394.8072     18.6548     84.0836
   104.5000      0.0000    417.8045     18.7577     83.6904
   104.7500      0.0000    458.4178     18.8231     83.5411
   105.0000      0.0000    511.4439     18.8878     83.5992
   105.2500      0.0000    560.3771     19.0042     83.8977
   105.5000      0.0000    585.9879     19.2193     84.1907
   105.7500      0.0000    578.1710     19.5552     84.0353
   106.0000      0.0000    539.9918     19.9931     83.3558
   106.2500      0.0000    484.2412     20.4717     82.6589
   106.5000      0.0000    427.7085     20.9058     82.4376
   106.7500      0.0000    384.0421     21.2198     82.5712
   107.0000      0.0000    357.9864     21.3776     82.5570
   107.2500      0.0000    346.0210     21.3939     82.2278
   107.5000      0.0000    341.8871     21.3218     81.9904
   107.7500      0.0000    340.9886     21.2233     82.2520
   108.0000      0.0000    341.2767     21.1409     82.7120
   108.2500      0.0000    342.4296     21.0838     82.5324
   108.5000      0.0000    345.0642     21.0299     81.3956
   108.7500      0.0000    350.0136     20.9396     80.0370
   109.0000      0.0000    357.9247     20.7776     79.3804
   109.2500      0.0000    369.8595     20.5347     79.4512
   109.5000      0.0000    389.5510     20.2337     79.5438
   109.7500      0.0000    425.0137     19.9136     79.0990
   110.0000      0.0000    484.9057     19.6027     77.9496
   110.2500      0.0000    569.3352     19.3081     76.0427
   110.5000      0.0000    664.0601     19.0273     73.4517
   110.7500      0.0000    747.3362     18.7637     70.6259
   111.0000      0.0000    804.4108     18.5296     68.2638
   111.2500      0.0000    834.8227     18.3393     66.7485
   111.5000      0.0000    847.3605     18.2050     65.7726
   111.7500      0.0000    851.2911     18.1344     64.6429
   112.0000      0.0000    852.1502     18.1233     62.9748
   112.2500      0.0000    852.1978     18.1460     61.2481
   112.5000      0.0000    852.0699     18.1621     60.7821
   112.7500      0.0000    851.7903     18.1416     62.8975
   113.0000      0.0000    850.8551     18.0860     67.8018
   113.2500      0.0000    847.6762     18.0263     74.3058
   113.5000      0.0000    838.9995     17.9979     80.7071
   113.7500      0.0000    821.1300     18.0137     85.7749
   114.0000      0.0000    794.5667     18.0530     88.9504
   114.2500      0.0000    768.5568     18.0736     90.2194
   114.5000      0.0000    757.4363     18.0384     90.1481
   114.7500      0.0000    768.4090     17.9375     89.6029
   115.0000      0.0000    794.2982     17.7946     89.0069
   115.2500      0.0000    820.7777     17.6525     88.1417
   115.5000      0.0000    838.5560     17.5479     86.7918
   115.7500      0.0000    846.9976     17.4922     84.9992
   116.0000      0.0000    849.2557     17.4768     82.7135
   116.2500      0.0000    846.9966     17.4908     80.0210
   116.5000      0.0000    838.5510     17.5294     77.7175
   116.7500      0.0000    820.7521     17.5842     76.9036
   117.0000      0.0000    794.2150     17.6314     77.9836
   117.2500      0.0000    768.2192     17.6381     80.4840
   117.5000      0.0000    757.0970     17.5877     83.5857
   117.7500      0.0000    768.0422     17.4995     86.3793
   118.0000      0.0000    793.8371     17.4178     87.8846
   118.2500      0.0000    820.0164     17.3759     87.4147
   118.5000      0.0000    836.7076     17.3664     85.1408
   118.7500      0.0000    841.2734     17.3497     82.1423
   119.0000      0.0000    832.4125     17.2863     79.6857
   119.2500      0.0000    805.7587     17.1602     78.3479
   119.5000      0.0000    757.5212     16.9725     77.7949
   119.7500      0.0000    693.1760     16.7280     77.5267
   120.0000      0.0000    630.3301     16.4553     77.8189
   120.2500      0.0000    590.5732     16.2240     79.4927
   120.5000      0.0000    590.2782     16.0693     82.7144
   120.7500      0.0000    638.9188     15.8724     86.7538
   121.0000      0.0000    735.7999     15.4105     91.0456
   121.2500      0.0000    861.6936     14.6009     95.5204
   121.5000      0.0000    982.4901     13.6308     99.4890
   121.7500      0.0000   1070.0773     12.7967    101.1335
   122.0000      2.0000   1117.7037     12.2743     98.8970
   122.2500      0.0000   1133.8877     12.0735     93.1524
   122.5000     -2.0000   1126.2030     12.1410     86.0897
   122.7500      0.0000   1092.9150     12.4643     80.0619
   123.0000      0.0000   1028.8300     13.0992     76.1529
