~Version Information
VERS.                      2.0: CWLS Log ASCII Standard - VERSION 2.0
WRAP.                       NO: One line per depth step
~Well Information Block
STRT.FT                 0.0000: 
STOP.FT              1528.0000: 
STEP.FT                 0.1000: 
NULL.                -999.2500: 
COMP.          Pioneer Natural Resources: COMPANY
WELL.             Andrew 23-15: WELL
FLD.           Purgatorie River: FIELD
LOC.           2137' FSL & 2292' FWL: LOCATION
PROV.                 Colorado: PROVINCE
CNTY.               Las Animas: COUNTRY
SRVC.                Patterson: SERVICE COMPANY
DATE.          Sat Aug 13 12:06:57 2005: LOG DATE
UWI.                          : UNIQUE WELL ID
~Curve Information Block
DEPT.FT            0 000 00 00: Depth
DCAL.in                       : CDL Caliper
RHOB.g/cc                     : CDL Bulk Density
RHOC.g/cc                     : CDL Density Correction
DPOR.pu                       : CDL Density Porosity
GR.GAPI                       : Gamma Ray
NPOR.pu                       : Neutron Porosity
~Parameter Information Block
~A  Depth       DCAL        RHOB        RHOC        DPOR         GR         NPOR    
# ...
   806.4000      8.1080      2.6039      0.1389      2.7968    124.1962     21.5059
   806.5000      8.1399      2.6126      0.1090      2.2654    129.6606     21.3541
   806.6000      8.1399      2.6256      0.1601      1.4809    133.1525     21.3030
   806.7000      8.1399      2.6330      0.1294      1.0294    132.8184     21.4161
   806.8000      8.1485      2.6342      0.1284      0.9585    128.9665     21.6578
   806.9000      8.1485      2.6301      0.1271      1.2042    124.2603     21.7777
   807.0000      8.1437      2.6188      0.1243      1.8914    122.6099     21.5642
   807.1000      8.1437      2.5961      0.0967      3.2649    124.9707     21.2962
   807.2000      8.1437      2.5641      0.0643      5.2073    126.8246     21.2759
   807.3000      8.1609      2.5324      0.0508      7.1294    125.9948     21.3644
   807.4000      8.1609      2.5079      0.0462      8.6150    125.4737     21.3554
   807.5000      8.1718      2.4982      0.0075      9.1984    126.0487     21.2868
   807.6000      8.1718      2.5096      0.1006      8.5115    125.9793     21.2976
   807.7000      8.1718      2.5333      0.1521      7.0714    125.1004     21.4691
   807.8000      8.1681      2.5585      0.1604      5.5483    122.5738     21.7667
   807.9000      8.1681      2.5789      0.1801      4.3111    118.7800     22.0127
   808.0000      8.1599      2.5882      0.2066      3.7469    117.0199     22.0068
   808.1000      8.1599      2.5853      0.1896      3.9212    116.6953     21.8951
   808.2000      8.1599      2.5796      0.1716      4.2663    114.7901     22.0187
   808.3000      8.1599      2.5756      0.1818      4.5091    112.4578     22.4061
   808.4000      8.1599      2.5635      0.1651      5.2419    114.0457     22.8362
   808.5000      8.1504      2.5402      0.1158      6.6540    119.3739     23.1609
   808.6000      8.1504      2.5206      0.1002      7.8420    122.9003     23.5794
   808.7000      8.1504      2.5167      0.0658      8.0759    123.2534     24.2840
   808.8000      8.0876      2.5248      0.0814      7.5855    124.1605     25.1012
   808.9000      8.0876      2.5343      0.0903      7.0132    126.1870     25.8514
   809.0000      8.0703      2.5400      0.0869      6.6649    127.0010     26.4916
   809.1000      8.0703      2.5426      0.1054      6.5088    125.4277     27.0816
   809.2000      8.0703      2.5446      0.0865      6.3899    122.5139     27.7563
   809.3000      8.0628      2.5474      0.1028      6.2191    120.4771     28.4009
   809.4000      8.0628      2.5430      0.1043      6.4846    120.4517     28.9386
   809.5000      8.0709      2.5306      0.0839      7.2377    121.6785     29.3881
   809.6000      8.0709      2.5276      0.0804      7.4196    123.5013     29.6821
   809.7000      8.0709      2.5419      0.0435      6.5487    126.9999     29.7965
   809.8000      8.0616      2.5603      0.0981      5.4347    131.0571     29.6634
   809.9000      8.0616      2.5681      0.0737      4.9626    134.1669     29.1586
   810.0000      8.0510      2.5637      0.0773      5.2325    137.3929     28.2954
   810.1000      8.0510      2.5545      0.0916      5.7880    139.4907     27.3854
   810.2000      8.0510      2.5530      0.0635      5.8781    138.8466     26.7989
   810.3000      8.0642      2.5631      0.0993      5.2650    137.0814     26.5562
   810.4000      8.0642      2.5709      0.1254      4.7944    137.1574     26.4652
   810.5000      8.0419      2.5656      0.0976      5.1152    138.8547     26.3615
   810.6000      8.0419      2.5518      0.0974      5.9487    138.0121     26.1107
   810.7000      8.0419      2.5362      0.0777      6.8959    134.4739     25.8802
   810.8000      8.0479      2.5252      0.0542      7.5666    132.3362     25.9971
   810.9000      8.0479      2.5255      0.0883      7.5435    132.3202     26.2472
   811.0000      8.0394      2.5432      0.0407      6.4742    131.3173     26.1772
   811.1000      8.0394      2.5775      0.1140      4.3937    129.1692     25.8522
   811.2000      8.0394      2.6058      0.1218      2.6777    128.2619     25.5799
   811.3000      8.0110      2.6064      0.1388      2.6396    127.0680     25.4984
   811.4000      8.0110      2.5925      0.0679      3.4869    125.2118     25.5785
   811.5000      7.9877      2.5893      0.1233      3.6764    125.7313     25.8032
   811.6000      7.9877      2.6023      0.1188      2.8933    127.9423     26.3611
   811.7000      7.9877      2.6384      0.0738      0.7018    127.3332     27.2645
   811.8000      7.9802      2.7034      0.1353     -3.2344    121.9600     28.1093
   811.9000      7.9802      2.7649      0.1847     -6.9653    116.3438     28.6396
   812.0000      7.9584      2.7897      0.1625     -8.4690    113.6697     28.9929
   812.1000      7.9584      2.7842      0.1430     -8.1352    111.3843     29.1773
   812.2000      7.9584      2.7659      0.1297     -7.0228    108.2449     29.0654
   812.3000      7.9891      2.7432      0.0970     -5.6490    106.0570     28.7214
   812.4000      7.9891      2.7235      0.0819     -4.4560    106.5452     28.3566
   812.5000      7.9897      2.7053      0.1009     -3.3524    109.6797     28.1358
   812.6000      7.9897      2.6762      0.0558     -1.5887    112.7256     27.9176
   812.7000      7.9897      2.6327      0.0340      1.0498    112.7429     27.4579
   812.8000      7.9527      2.5887      0.0125      3.7160    111.2123     26.8425
   812.9000      7.9527      2.5636      0.0265      5.2347    109.8065     26.2158
   813.0000      7.9709      2.5601      0.0764      5.4464    107.0407     25.5997
   813.1000      7.9709      2.5649      0.0518      5.1549    103.8150     25.0511
   813.2000      7.9709      2.5696      0.0739      4.8698    104.0612     24.6452
   813.3000      8.0320      2.5743      0.0423      4.5880    109.1816     24.3902
   813.4000      8.0320      2.5783      0.0543      4.3478    116.3587     24.2608
   813.5000      8.0433      2.5757      0.0781      4.5001    121.8154     24.3474
   813.6000      8.0433      2.5659      0.0620      5.0962    124.7566     24.6206
   813.7000      8.0433      2.5523      0.1147      5.9193    126.3213     24.8563
   813.8000      8.0095      2.5389      0.0829      6.7335    125.5989     24.8525
   813.9000      8.0095      2.5320      0.0765      7.1523    123.2709     24.4584
   814.0000      8.0555      2.5284      0.0759      7.3711    122.1911     23.6912
   814.1000      8.0555      2.5097      0.1130      8.5050    121.1210     22.7382
   814.2000      8.0555      2.4494      0.1214     12.1569    118.1213     21.6753
   814.3000      8.0712      2.3416      0.0562     18.6905    113.7310     20.4239
   814.4000      8.0712      2.2054      0.0106     26.9454    109.0458     18.8776
   814.5000      8.1087      2.0501      0.0300     36.3552    105.6006     17.1005
   814.6000      8.1087      1.8844     -0.0811     46.4021    102.9712     15.3407
   814.7000      8.1087      1.7288     -0.0655     55.8315     99.6786     13.7759
   814.8000      8.1247      1.5816     -0.0752     64.7507     95.6680     12.6422
   814.9000      8.1247      1.4512     -0.1166     72.6535     92.1207     12.1021
   815.0000      8.1328      1.3988     -0.1277     75.8301     89.8242     12.1668
   815.1000      8.1328      1.4654      0.0494     71.7955     87.2650     12.6720
   815.2000      8.1328      1.6042      0.3199     63.3848     84.3819     13.4330
   815.3000      8.2359      1.7392      0.3638     55.1970     85.5435     14.5021
   815.4000      8.2359      1.8457      0.4030     48.7435     92.6458     15.9337
   815.5000      8.3882      1.9376      0.3660     43.1762    100.9157     17.5464
   815.6000      8.3882      2.0227      0.3477     38.0177    106.3695     19.0340
   815.7000      8.3882      2.1015      0.3102     33.2438    110.2339     20.2521
   815.8000      8.4886      2.1808      0.2840     28.4366    113.9702     21.2483
   815.9000      8.4886      2.2608      0.1979     23.5881    117.8084     22.1069
