~Version Information
VERS.                      2.0: CWLS Log ASCII Standard - VERSION 2.0
WRAP.                       NO: One line per depth step
~Well Information Block
STRT.FT               570.0000: 
STOP.FT              2090.5000: 
STEP.FT                 0.1000: 
NULL.                -999.2500: 
COMP.          XTO Energy Inc.: COMPANY
WELL.          Golden Eagle 19-10: WELL
FLD.           Purgatoire River: FIELD
LOC.           2684' FSL & 1825' FEL: LOCATION
CNTY.               Las Animas: COUNTY
SRVC.                Patterson: SERVICE COMPANY
DATE.          Mon Mar 06 07:05:15 2006: LOG DATE
UWI.           05 071 08697 00: UNIQUE WELL ID
STAT.                 Colorado: STATE
~Curve Information Block
DEPT.FT            0 000 00 00: Depth
DCAL.in                       : CDL Caliper
RHOB.g/cc                     : CDL Bulk Density
RHOC.g/cc                     : CDL Density Correction
DPOR.pu                       : CDL Density Porosity
GR.GAPI                       : Gamma Ray
NPOR.pu                       : Neutron Porosity
~Parameter Information Block
~A  Depth       DCAL        RHOB        RHOC        DPOR         GR         NPOR    
# ...
  1174.8000      7.7873      2.6712      0.1037     -1.2843     94.7450     18.0788
  1174.9000      7.7873      2.6716      0.0654     -1.3096     89.6511     18.3969
  1175.0000      7.7978      2.6577      0.0390     -0.4682     85.3185     18.0816
  1175.1000      7.7978      2.6476      0.0303      0.1431     88.5389     17.3150
  1175.2000      7.7978      2.6481      0.0399      0.1172     97.0304     16.0906
  1175.3000      7.8068      2.6515      0.0637     -0.0922    102.8400     14.9926
  1175.4000      7.8068      2.6460      0.0468      0.2422    103.1405     14.8017
  1175.5000      7.8104      2.6271      0.0350      1.3907    102.3823     15.8410
  1175.6000      7.8104      2.6041      0.0315      2.7795    105.0374     17.2292
  1175.7000      7.8104      2.5945      0.0108      3.3643    107.5605     18.1616
  1175.8000      7.8118      2.5985      0.0293      3.1201    104.5836     18.7952
  1175.9000      7.8118      2.5940      0.0294      3.3947     98.0181     18.8323
  1176.0000      7.8141      2.5746      0.0012      4.5685     92.9012     18.3037
  1176.1000      7.8141      2.5585      0.0070      5.5434     91.0127     18.2457
  1176.2000      7.8141      2.5566      0.0105      5.6587     92.2125     18.9887
  1176.3000      7.8158      2.5651     -0.0151      5.1481     95.8573     19.8021
  1176.4000      7.8158      2.5807     -0.0072      4.2027    100.5771     20.6640
  1176.5000      7.8137      2.5992      0.0372      3.0792    105.9258     21.7327
  1176.6000      7.8137      2.6047      0.0733      2.7480    112.1596     22.0822
  1176.7000      7.8137      2.5942      0.0183      3.3818    115.3514     21.5798
  1176.8000      7.8106      2.5857      0.0258      3.8971    111.9465     21.5685
  1176.9000      7.8106      2.5831      0.0233      4.0523    107.6916     22.1560
  1177.0000      7.8088      2.5801      0.0123      4.2336    107.2916     22.1792
  1177.1000      7.8088      2.5769      0.0396      4.4303    106.5390     22.0316
  1177.2000      7.8088      2.5725     -0.0039      4.6996    104.3056     22.5898
  1177.3000      7.8087      2.5691     -0.0454      4.9002    103.0012     23.0053
  1177.4000      7.8087      2.5720      0.0104      4.7300    102.1147     22.6230
  1177.5000      7.8090      2.5761     -0.0005      4.4795    102.0216     22.5380
  1177.6000      7.8090      2.5777      0.0270      4.3821    103.8287     23.7335
  1177.7000      7.8090      2.5869     -0.0041      3.8252    104.3522     25.3567
  1177.8000      7.8094      2.6091      0.0488      2.4783    101.8586     25.6011
  1177.9000      7.8094      2.6270      0.1040      1.3925    100.8133     24.2173
  1178.0000      7.8095      2.6316      0.0531      1.1179    106.1714     22.5640
  1178.1000      7.8095      2.6301      0.0996      1.2079    119.9018     21.9331
  1178.2000      7.8095      2.6153      0.0953      2.1023    135.4806     22.3474
  1178.3000      7.8096      2.5849      0.0659      3.9426    142.3442     22.7276
  1178.4000      7.8096      2.5589      0.0294      5.5205    136.6825     22.5005
  1178.5000      7.8094      2.5475      0.0504      6.2093    121.8014     22.0375
  1178.6000      7.8094      2.5399      0.0213      6.6717    106.0974     21.8072
  1178.7000      7.8094      2.5315      0.0234      7.1844     98.4566     22.0553
  1178.8000      7.8085      2.5280      0.0100      7.3945     99.6432     22.5013
  1178.9000      7.8085      2.5326      0.0191      7.1146    103.9697     22.7734
  1179.0000      7.8075      2.5406      0.0303      6.6281    107.9072     22.7653
  1179.1000      7.8075      2.5434      0.0498      6.4606    109.2596     22.2255
  1179.2000      7.8075      2.5409      0.0111      6.6106    107.0714     21.6037
  1179.3000      7.8064      2.5416      0.0323      6.5709    102.6147     21.5900
  1179.4000      7.8064      2.5463      0.0329      6.2875     97.0136     22.1180
  1179.5000      7.8036      2.5527      0.0384      5.8960     93.9511     22.5539
  1179.6000      7.8036      2.5641      0.0264      5.2034     95.9813     22.4274
  1179.7000      7.8036      2.5787      0.0616      4.3184    100.4461     21.9577
  1179.8000      7.7985      2.5872      0.0603      3.8054    103.3737     21.5606
  1179.9000      7.7985      2.5901      0.0650      3.6301    101.4004     21.3671
  1180.0000      7.7963      2.5995      0.0405      3.0613     95.1873     21.1137
  1180.1000      7.7963      2.6128      0.1016      2.2558     88.7834     20.9050
  1180.2000      7.7963      2.6142      0.0779      2.1670     85.9907     21.4373
  1180.3000      7.8018      2.6061      0.0438      2.6581     88.0452     22.4572
  1180.4000      7.8018      2.6040      0.0572      2.7862     92.5320     22.6838
  1180.5000      7.8091      2.6086      0.0865      2.5101     95.4118     22.0589
  1180.6000      7.8091      2.6062      0.0634      2.6546     94.6773     21.3788
  1180.7000      7.8091      2.5949      0.0192      3.3415     93.3408     21.0914
  1180.8000      7.8090      2.5868      0.0174      3.8291     93.4324     21.4185
  1180.9000      7.8090      2.5863      0.0185      3.8596     90.5726     21.9095
  1181.0000      7.8055      2.5874      0.0366      3.7924     83.7970     21.8488
  1181.1000      7.8055      2.5943      0.0001      3.3728     80.2880     21.2481
  1181.2000      7.8055      2.6105      0.0737      2.3959     84.0595     20.5873
  1181.3000      7.8034      2.6208      0.0653      1.7714     89.6186     20.2206
  1181.4000      7.8034      2.6225      0.0406      1.6652     91.3718     20.1279
  1181.5000      7.8029      2.6299      0.0254      1.2199     90.4533     20.4714
  1181.6000      7.8029      2.6422      0.0679      0.4742     90.8070     21.1287
  1181.7000      7.8029      2.6459      0.0664      0.2484     92.1154     21.1792
  1181.8000      7.8036      2.6383      0.0485      0.7118     91.1554     20.7012
  1181.9000      7.8036      2.6215      0.0553      1.7252     89.6952     20.4073
  1182.0000      7.8059      2.5962      0.0252      3.2598     90.1266     20.0828
  1182.1000      7.8059      2.5743     -0.0108      4.5876     91.0905     19.5066
  1182.2000      7.8059      2.5702     -0.0112      4.8357     93.5375     19.2262
  1182.3000      7.8079      2.5777      0.0051      4.3844     99.2583     19.6346
  1182.4000      7.8079      2.5809     -0.0107      4.1872    105.4670     20.9049
  1182.5000      7.8100      2.5821      0.0017      4.1147    109.2491     22.7706
  1182.6000      7.8100      2.5918     -0.0043      3.5245    111.5265     23.6613
  1182.7000      7.8100      2.6072      0.0165      2.5954    111.5454     23.1299
  1182.8000      7.8117      2.6143      0.0607      2.1627    108.3997     22.5150
  1182.9000      7.8117      2.6065      0.0657      2.6356    106.5318     22.2834
  1183.0000      7.8122      2.5942     -0.0008      3.3821    107.3072     22.2580
  1183.1000      7.8122      2.5841      0.0418      3.9918    109.2023     22.3370
  1183.2000      7.8122      2.5680      0.0322      4.9727    113.3720     22.4087
  1183.3000      7.8100      2.5447      0.0354      6.3829    117.1032     22.7003
  1183.4000      7.8100      2.5244      0.0388      7.6098    119.7244     23.0978
  1183.5000      7.8057      2.5190      0.0166      7.9407    124.4077     23.0648
  1183.6000      7.8057      2.5380      0.0303      6.7880    130.0882     23.0690
  1183.7000      7.8057      2.5832      0.0705      4.0478    133.6553     23.7481
  1183.8000      7.8045      2.6379      0.1625      0.7363    133.5654     24.3892
  1183.9000      7.8045      2.6733      0.1637     -1.4138    133.8168     24.2878
  1184.0000      7.8099      2.6747      0.1502     -1.4967    137.7035     23.9666
  1184.1000      7.8099      2.6465      0.1843      0.2138    141.3554     24.2687
  1184.2000      7.8099      2.6065      0.0953      2.6347    143.0424     24.9963
  1184.3000      7.8270      2.5742      0.0856      4.5945    145.3080     25.4939
