~Version Information
VERS.                      2.0: CWLS Log ASCII Standard - VERSION 2.0
WRAP.                       NO: One line per depth step
~Well Information Block
STRT.FT               239.2000: 
STOP.FT              1618.0000: 
STEP.FT                 0.1000: 
NULL.                -999.2500: 
COMP.          Pioneer Natural Resources: COMPANY
WELL.          Daytona 31-14 Tr: WELL
FLD.           Purgatoire River: FIELD
LOC.           683' FNL & 1943' FEL: LOCATION
CNTY.               Las Animas: COUNTY
SRVC.                         : SERVICE COMPANY
DATE.          Fri Jan 27 14:32:28 2006: LOG DATE
UWI.           05 071 08681 00: UNIQUE WELL ID
STAT.                 Colorado: STATE
~Curve Information Block
DEPT.FT            0 000 00 00: Depth
DCAL.in                       : CDL Caliper
RHOB.g/cc                     : CDL Bulk Density
RHOC.g/cc                     : CDL Density Correction
DPOR.pu                       : CDL Density Porosity
GR.GAPI                       : Gamma Ray
~Parameter Information Block
~A  Depth       DCAL        RHOB        RHOC        DPOR         GR     
# ...
   877.6000      8.0523      2.5317      0.0437      7.1677    169.8641
   877.7000      8.0523      2.5491      0.1037      6.1123    169.9845
   877.8000      8.0498      2.5611      0.0933      5.3898    167.1093
   877.9000      8.0498      2.5658      0.1386      5.1006    161.8151
   878.0000      8.0482      2.5665      0.0869      5.0600    158.8452
   878.1000      8.0482      2.5719      0.0938      4.7316    159.2283
   878.2000      8.0482      2.5931      0.0976      3.4462    159.9602
   878.3000      8.0517      2.6295      0.0882      1.2435    156.8918
   878.4000      8.0517      2.6718      0.1409     -1.3186    150.2337
   878.5000      8.0506      2.7051      0.1458     -3.3395    144.8893
   878.6000      8.0506      2.7125      0.1452     -3.7871    142.8686
   878.7000      8.0506      2.6903      0.1298     -2.4427    143.8657
   878.8000      8.0498      2.6573      0.1006     -0.4434    146.1258
   878.9000      8.0498      2.6372      0.0330      0.7776    147.5881
   879.0000      8.0496      2.6344      0.0290      0.9476    147.1961
   879.1000      8.0496      2.6365      0.0336      0.8174    143.9932
   879.2000      8.0496      2.6360      0.0841      0.8515    137.9433
   879.3000      8.0490      2.6348      0.0992      0.9216    134.0985
   879.4000      8.0490      2.6301      0.1478      1.2040    139.7940
   879.5000      8.0506      2.6119      0.1174      2.3067    148.3418
   879.6000      8.0506      2.5858      0.0601      3.8916    147.1711
   879.7000      8.0506      2.5653      0.0614      5.1331    141.5218
   879.8000      8.0484      2.5540      0.0436      5.8160    144.3871
   879.9000      8.0484      2.5476      0.0596      6.2085    158.3665
   880.0000      8.0498      2.5417      0.0632      6.5626    174.8515
   880.1000      8.0498      2.5474      0.0161      6.2198    180.0256
   880.2000      8.0498      2.5722      0.0914      4.7123    171.5448
   880.3000      8.0498      2.5993      0.1304      3.0739    165.0614
   880.4000      8.0498      2.6118      0.1237      2.3168    168.0217
   880.5000      8.0504      2.6109      0.1238      2.3700    168.5683
   880.6000      8.0504      2.6085      0.0928      2.5177    162.2990
   880.7000      8.0504      2.6182      0.1159      1.9243    158.0907
   880.8000      8.0491      2.6370      0.1423      0.7851    158.6010
   880.9000      8.0491      2.6410      0.1449      0.5456    160.0202
   881.0000      8.0425      2.6197      0.0795      1.8354    161.1740
   881.1000      8.0425      2.5918      0.0539      3.5301    163.2196
   881.2000      8.0425      2.5739      0.0583      4.6117    163.8737
   881.3000      8.0486      2.5644      0.0553      5.1906    162.1290
   881.4000      8.0486      2.5590      0.0322      5.5137    160.2100
   881.5000      8.0424      2.5604      0.0725      5.4316    159.1362
   881.6000      8.0424      2.5647      0.0892      5.1717    159.8842
   881.7000      8.0424      2.5668      0.0770      5.0429    160.6823
   881.8000      8.0481      2.5726      0.0680      4.6933    157.8151
   881.9000      8.0481      2.5815      0.0699      4.1502    154.0333
   882.0000      8.0470      2.5831      0.0880      4.0531    154.4985
   882.1000      8.0470      2.5703      0.1107      4.8286    157.9236
   882.2000      8.0470      2.5415      0.0873      6.5786    160.8257
   882.3000      8.0479      2.5087      0.0248      8.5619    162.5014
   882.4000      8.0479      2.4945      0.0156      9.4255    161.2952
   882.5000      8.0521      2.5021      0.0552      8.9618    155.2663
   882.6000      8.0521      2.5167      0.0686      8.0784    148.9299
   882.7000      8.0521      2.5324      0.0524      7.1284    146.4345
   882.8000      8.0463      2.5482      0.0957      6.1719    144.7066
   882.9000      8.0463      2.5570      0.1154      5.6394    145.5058
   883.0000      8.0480      2.5638      0.0835      5.2223    152.8248
   883.1000      8.0480      2.5782      0.1148      4.3530    162.5028
   883.2000      8.0480      2.5839      0.1238      4.0088    167.3882
   883.3000      8.0469      2.5641      0.1254      5.2088    166.8390
   883.4000      8.0469      2.5378      0.0704      6.7984    165.3059
   883.5000      8.0473      2.5337      0.0642      7.0456    166.2702
   883.6000      8.0473      2.5463      0.1134      6.2834    171.6064
   883.7000      8.0473      2.5493      0.0903      6.1053    179.9557
   883.8000      8.0474      2.5396      0.0562      6.6902    185.5740
   883.9000      8.0474      2.5332      0.0588      7.0778    184.2422
   884.0000      8.0481      2.5307      0.0866      7.2322    176.8047
   884.1000      8.0481      2.5182      0.0847      7.9856    167.5471
   884.2000      8.0481      2.4969      0.0117      9.2790    162.0113
   884.3000      8.0505      2.4831      0.0449     10.1158    163.0960
   884.4000      8.0505      2.4790      0.0897     10.3662    165.5325
   884.5000      8.0481      2.4772      0.0328     10.4753    159.7941
   884.6000      8.0481      2.4803      0.0778     10.2819    147.5316
   884.7000      8.0481      2.4955      0.0650      9.3666    141.3729
   884.8000      8.0473      2.5237      0.0773      7.6563    147.3836
   884.9000      8.0473      2.5541      0.1227      5.8141    157.0043
   885.0000      8.0446      2.5754      0.1331      4.5210    161.6919
   885.1000      8.0446      2.5860      0.1691      3.8779    161.7207
   885.2000      8.0446      2.5852      0.1590      3.9301    158.5298
   885.3000      8.0487      2.5757      0.1280      4.5047    157.7657
   885.4000      8.0487      2.5649      0.1123      5.1571    165.8849
   885.5000      8.0467      2.5547      0.1006      5.7754    178.1792
   885.6000      8.0467      2.5431      0.1004      6.4817    186.1228
   885.7000      8.0467      2.5330      0.0577      7.0882    184.8726
   885.8000      8.0470      2.5329      0.0552      7.0945    176.2014
   885.9000      8.0470      2.5470      0.0571      6.2422    168.2360
   886.0000      8.0458      2.5670      0.0848      5.0309    167.3890
   886.1000      8.0458      2.5775      0.1002      4.3927    168.6056
   886.2000      8.0458      2.5736      0.0642      4.6322    163.3578
   886.3000      8.0468      2.5661      0.0516      5.0853    154.4175
   886.4000      8.0468      2.5669      0.0568      5.0379    149.2078
   886.5000      8.0438      2.5754      0.0957      4.5198    149.3138
   886.6000      8.0438      2.5783      0.0776      4.3443    149.2366
   886.7000      8.0438      2.5673      0.0766      5.0150    147.2546
   886.8000      8.0412      2.5536      0.0427      5.8406    146.3723
   886.9000      8.0412      2.5468      0.1277      6.2534    146.1443
   887.0000      8.0448      2.5377      0.0867      6.8041    146.3584
   887.1000      8.0448      2.5251      0.0467      7.5674    146.4982
   887.2000      8.0448      2.5182      0.0593      7.9909    146.6696
   887.3000      8.0452      2.5204      0.0554      7.8543    147.9150
   887.4000      8.0452      2.5276      0.0771      7.4157    150.1343
   887.5000      8.0462      2.5288      0.0301      7.3437    153.1531
   887.6000      8.0462      2.5237      0.0403      7.6557    156.5789
   887.7000      8.0462      2.5216      0.0305      7.7847    158.5066
   887.8000      8.0468      2.5236      0.0610      7.6607    155.8522
   887.9000      8.0468      2.5323      0.0558      7.1350    151.5042
   888.0000      8.0408      2.5578      0.0839      5.5872    149.7135
   888.1000      8.0408      2.5923      0.0972      3.4986    149.0721
   888.2000      8.0408      2.6149      0.0834      2.1248    148.5619
   888.3000      8.0383      2.6235      0.1129      1.6047    148.5645
   888.4000      8.0383      2.6264      0.1353      1.4329    145.0321
   888.5000      8.0409      2.6293      0.0957      1.2547    137.4313
   888.6000      8.0409      2.6405      0.0919      0.5747    132.4809
   888.7000      8.0409      2.6581      0.0727     -0.4906    135.2339
