~Version Information
VERS.                      2.0: CWLS Log ASCII Standard - VERSION 2.0
WRAP.                       NO: One line per depth step
~Well Information Block
STRT.FT                -6.7500: 
STOP.FT              1544.5000: 
STEP.FT                 0.2500: 
NULL.                -999.2500: 
COMP.          Pioneer Natural Resources: COMPANY
WELL.          Lorencito 10-36-33-67: WELL
FLD.           Purgatorie River: FIELD
LOC.           2130' FSL & 2362' FEL--: LOCATION
STAT.                       CO: State
CNTY.               Las Animas: COUNTY
CTRY. USA : Country
SECT. 36 : Section
TOWN. 33S : Township
RANG. 67W : Range
SRVC.          Patterson Wireline: SERVICE COMPANY
DATE.          Fri Sep 02 09:21:42 2005: LOG DATE
API.           05 071 08501 00: UNIQUE WELL ID
~Curve Information Block
DEPT.FT            0 000 00 00: Depth
CCL.                          : Casing Collar Locator
TT3.usec                      : CBL 3' Travel Time
AMP3.mV                       : CBL 3' Amplitude
GR.GAPI                       : Gamma Ray
~Parameter Information Block
~A  Depth       CCL         TT3         AMP3         GR     
# ...
  1400.2500      0.0000    643.8624      7.2455     67.5477
  1400.5000      0.0000    629.9133      7.2805     67.3377
  1400.7500      0.0000    613.9536      7.3148     65.7467
  1401.0000      0.0000    599.4596      7.3473     64.0371
  1401.2500      0.0000    588.9116      7.3735     63.2878
  1401.5000      0.0000    583.1719      7.3836     63.8654
  1401.7500      0.0000    582.4232      7.3700     65.3403
  1402.0000      0.0000    586.5779      7.3334     66.6972
  1402.2500      0.0000    594.5974      7.2795     66.8631
  1402.5000      0.0000    604.0895      7.2137     65.4305
  1402.7500      0.0000    611.1343      7.1458     62.9308
  1403.0000      0.0000    610.1585      7.0930     60.2715
  1403.2500      0.0000    596.6882      7.0709     58.0990
  1403.5000      0.0000    573.6334      7.0777     56.8225
  1403.7500      0.0000    553.7446      7.0926     56.7756
  1404.0000      0.0000    551.4081      7.0926     57.9527
  1404.2500      0.0000    570.2844      7.0684     59.8777
  1404.5000      0.0000    600.6540      7.0278     61.9383
  1404.7500      0.0000    628.8798      6.9862     63.5880
  1405.0000      0.0000    647.4307      6.9559     64.4048
  1405.2500      0.0000    656.5235      6.9407     64.6037
  1405.5000      0.0000    659.7116      6.9385     65.3041
  1405.7500      0.0000    659.8146      6.9481     67.5679
  1406.0000      0.0000    657.6466      6.9700     71.1250
  1406.2500      0.0000    652.7726      6.9998     74.4931
  1406.5000      0.0000    645.3498      7.0248     76.4016
  1406.7500      0.0000    637.6730      7.0321     76.8907
  1407.0000      0.0000    633.3228      7.0195     76.9738
  1407.2500      0.0000    634.0612      6.9986     77.3516
  1407.5000      0.0000    638.2314      6.9856     77.7116
  1407.7500      0.0000    642.7759      6.9927     77.4445
  1408.0000      0.0000    645.6657      7.0239     76.7458
  1408.2500      0.0000    645.6907      7.0761     76.6232
  1408.5000      0.0000    641.0160      7.1429     77.9586
  1408.7500      0.0000    628.9131      7.2192     80.6890
  1409.0000      0.0000    607.1808      7.3008     83.5793
  1409.2500      0.0000    576.8301      7.3777     84.7311
  1409.5000      0.0000    544.2327      7.4308     82.9118
  1409.7500      0.0000    519.1064      7.4396     78.7866
  1410.0000      0.0000    507.8088      7.3986     74.5517
  1410.2500      0.0000    507.9487      7.3269     72.0683
  1410.5000      0.0000    510.8541      7.2605     71.5171
  1410.7500      0.0000    509.7257      7.2303     71.9230
  1411.0000      0.0000    503.9667      7.2457     72.5148
  1411.2500      0.0000    495.6653      7.2957     73.1844
  1411.5000      0.0000    485.2502      7.3618     73.9479
  1411.7500      0.0000    472.5687      7.4275     74.5519
  1412.0000      0.0000    459.6492      7.4797     74.7753
  1412.2500      0.0000    449.7534      7.5086     74.8829
  1412.5000      0.0000    444.4512      7.5080     75.4224
  1412.7500      0.0000    443.0691      7.4747     76.5089
  1413.0000      0.0000    444.6618      7.4088     77.7038
  1413.2500      0.0000    450.0802      7.3162     78.7176
  1413.5000      0.0000    462.4676      7.2105     79.7171
  1413.7500      0.0000    485.2808      7.1087     80.5986
  1414.0000      0.0000    518.4820      7.0227     80.3871
  1414.2500      0.0000    556.3688      6.9539     77.9274
  1414.5000      0.0000    590.4601      6.8941     73.2148
  1414.7500      0.0000    615.2072      6.8348     67.7526
  1415.0000      0.0000    630.5104      6.7750     63.4475
  1415.2500      0.0000    639.2009      6.7202     61.2722
  1415.5000      0.0000    643.6013      6.6750     61.0340
  1415.7500      0.0000    644.8491      6.6370     62.0197
  1416.0000      0.0000    644.1097      6.5986     63.4726
  1416.2500      0.0000    642.9588      6.5542     64.7699
  1416.5000      0.0000    642.4550      6.5082     65.7054
  1416.7500      0.0000    642.5615      6.4719     66.6300
  1417.0000      0.0000    642.5983      6.4543     68.0605
  1417.2500      0.0000    641.7697      6.4534     70.1584
  1417.5000      0.0000    639.1823      6.4590     72.5704
  1417.7500      0.0000    634.2319      6.4608     74.4402
  1418.0000      0.0000    627.7479      6.4549     74.6348
  1418.2500      0.0000    622.4683      6.4455     72.5817
  1418.5000      0.0000    621.2817      6.4406     68.9886
  1418.7500      0.0000    624.3010      6.4452     65.3112
  1419.0000      0.0000    628.0159      6.4560     62.5799
  1419.2500      0.0000    627.7141      6.4649     60.9921
  1419.5000      0.0000    621.0477      6.4685     60.3293
  1419.7500      0.0000    610.4778      6.4722     60.3890
  1420.0000      0.0000    602.6844      6.4840     61.0898
  1420.2500      0.0000    603.5086      6.5041     62.2878
  1420.5000      0.0000    611.7133      6.5246     63.6475
  1420.7500      0.0000    618.5710      6.5399     64.9769
  1421.0000      0.0000    614.7144      6.5555     66.6516
  1421.2500      0.0000    597.6756      6.5829     69.2545
  1421.5000      0.0000    573.5703      6.6272     72.7044
  1421.7500      0.0000    552.7336      6.6816     76.1264
  1422.0000      0.0000    543.7216      6.7336     78.6085
  1422.2500      0.0000    549.7599      6.7737     79.7809
  1422.5000      0.0000    568.3491      6.8011     79.8123
  1422.7500      0.0000    593.0413      6.8218     79.2686
  1423.0000      0.0000    616.5773      6.8426     78.9723
  1423.2500      0.0000    633.6913      6.8656     79.7993
  1423.5000      0.0000    641.6381      6.8883     82.3977
  1423.7500      0.0000    639.1672      6.9071     86.7129
  1424.0000      0.0000    626.8545      6.9203     91.6844
  1424.2500      0.0000    609.3860      6.9304     95.6941
  1424.5000      0.0000    595.7029      6.9463     97.3757
  1424.7500      0.0000    593.4376      6.9817     95.8731
  1425.0000      0.0000    601.6978      7.0448     90.8605
  1425.2500      0.0000    611.3328      7.1297     83.1340
  1425.5000      0.0000    614.2101      7.2160     75.0298
  1425.7500      0.0000    611.7265      7.2805     69.2545
  1426.0000      0.0000    612.9782      7.3082     66.7289
  1426.2500      0.0000    624.8795      7.2968     65.8357
  1426.5000      0.0000    645.4994      7.2553     64.0320
  1426.7500      0.0000    667.0552      7.2003     60.0560
  1427.0000      0.0000    683.2150      7.1489     54.5382
  1427.2500      0.0000    692.5286      7.1130     48.9355
  1427.5000      0.0000    696.7968      7.0973     44.3974
  1427.7500      0.0000    698.1999      7.1018     41.5933
  1428.0000      0.0000    697.8281      7.1244     40.9182
  1428.2500      0.0000    695.7114      7.1569     42.2947
  1428.5000      0.0000    691.6440      7.1742     45.0254
  1428.7500      0.0000    686.0846      7.1244     48.3938
  1429.0000      0.0000    680.0920      6.9352     52.3049
  1429.2500      0.0000    674.2444      6.5555     56.9152
  1429.5000      0.0000    668.1881      6.0239     61.6796
  1429.7500      0.0000    661.9506      5.4952     65.1272
  1430.0000      0.0000    656.9420      5.1567     65.7053
  1430.2500      0.0000    654.3906      5.0929     62.8830
  1430.5000      0.0000    653.1216      5.2367     57.6083
  1430.7500      0.0000    649.2100      5.4486     51.8184
  1431.0000      0.0000    636.9852      5.6175     47.3048
  1431.2500      0.0000    611.3977      5.6993     44.7845
  1431.5000     -2.0000    573.4371      5.7027     43.9232
  1431.7500      0.0000    534.2670      5.6632     43.9961
  1432.0000      0.0000    509.7910      5.6329     44.3911
  1432.2500      0.0000    507.9543      5.6807     44.8258
  1432.5000      0.0000    522.4623      5.8670     45.4949
  1432.7500      0.0000    539.3502      6.1784     46.8829
  1433.0000      0.0000    548.1385      6.5024     49.1533
  1433.2500      0.0000    548.1188      6.7111     51.7409
  1433.5000      0.0000    547.3246      6.7703     53.6124
