~Version Information
VERS.                      2.0: CWLS Log ASCII Standard - VERSION 2.0
WRAP.                       NO: One line per depth step
~Well Information Block
STRT.FT                -3.2500: 
STOP.FT               989.2500: 
STEP.FT                 0.2500: 
NULL.                -999.2500: 
COMP.          Pioneer Natural Resources: COMPANY
WELL.                Doc 34-30: WELL
FLD.           Purgatoire River: FIELD
LOC.           454' FSL & 1386' FEL: LOCATION
CNTY.               Las Animas: COUNTY
SRVC.                         : SERVICE COMPANY
DATE.          Wed Mar 08 14:28:55 2006: LOG DATE
UWI.           05 071 08694 00: UNIQUE WELL ID
STAT.                       CO: STATE
~Curve Information Block
DEPT.FT            0 000 00 00: Depth
GR.GAPI                       : Gamma Ray
CCL.                          : Casing Collar Locator
TT3.usec                      : CBL 3' Travel Time
AMP3.mV                       : CBL 3' Amplitude
~Parameter Information Block
~A  Depth        GR         CCL         TT3         AMP3    
# ...
   398.7500     78.3651      0.0000    594.9155      4.1121
   399.0000     75.0695      0.0000    590.7055      4.1342
   399.2500     72.4250      0.0000    585.1371      4.1620
   399.5000     69.9703      0.0000    576.0139      4.1897
   399.7500     67.4144      0.0000    562.8356      4.2133
   400.0000     65.1244      0.0000    548.2424      4.2309
   400.2500     63.5279      0.0000    537.1669      4.2446
   400.5000     62.4916      0.0000    533.4769      4.2575
   400.7500     61.6189      0.0000    537.0531      4.2703
   401.0000     60.9173      0.0000    544.5627      4.2799
   401.2500     60.8850      0.0000    552.9151      4.2825
   401.5000     62.1668      0.0000    561.1531      4.2751
   401.7500     65.2080      0.0000    569.2517      4.2573
   402.0000     69.7987      0.0000    576.7205      4.2330
   402.2500     74.6305      0.0000    583.2346      4.2084
   402.5000     77.7130      0.0000    589.9983      4.1877
   402.7500     77.8342      0.0000    599.4821      4.1719
   403.0000     75.6736      0.0000    612.9725      4.1621
   403.2500     73.3744      0.0000    627.9957      4.1607
   403.5000     72.9982      0.0000    639.0677      4.1688
   403.7500     75.0178      0.0000    642.6673      4.1847
   404.0000     77.8840      0.0000    641.4976      4.2059
   404.2500     79.2818      0.0000    642.6685      4.2324
   404.5000     78.2420      0.0000    651.6859      4.2690
   404.7500     75.8493      0.0000    668.8387      4.3222
   405.0000     73.8113      0.0000    690.1374      4.3925
   405.2500     72.8384      0.0000    709.2233      4.4676
   405.5000     72.5955      0.0000    718.5243      4.5282
   405.7500     72.5272      0.0000    712.0127      4.5595
   406.0000     72.3172      0.0000    689.7421      4.5584
   406.2500     71.8686      0.0000    659.7281      4.5296
   406.5000     71.1098      0.0000    634.3354      4.4805
   406.7500     69.8535      0.0000    623.8578      4.4192
   407.0000     67.9555      0.0000    631.9382      4.3539
   407.2500     65.6909      0.0000    654.2577      4.2911
   407.5000     63.7818      0.0000    680.5523      4.2347
   407.7500     62.9035      0.0000    700.5281      4.1872
   408.0000     63.1960      0.0000    710.3690      4.1509
   408.2500     64.3466      0.0000    712.8500      4.1257
   408.5000     66.1001      0.0000    710.4927      4.1063
   408.7500     68.4145      0.0000    701.2655      4.0831
   409.0000     71.0001      0.0000    683.2682      4.0494
   409.2500     73.0537      0.0000    661.6306      4.0077
   409.5000     73.7553      0.0000    647.5599      3.9685
   409.7500     72.8321      0.0000    650.0762      3.9431
   410.0000     70.5690      0.0000    669.3872      3.9360
   410.2500     67.6274      0.0000    697.5658      3.9450
   410.5000     64.8846      0.0000    724.5557      3.9659
   410.7500     63.0467      0.0000    743.8440      3.9947
   411.0000     62.2951      0.0000    754.0273      4.0264
   411.2500     62.4834      0.0000    756.6208      4.0531
   411.5000     63.4475      0.0000    753.5439      4.0670
   411.7500     64.7569      0.0000    746.8304      4.0668
   412.0000     65.4007      0.0000    739.7092      4.0587
   412.2500     64.3583      0.0000    735.9757      4.0522
   412.5000     61.7305      0.0000    736.9236      4.0543
   412.7500     59.0153      0.0000    739.4509      4.0686
   413.0000     57.9920      0.0000    738.3691      4.0949
   413.2500     59.3729      0.0000    730.9732      4.1293
   413.5000     62.6128      0.0000    719.7383      4.1674
   413.7500     66.6740      0.0000    711.0867      4.2062
   414.0000     70.6522      0.0000    710.7501      4.2435
   414.2500     73.9189      0.0000    718.8935      4.2761
   414.5000     76.1919      0.0000    729.6390      4.3017
   414.7500     77.5913      0.0000    735.9124      4.3231
   415.0000     78.3673      0.0000    734.7538      4.3489
   415.2500     78.4794      0.0000    728.2617      4.3869
   415.5000     77.5972      0.0000    720.6350      4.4361
   415.7500     75.6482      0.0000    714.9067      4.4853
   416.0000     73.3862      0.0000    711.8064      4.5208
   416.2500     72.2252      0.0000    710.5536      4.5382
   416.5000     73.1158      0.0000    710.0640      4.5460
   416.7500     75.4838      0.0000    709.5183      4.5564
   417.0000     77.6391      0.0000    708.2431      4.5742
   417.2500     78.3572      0.0000    705.3181      4.5946
   417.5000     77.9274      0.0000    699.5397      4.6096
   417.7500     77.7520      0.0000    690.1876      4.6160
   418.0000     79.2073      0.0000    678.1070      4.6211
   418.2500     82.8221      0.0000    665.5376      4.6385
   418.5000     88.2310      0.0000    654.2608      4.6793
   418.7500     94.6675      0.0000    644.2737      4.7433
   419.0000    101.4999      0.0000    635.0827      4.8225
   419.2500    108.3857      0.0000    628.2149      4.9106
   419.5000    115.0744      0.0000    627.4259      5.0065
   419.7500    121.1967      0.0000    635.6500      5.1096
   420.0000    126.3427      0.0000    651.8387      5.2112
   420.2500    130.4268      0.0000    671.0701      5.2988
   420.5000    133.8764      0.0000    687.7304      5.3669
   420.7500    137.2063      0.0000    698.7328      5.4200
   421.0000    140.3900      0.0000    704.3052      5.4653
   421.2500    142.8392      0.0000    706.4600      5.5035
   421.5000    144.0701      0.0000    707.1088      5.5301
   421.7500    144.2211      0.0000    707.1436      5.5414
   422.0000    143.8461      0.0000    706.4755      5.5410
   422.2500    143.2908      0.0000    704.4380      5.5382
   422.5000    142.4410      0.0000    700.3925      5.5421
   422.7500    141.3667      0.0000    694.4471      5.5569
   423.0000    141.1415      0.0000    687.7925      5.5852
   423.2500    143.3773      0.0000    681.9224      5.6333
   423.5000    148.6566      0.0000    677.0573      5.7079
   423.7500    155.8382      0.0000    671.3226      5.7989
   424.0000    163.0586      0.0000    662.3036      5.8636
   424.2500    168.8859      0.0000    650.4258      5.8397
   424.5000    172.2666      0.0000    640.7582      5.6979
   424.7500    172.0940      0.0000    640.1087      5.4859
   425.0000    167.8208      0.0000    651.4386      5.3012
   425.2500    160.7175      0.0000    671.6190      5.2071
   425.5000    154.0400      1.4224    694.4099      5.1864
   425.7500    151.3390      2.0000    713.9885      5.1790
   426.0000    154.2318      0.0000    725.8519      5.1444
   426.2500    161.6113      0.0000    728.0347      5.0891
   426.5000    170.5998      0.0000    723.8348      5.0522
   426.7500    177.7466      0.0000    720.8382      5.0599
   427.0000    179.6245      0.0000    724.0034      5.0797
   427.2500    173.7890      0.0000    730.5729      5.0339
   427.5000    160.3083      0.0000    733.7369      4.8839
   427.7500    142.0782      0.0000    729.4474      4.6818
   428.0000    123.0563      0.0000    718.0637      4.5181
   428.2500    106.2117      0.0000    702.0677      4.4404
   428.5000     92.8915      0.0000    684.5368      4.4376
   428.7500     83.1858      0.0000    668.3318      4.4790
   429.0000     76.4916      0.0000    655.0601      4.5470
   429.2500     72.3411      0.0000    644.9512      4.6444
   429.5000     71.1944      0.0000    638.0765      4.7823
   429.7500     74.2007      0.0000    635.4078      4.9597
   430.0000     81.9594      0.0000    638.3257      5.1497
   430.2500     93.6645      0.0000    647.0636      5.3054
   430.5000    107.4978      0.0000    659.5992      5.3796
   430.7500    121.6434      0.0000    671.8571      5.3505
   431.0000    134.9412      0.0000    678.9963      5.2359
   431.2500    146.7894      0.0000    677.1584      5.0842
   431.5000    156.5510      0.0000    665.3687      4.9447
   431.7500    163.2144      0.0000    647.0242      4.8414
   432.0000    165.9050      0.0000    629.6022      4.7707
