~Version Information
VERS.                      2.0: CWLS Log ASCII Standard - VERSION 2.0
WRAP.                       NO: One line per depth step
~Well Information Block
STRT.FT               520.0000: 
STOP.FT              2555.2500: 
STEP.FT                 0.2500: 
NULL.                -999.2500: 
COMP.          Pioneer Natural Resources: COMPANY
WELL.          Horsefeathers 24-34: WELL
FLD.           Purgatoire River: FIELD
LOC.           183' FSL & 1570' FWL--: LOCATION
CNTY.               Las Animas: COUNTY
SRVC.                Patterson: SERVICE COMPANY
DATE.          Sun Feb 05 17:35:59 2006: LOG DATE
UWI.           05 071 08675 00: UNIQUE WELL ID
STAT.                 Colorado: STATE
~Curve Information Block
DEPT.FT            0 000 00 00: Depth
SN.Ohm-m                      : IEL Short Normal
SP.mV                         : IEL Spontaneous Potential
DIR.Ohm-m                     : IEL Induction Resistivity
GR.GAPI                       : Gamma Ray
~Parameter Information Block
NPORSHIFT.              0.0000: NPORSHIFT
~A  Depth        SN          SP         DIR          GR     
# ...
  1056.0000   2000.0000   1975.0000     25.5896     91.9324
  1056.2500   2000.0000   1975.0000     25.8682     93.1537
  1056.5000   2000.0000   1975.0000     26.2178    100.0329
  1056.7500   2000.0000   1975.0000     26.5378    107.0320
  1057.0000   2000.0000   1975.0000     26.7321    118.2527
  1057.2500   2000.0000   1975.0000     26.7385    124.3246
  1057.5000   2000.0000   1975.0000     26.5353    129.1574
  1057.7500   2000.0000   1975.0000     26.1362    129.4011
  1058.0000   2000.0000   1975.0000     25.5907    126.8672
  1058.2500   2000.0000   1975.0000     24.9830    124.6391
  1058.5000   2000.0000   1975.0000     24.4166    122.3957
  1058.7500   2000.0000   1975.0000     23.9847    121.9899
  1059.0000   2000.0000   1975.0000     23.7451    122.5793
  1059.2500   2000.0000   1975.0000     23.7099    123.5128
  1059.5000   2000.0000   1975.0000     23.8538    125.8719
  1059.7500   2000.0000   1975.0000     24.1320    128.2015
  1060.0000   2000.0000   1975.0000     24.5025    132.2873
  1060.2500   2000.0000   1975.0000     24.9418    134.7004
  1060.5000   2000.0000   1975.0000     25.4490    136.6548
  1060.7500   2000.0000   1975.0000     26.0385    136.3685
  1061.0000   2000.0000   1975.0000     26.7276    133.1331
  1061.2500   2000.0000   1975.0000     27.5242    129.1777
  1061.5000   2000.0000   1975.0000     28.4120    121.4797
  1061.7500   2000.0000   1975.0000     29.3306    116.1532
  1062.0000   2000.0000   1975.0000     30.1506    109.7151
  1062.2500   2000.0000   1975.0000     30.6602    107.2516
  1062.5000   2000.0000   1975.0000     30.5912    106.6308
  1062.7500   2000.0000   1975.0000     29.7057    107.7271
  1063.0000   2000.0000   1975.0000     27.9308    110.0205
  1063.2500   2000.0000   1975.0000     25.4557    111.3643
  1063.5000   2000.0000   1975.0000     22.6915    113.2137
  1063.7500   2000.0000   1975.0000     20.1032    114.4271
  1064.0000   2000.0000   1975.0000     18.0590    115.1922
  1064.2500   2000.0000   1975.0000     16.8183    114.1932
  1064.5000   2000.0000   1975.0000     16.6676    110.4552
  1064.7500   2000.0000   1975.0000     18.2633    107.2713
  1065.0000   2000.0000   1975.0000     23.8789    102.5940
  1065.2500   2000.0000   1975.0000     47.8621     99.6049
  1065.5000   2000.0000   1975.0000 100000.0000     94.9788
  1065.7500   2000.0000   1975.0000 100000.0000     91.8164
  1066.0000   2000.0000   1975.0000 100000.0000     87.6136
  1066.2500   2000.0000   1975.0000 100000.0000     85.6509
  1066.5000   2000.0000   1975.0000 100000.0000     84.1421
  1066.7500   2000.0000   1975.0000 100000.0000     83.6956
  1067.0000   2000.0000   1975.0000 100000.0000     83.0545
  1067.2500   2000.0000   1975.0000 100000.0000     82.5686
  1067.5000   2000.0000   1975.0000 100000.0000     82.2924
  1067.7500   2000.0000   1975.0000 100000.0000     82.7031
  1068.0000   2000.0000   1975.0000 100000.0000     84.0391
  1068.2500   2000.0000   1975.0000 100000.0000     84.9600
  1068.5000   2000.0000   1975.0000 100000.0000     85.7379
  1068.7500   2000.0000   1975.0000 100000.0000     85.9365
  1069.0000   2000.0000   1975.0000 100000.0000     86.6577
  1069.2500   2000.0000   1975.0000    623.4307     87.9774
  1069.5000   2000.0000   1975.0000    146.4889     91.5732
  1069.7500   2000.0000   1975.0000 100000.0000     95.0351
  1070.0000   2000.0000   1975.0000 100000.0000    102.1307
  1070.2500   2000.0000   1975.0000 100000.0000    108.6326
  1070.5000   2000.0000   1975.0000 100000.0000    121.5247
  1070.7500   2000.0000   1975.0000 100000.0000    131.2052
  1071.0000   2000.0000   1975.0000 100000.0000    142.3901
  1071.2500   2000.0000   1975.0000 100000.0000    144.1670
  1071.5000   2000.0000   1975.0000     15.4869    136.5319
  1071.7500   2000.0000   1975.0000      1.6526    127.3600
  1072.0000   2000.0000   1975.0000      0.6439    115.5393
  1072.2500   2000.0000   1975.0000      0.3216    112.3179
  1072.5000   2000.0000   1975.0000      0.1842    114.6714
  1072.7500   2000.0000   1975.0000      0.1275    118.4070
  1073.0000   2000.0000   1975.0000      0.1137    121.3141
  1073.2500   2000.0000   1975.0000      0.1311    118.9941
  1073.5000   2000.0000   1975.0000      0.1817    108.6820
  1073.7500   2000.0000   1975.0000      0.2654     98.9667
  1074.0000   2000.0000   1975.0000      0.3543     84.1034
  1074.2500   2000.0000   1975.0000      0.3894     75.7368
  1074.5000   2000.0000   1975.0000      0.3470     66.8443
  1074.7500   2000.0000   1975.0000      0.2729     63.4169
  1075.0000   2000.0000   1975.0000      0.2118     61.4661
  1075.2500   2000.0000   1975.0000      0.1775     61.8107
  1075.5000   2000.0000   1975.0000      0.1692     64.0039
  1075.7500   2000.0000   1975.0000      0.1859     66.2088
  1076.0000   2000.0000   1975.0000      0.2331     70.1544
  1076.2500   2000.0000   1975.0000      0.3266     73.0043
  1076.5000   2000.0000   1975.0000      0.5052     77.4148
  1076.7500   2000.0000   1975.0000      0.8853     80.4999
  1077.0000   2000.0000   1975.0000      1.9961     85.7887
  1077.2500   2000.0000   1975.0000     12.7023     90.0793
  1077.5000   2000.0000   1975.0000 100000.0000     97.9813
  1077.7500   2000.0000   1975.0000 100000.0000    104.2123
  1078.0000   2000.0000   1975.0000 100000.0000    114.6382
  1078.2500   2000.0000   1975.0000 100000.0000    121.7214
  1078.5000   2000.0000   1975.0000 100000.0000    130.7071
  1078.7500   2000.0000   1975.0000 100000.0000    134.4780
  1079.0000   2000.0000   1975.0000 100000.0000    136.2558
  1079.2500   2000.0000   1975.0000 100000.0000    135.6775
  1079.5000   2000.0000   1975.0000 100000.0000    134.5409
  1079.7500   2000.0000   1975.0000 100000.0000    134.5638
  1080.0000   2000.0000   1975.0000 100000.0000    135.2994
  1080.2500   2000.0000   1975.0000 100000.0000    134.7520
  1080.5000   2000.0000   1975.0000 100000.0000    129.3931
  1080.7500   2000.0000   1975.0000 100000.0000    122.1235
  1081.0000   2000.0000   1975.0000 100000.0000    107.3599
  1081.2500   2000.0000   1975.0000 100000.0000     96.8919
  1081.5000   2000.0000   1975.0000 100000.0000     83.0946
  1081.7500   2000.0000   1975.0000 100000.0000     75.9241
  1082.0000   2000.0000   1975.0000 100000.0000     68.1007
  1082.2500   2000.0000   1975.0000 100000.0000     64.3020
  1082.5000   2000.0000   1975.0000 100000.0000     59.7092
  1082.7500   2000.0000   1975.0000 100000.0000     57.1008
  1083.0000   2000.0000   1975.0000 100000.0000     54.0808
  1083.2500   2000.0000   1975.0000 100000.0000     52.8885
  1083.5000   2000.0000   1975.0000 100000.0000     52.2369
  1083.7500   2000.0000   1975.0000 100000.0000     52.2540
  1084.0000   2000.0000   1975.0000 100000.0000     52.7210
  1084.2500   2000.0000   1975.0000 100000.0000     53.6179
  1084.5000   2000.0000   1975.0000 100000.0000     56.6365
  1084.7500   2000.0000   1975.0000 100000.0000     59.8581
  1085.0000   2000.0000   1975.0000 100000.0000     65.5381
  1085.2500   2000.0000   1975.0000 100000.0000     68.9840
  1085.5000   2000.0000   1975.0000 100000.0000     72.6323
  1085.7500   2000.0000   1975.0000 100000.0000     74.0703
  1086.0000   2000.0000   1975.0000 100000.0000     75.3488
  1086.2500   2000.0000   1975.0000 100000.0000     75.9087
  1086.5000   2000.0000   1975.0000     31.7816     76.4720
  1086.7500   2000.0000   1975.0000      8.0172     76.6759
  1087.0000   2000.0000   1975.0000      5.5877     76.8388
  1087.2500   2000.0000   1975.0000      5.6219     76.9690
  1087.5000   2000.0000   1975.0000      7.7331     77.1967
  1087.7500   2000.0000   1975.0000     16.2299     77.0988
  1088.0000   2000.0000   1975.0000     80.7967     75.9551
  1088.2500   2000.0000   1975.0000     45.0859     74.4967
  1088.5000   2000.0000   1975.0000      6.3387     72.0541
  1088.7500   2000.0000   1975.0000      1.7970     70.8744
  1089.0000   2000.0000   1975.0000      0.6696     70.3464
  1089.2500   2000.0000   1975.0000      0.2605     70.7908
