~Version Information
VERS.                      2.0: CWLS Log ASCII Standard - VERSION 2.0
WRAP.                       NO: One line per depth step
~Well Information Block
STRT.FT                -8.5000: 
STOP.FT              2591.0000: 
STEP.FT                 0.2500: 
NULL.                -999.2500: 
COMP.          Pioneer Natural Resources: COMPANY
WELL.             Aviator 12-4: WELL
FLD.           Purgatorie River: FIELD
LOC.           1969' FNL & 732' FWL--: LOCATION
CNTY.               Las Animas: COUNTY
SRVC.          Patterson Wireline: SERVICE COMPANY
DATE.          Wed Apr 19 09:09:26 2006: LOG DATE
UWI.           05 071 08714 00: UNIQUE WELL ID
STAT.                       CO: STATE
~Curve Information Block
DEPT.FT            0 000 00 00: Depth
CCL.                          : Casing Collar Locator
TT3.usec                      : CBL 3' Travel Time
AMP3.mV                       : CBL 3' Amplitude
GR.GAPI                       : Gamma Ray
~Parameter Information Block
~A  Depth       CCL         TT3         AMP3         GR     
# ...
  2236.0000      0.0000    655.6489      7.7079     93.9780
  2236.2500      0.0000    671.6750      7.6243     95.2402
  2236.5000      0.0000    669.7043      7.6367     97.3884
  2236.7500      0.0000    645.9247      7.7135     99.5210
  2237.0000      0.0000    607.3727      7.8076    100.1882
  2237.2500      0.0000    571.5053      7.8710     98.4719
  2237.5000      0.0000    555.1376      7.8684     94.9319
  2237.7500      0.0000    562.7845      7.7890     91.2339
  2238.0000      0.0000    585.4977      7.6533     88.9271
  2238.2500      0.0000    608.0170      7.5121     88.3220
  2238.5000      0.0000    616.0651      7.4338     88.0868
  2238.7500      0.0000    601.7067      7.4879     86.0778
  2239.0000      0.0000    566.9283      7.7307     81.0329
  2239.2500      0.0000    523.1755      8.1874     73.4855
  2239.5000      0.0000    485.2717      8.8320     65.0402
  2239.7500      0.0000    462.0019      9.5755     57.1409
  2240.0000      0.0000    450.4063     10.2820     50.6904
  2240.2500      0.0000    440.9151     10.8209     46.3711
  2240.5000     -2.0000    430.0226     11.1249     44.7046
  2240.7500      2.0000    426.5037     11.2267     45.6619
  2241.0000      0.0000    442.6255     11.2673     48.4306
  2241.2500      0.0000    479.8650     11.4351     51.6693
  2241.5000      0.0000    525.4288     11.8080     54.0305
  2241.7500      0.0000    562.4730     12.2351     54.7417
  2242.0000      0.0000    580.4391     12.4427     54.0731
  2242.2500      0.0000    575.8709     12.2862     53.1306
  2242.5000      0.0000    552.1055     11.8554     52.7547
  2242.7500      0.0000    524.1030     11.3408     52.5742
  2243.0000      0.0000    515.6118     10.8687     51.4217
  2243.2500      0.0000    541.5377     10.4730     48.7538
  2243.5000      0.0000    593.7287     10.1535     45.6098
  2243.7500      0.0000    648.2124      9.9150     44.0746
  2244.0000      0.0000    684.5205      9.7629     45.6965
  2244.2500      0.0000    696.5112      9.6886     50.4312
  2244.5000      0.0000    690.2239      9.6674     57.1360
  2244.7500      0.0000    677.4926      9.6680     64.8061
  2245.0000      0.0000    669.1333      9.6658     72.9566
  2245.2500      0.0000    667.0052      9.6597     81.0542
  2245.5000      0.0000    660.4802      9.6883     88.2217
  2245.7500      0.0000    634.4347      9.8192     93.6048
  2246.0000      0.0000    583.7813     10.0984     96.8119
  2246.2500      0.0000    519.6826     10.5048     98.1518
  2246.5000      0.0000    460.8254     10.9683     98.7008
  2246.7500      0.0000    419.6295     11.4310     99.8830
  2247.0000      0.0000    397.0123     11.8850    102.6334
  2247.2500      0.0000    386.9849     12.3595    106.8699
  2247.5000      0.0000    382.5925     12.8956    111.6198
  2247.7500      0.0000    378.4151     13.5333    115.5852
  2248.0000      0.0000    371.4908     14.2860    118.0219
  2248.2500      0.0000    362.1613     15.0959    119.3064
  2248.5000      0.0000    353.2734     15.8074    120.4618
  2248.7500      0.0000    347.7948     16.1987    122.1263
  2249.0000      0.0000    347.2499     16.0707    124.1487
  2249.2500      0.0000    351.7945     15.3526    125.9784
  2249.5000      0.0000    360.8006     14.1588    127.2831
  2249.7500      0.0000    373.6226     12.7314    128.3823
  2250.0000      0.0000    391.1899     11.2990    130.0770
  2250.2500      0.0000    417.1365      9.9757    132.7007
  2250.5000      0.0000    455.3493      8.7739    135.2045
  2250.7500      0.0000    504.1999      7.6752    135.4582
  2251.0000      0.0000    553.3845      6.6746    131.8964
  2251.2500      0.0000    588.9850      5.7861    125.1256
  2251.5000      0.0000    603.8566      5.0306    117.7237
  2251.7500      0.0000    603.2917      4.4223    112.2182
  2252.0000      0.0000    599.2879      3.9563    109.4024
  2252.2500      0.0000    597.9744      3.6069    108.3730
  2252.5000      0.0000    592.9477      3.3375    107.3395
  2252.7500      0.0000    572.0435      3.1155    104.3738
  2253.0000      0.0000    530.4805      2.9226     98.6272
  2253.2500      0.0000    476.7914      2.7555     91.5040
  2253.5000      0.0000    426.8350      2.6197     85.9429
  2253.7500      0.0000    393.3152      2.5188     83.7523
  2254.0000      0.0000    380.6115      2.4463     83.9009
  2254.2500      0.0000    386.2864      2.3910     83.8436
  2254.5000      0.0000    403.6369      2.3489     82.1688
  2254.7500      0.0000    422.7170      2.3273     79.5583
  2255.0000      0.0000    433.6157      2.3331     77.4250
  2255.2500      0.0000    433.4094      2.3596     76.1524
  2255.5000      0.0000    430.3282      2.3890     74.9103
  2255.7500      0.0000    439.1618      2.4085     73.0489
  2256.0000      0.0000    470.8435      2.4196     71.2346
  2256.2500      0.0000    524.0162      2.4299     71.0044
  2256.5000      0.0000    584.8483      2.4413     73.3348
  2256.7500      0.0000    636.2780      2.4472     77.6702
  2257.0000      0.0000    669.3705      2.4411     82.2188
  2257.2500      0.0000    686.4158      2.4208     85.2806
  2257.5000      0.0000    694.6829      2.3860     86.3463
  2257.7500      0.0000    699.2247      2.3363     85.8491
  2258.0000      0.0000    701.1966      2.2746     84.1084
  2258.2500      0.0000    700.5095      2.2107     80.9217
  2258.5000      0.0000    698.4056      2.1575     76.1689
  2258.7500      0.0000    697.2491      2.1229     70.5361
  2259.0000      0.0000    698.3046      2.1059     65.3723
  2259.2500      0.0000    700.3579      2.1022     61.5521
  2259.5000      0.0000    700.7533      2.1117     58.5412
  2259.7500      0.0000    697.2119      2.1363     55.1812
  2260.0000      0.0000    688.8147      2.1722     51.5467
  2260.2500      0.0000    676.5391      2.2094     49.2254
  2260.5000      0.0000    663.3346      2.2388     49.3527
  2260.7500      0.0000    652.7911      2.2597     51.0851
  2261.0000      0.0000    647.0027      2.2801     52.4096
  2261.2500      0.0000    645.5424      2.3092     51.9143
  2261.5000      0.0000    646.0085      2.3479     49.5027
  2261.7500      0.0000    645.9930      2.3848     45.9488
  2262.0000      0.0000    646.2092      2.4036     42.2643
  2262.2500      0.0000    651.6411      2.3935     39.3572
  2262.5000      0.0000    667.2864      2.3526     37.8252
  2262.7500      0.0000    691.5876      2.2851     37.6886
  2263.0000      0.0000    715.1668      2.1991     38.2064
  2263.2500      0.0000    727.3896      2.1056     38.2946
  2263.5000      0.0000    724.4283      2.0148     37.6062
  2263.7500      0.0000    711.0178      1.9313     37.2227
  2264.0000      0.0000    695.5401      1.8522     38.8172
  2264.2500      0.0000    684.3152      1.7706     42.8677
  2264.5000      0.0000    679.3337      1.6834     47.8318
  2264.7500      0.0000    679.1421      1.5949     51.1750
  2265.0000      0.0000    680.9740      1.5153     51.1961
  2265.2500      0.0000    682.6943      1.4544     48.1566
  2265.5000      0.0000    683.5633      1.4175     43.9606
  2265.7500      0.0000    683.7952      1.4037     40.6142
  2266.0000      0.0000    683.8210      1.4067     38.7379
  2266.2500      0.0000    683.9263      1.4185     37.5324
  2266.5000      0.0000    684.1923      1.4328     36.0692
  2266.7500      0.0000    684.4790      1.4488     34.3571
  2267.0000      0.0000    684.3336      1.4712     33.2101
  2267.2500      0.0000    683.0015      1.5063     33.3836
  2267.5000      0.0000    679.7869      1.5570     34.9238
  2267.7500      0.0000    674.9324      1.6196     37.1942
  2268.0000      0.0000    670.4917      1.6842     39.3736
  2268.2500      0.0000    669.9313      1.7374     40.9824
  2268.5000      0.0000    675.5244      1.7705     42.1498
  2268.7500      0.0000    685.1550      1.7891     43.4356
  2269.0000      0.0000    692.4514      1.8169     45.1571
  2269.2500      0.0000    691.5103      1.8854     46.8813
