~Version Information
VERS.                      2.0: CWLS Log ASCII Standard - VERSION 2.0
WRAP.                       NO: One line per depth step
~Well Information Block
STRT.FT               459.3000: 
STOP.FT              1604.7000: 
STEP.FT                 0.1000: 
NULL.                -999.2500: 
COMP.          Pioneer Natural Resources: COMPANY
WELL.          Grand Prix 13-12 Tr: WELL
FLD.           Purgatoire River: FIELD
LOC.           2595' FSL & 1277' FWL--: LOCATION
CNTY.               Las Animas: COUNTY
SRVC.                Patterson: SERVICE COMPANY
DATE.          Tue Apr 04 07:18:28 2006: LOG DATE
UWI.           05 071 08711 00: UNIQUE WELL ID
STAT.                 Colorado: STATE
~Curve Information Block
DEPT.FT            0 000 00 00: Depth
DCAL.in                       : CDL Caliper
RHOB.g/cc                     : CDL Bulk Density
RHOC.g/cc                     : CDL Density Correction
DPOR.pu                       : CDL Density Porosity
GR.GAPI                       : Gamma Ray
~Parameter Information Block
~A  Depth       DCAL        RHOB        RHOC        DPOR         GR     
# ...
  1579.3000      7.7157      2.4067     -0.0046     14.7479   -999.2500
  1579.4000      7.7157      2.4267      0.0178     13.5348   -999.2500
  1579.5000      7.7267      2.4488      0.0463     12.1910   -999.2500
  1579.6000      7.7267      2.4512      0.0641     12.0484   -999.2500
  1579.7000      7.7267      2.4330      0.0315     13.1510   -999.2500
  1579.8000      7.7332      2.4197      0.0355     13.9583   -999.2500
  1579.9000      7.7332      2.4283      0.0252     13.4378   -999.2500
  1580.0000      7.7328      2.4501      0.0854     12.1126   -999.2500
  1580.1000      7.7328      2.4680      0.0504     11.0312   -999.2500
  1580.2000      7.7328      2.4785      0.0960     10.3968   -999.2500
  1580.3000      7.7334      2.4879      0.0757      9.8220   -999.2500
  1580.4000      7.7334      2.4977      0.0736      9.2300   -999.2500
  1580.5000      7.7352      2.5005      0.1028      9.0633   -999.2500
  1580.6000      7.7352      2.4946      0.0509      9.4200   -999.2500
  1580.7000      7.7352      2.4848      0.0545     10.0126   -999.2500
  1580.8000      7.7337      2.4725      0.0708     10.7597   -999.2500
  1580.9000      7.7337      2.4651      0.0364     11.2058   -999.2500
  1581.0000      7.7270      2.4691      0.0429     10.9644   -999.2500
  1581.1000      7.7270      2.4784      0.0353     10.3970   -999.2500
  1581.2000      7.7270      2.4838      0.0720     10.0750   -999.2500
  1581.3000      7.7196      2.4850      0.0651     10.0028   -999.2500
  1581.4000      7.7196      2.4951      0.0262      9.3886   -999.2500
  1581.5000      7.7151      2.5174      0.0827      8.0368   -999.2500
  1581.6000      7.7151      2.5365      0.1238      6.8787   -999.2500
  1581.7000      7.7151      2.5473      0.0769      6.2256   -999.2500
  1581.8000      7.7131      2.5570      0.0956      5.6363   -999.2500
  1581.9000      7.7131      2.5572      0.1069      5.6232   -999.2500
  1582.0000      7.7136      2.5374      0.0533      6.8227   -999.2500
  1582.1000      7.7136      2.5031      0.0727      8.9043   -999.2500
  1582.2000      7.7136      2.4655      0.0210     11.1788   -999.2500
  1582.3000      7.7147      2.4446      0.0120     12.4460   -999.2500
  1582.4000      7.7147      2.4553      0.0535     11.7985   -999.2500
  1582.5000      7.7157      2.4886      0.0567      9.7839   -999.2500
  1582.6000      7.7157      2.5186      0.1083      7.9646   -999.2500
  1582.7000      7.7157      2.5240      0.0834      7.6373   -999.2500
  1582.8000      7.7137      2.5088      0.0777      8.5589   -999.2500
  1582.9000      7.7137      2.4964      0.0374      9.3061   -999.2500
  1583.0000      7.7086      2.4985      0.0532      9.1796   -999.2500
  1583.1000      7.7086      2.4978      0.0719      9.2271   -999.2500
  1583.2000      7.7086      2.4811      0.0435     10.2352   -999.2500
  1583.3000      7.7039      2.4641      0.0337     11.2653   -999.2500
  1583.4000      7.7039      2.4587      0.0458     11.5950   -999.2500
  1583.5000      7.6968      2.4597      0.0168     11.5309   -999.2500
  1583.6000      7.6968      2.4662      0.0388     11.1403   -999.2500
  1583.7000      7.6968      2.4784      0.0501     10.4021   -999.2500
  1583.8000      7.6850      2.4910      0.0436      9.6337   -999.2500
  1583.9000      7.6850      2.4953      0.0882      9.3762   -999.2500
  1584.0000      7.6731      2.4891      0.0462      9.7499   -999.2500
  1584.1000      7.6731      2.4857      0.0637      9.9595   -999.2500
  1584.2000      7.6731      2.4941      0.0381      9.4488   -999.2500
  1584.3000      7.6642      2.5040      0.0700      8.8456   -999.2500
  1584.4000      7.6642      2.5008      0.0459      9.0395   -999.2500
  1584.5000      7.6625      2.4934      0.0112      9.4930   -999.2500
  1584.6000      7.6625      2.5013      0.0118      9.0092   -999.2500
  1584.7000      7.6625      2.5225      0.0557      7.7261   -999.2500
  1584.8000      7.6661      2.5433      0.0661      6.4643   -999.2500
  1584.9000      7.6661      2.5637      0.0395      5.2296   -999.2500
  1585.0000      7.6692      2.5827      0.1036      4.0804   -999.2500
  1585.1000      7.6692      2.5866      0.1019      3.8430   -999.2500
  1585.2000      7.6692      2.5723      0.0560      4.7083   -999.2500
  1585.3000      7.6659      2.5571      0.0617      5.6307   -999.2500
  1585.4000      7.6659      2.5719      0.0335      4.7321   -999.2500
  1585.5000      7.6190      2.6472      0.0552      0.1717   -999.2500
  1585.6000      7.6190      2.6576      0.0757     -0.4584   -999.2500
  1585.7000      7.6190      2.2046      0.5762     26.9917   -999.2500
  1585.8000      7.2443      1.2445      0.0800     85.1811   -999.2500
  1585.9000      7.2443      0.4206      0.0800    135.1151   -999.2500
  1586.0000      5.7307      0.0797   -999.2500    155.7741   -999.2500
  1586.1000      5.7307      0.0082   -999.2500    160.1085   -999.2500
  1586.2000      5.7307      0.0004   -999.2500    160.5791   -999.2500
  1586.3000      3.3083      0.0000   -999.2500    160.6061   -999.2500
  1586.4000      3.3083      0.0000   -999.2500    160.6061   -999.2500
  1586.5000      1.8536   -999.2500   -999.2500   -999.2500   -999.2500
  1586.6000      1.8536   -999.2500   -999.2500   -999.2500   -999.2500
  1586.7000      1.8536   -999.2500   -999.2500   -999.2500   -999.2500
  1586.8000      1.5301   -999.2500   -999.2500   -999.2500   -999.2500
  1586.9000      1.5301   -999.2500   -999.2500   -999.2500   -999.2500
  1587.0000      1.5036   -999.2500   -999.2500   -999.2500   -999.2500
  1587.1000      1.5036   -999.2500   -999.2500   -999.2500   -999.2500
  1587.2000      1.5036   -999.2500   -999.2500   -999.2500   -999.2500
  1587.3000   -999.2500   -999.2500   -999.2500   -999.2500   -999.2500
  1587.4000   -999.2500   -999.2500   -999.2500   -999.2500   -999.2500
  1587.5000   -999.2500   -999.2500   -999.2500   -999.2500   -999.2500
  1587.6000   -999.2500   -999.2500   -999.2500   -999.2500   -999.2500
  1587.7000   -999.2500   -999.2500   -999.2500   -999.2500   -999.2500
  1587.8000   -999.2500   -999.2500   -999.2500   -999.2500   -999.2500
  1587.9000   -999.2500   -999.2500   -999.2500   -999.2500   -999.2500
  1588.0000   -999.2500   -999.2500   -999.2500   -999.2500   -999.2500
  1588.1000   -999.2500   -999.2500   -999.2500   -999.2500   -999.2500
  1588.2000   -999.2500   -999.2500   -999.2500   -999.2500   -999.2500
  1588.3000   -999.2500   -999.2500   -999.2500   -999.2500   -999.2500
  1588.4000   -999.2500   -999.2500   -999.2500   -999.2500   -999.2500
  1588.5000   -999.2500   -999.2500   -999.2500   -999.2500   -999.2500
  1588.6000   -999.2500   -999.2500   -999.2500   -999.2500   -999.2500
  1588.7000   -999.2500   -999.2500   -999.2500   -999.2500   -999.2500
  1588.8000   -999.2500   -999.2500   -999.2500   -999.2500   -999.2500
  1588.9000   -999.2500   -999.2500   -999.2500   -999.2500   -999.2500
  1589.0000   -999.2500   -999.2500   -999.2500   -999.2500   -999.2500
  1589.1000   -999.2500   -999.2500   -999.2500   -999.2500   -999.2500
  1589.2000   -999.2500   -999.2500   -999.2500   -999.2500   -999.2500
  1589.3000   -999.2500   -999.2500   -999.2500   -999.2500   -999.2500
  1589.4000   -999.2500   -999.2500   -999.2500   -999.2500   -999.2500
  1589.5000   -999.2500   -999.2500   -999.2500   -999.2500   -999.2500
  1589.6000   -999.2500   -999.2500   -999.2500   -999.2500   -999.2500
  1589.7000   -999.2500   -999.2500   -999.2500   -999.2500   -999.2500
  1589.8000   -999.2500   -999.2500   -999.2500   -999.2500   -999.2500
  1589.9000   -999.2500   -999.2500   -999.2500   -999.2500   -999.2500
  1590.0000   -999.2500   -999.2500   -999.2500   -999.2500   -999.2500
  1590.1000   -999.2500   -999.2500   -999.2500   -999.2500   -999.2500
  1590.2000   -999.2500   -999.2500   -999.2500   -999.2500   -999.2500
  1590.3000   -999.2500   -999.2500   -999.2500   -999.2500   -999.2500
  1590.4000   -999.2500   -999.2500   -999.2500   -999.2500   -999.2500
