~Version Information
 VERS.                                  2.0 : CWLS LAS VERSION
 WRAP.                                   NO : WRAPING MODE
 SWARE .                MController 2.5.0QA : SOFTWARE VERSION
~Well Information
 WELL.                        Fleming 11-02 : WELL
 COMP.    Pioneer Natural Resources USA Inc : COMPANY
 FLD.                      Purgatoire River : FIELD
 LOC.                 NW/NW Sec02 T33S R66W : LOCATION
 DATE.                          06/25-27/06 : DATE(S) LOGGED
 SRVC.       Blanco Geological Services LLC : SERVICE COMPANY
 STAT.                             Colorado : STATE
 CNTY.                           Las Animas : COUNTY
 CTRY.                                  USA : COUNTRY
 API.                       05-071-08491-00 : API NUMBER
 STRT.FT                             347.00 : START DEPTH
 STOP.FT                            2080.00 : STOP DEPTH
 STEP.FT                               1.00 : DEPTH INCREMENT
 NULL.                                -9999 : NULL VALUE
~Curve information
 DEPTH.FT                                   :
 ROP.MIN/FT                                 :
 GAS.UNITS                                  :
~ASCII Log data
# ...
       947.0         0.27         11.1 
       948.0         0.32         11.0 
       949.0         0.30          9.9 
       950.0         0.27          7.3 
       951.0         0.33          6.8 
       952.0         6.23         14.8 
       953.0         0.37          5.0 
       954.0         0.37          4.4 
       955.0         0.37          4.6 
       956.0         0.40          4.2 
       957.0         0.43          5.0 
       958.0         0.43          4.2 
       959.0         0.42          4.9 
       960.0         0.43          4.0 
       961.0         0.43          4.0 
       962.0         0.43          4.2 
       963.0         0.43          4.5 
       964.0         0.43          4.1 
       965.0         0.43          4.2 
       966.0         0.43          4.8 
       967.0         0.42          4.3 
       968.0         0.40          5.0 
       969.0         0.33          5.0 
       970.0         0.37          4.5 
       971.0         0.57          5.2 
       972.0         0.70          5.0 
       973.0         0.47          5.0 
       974.0         0.42          4.4 
       975.0         0.40          4.2 
       976.0         0.47          4.7 
       977.0         0.43          5.4 
       978.0         0.43          5.2 
       979.0         0.50          4.8 
       980.0         0.53          4.4 
       981.0         0.37          4.8 
       982.0         4.63         14.3 
       983.0         0.23          5.4 
       984.0         0.40          5.2 
       985.0         0.33          5.7 
       986.0         0.40          5.0 
       987.0         0.30          4.8 
       988.0         0.23          4.0 
       989.0         0.27          4.7 
       990.0         0.32          3.9 
       991.0         0.27          3.9 
       992.0         0.27          4.2 
       993.0         0.27          5.0 
       994.0         0.23          6.0 
       995.0         0.27          5.2 
       996.0         0.23          5.0 
       997.0         0.27          5.0 
       998.0         0.30          8.5 
       999.0         0.27         11.3 
      1000.0         0.37         11.6 
      1001.0         0.30         11.4 
      1002.0         0.28          8.3 
      1003.0         0.23          7.6 
      1004.0         0.27          6.7 
      1005.0         0.27          6.3 
      1006.0         0.33          5.9 
      1007.0         0.70          5.9 
      1008.0         0.40          4.9 
      1009.0         0.33          4.6 
      1010.0         0.37          4.7 
      1011.0         0.78          4.7 
      1012.0         6.08         22.1 
      1013.0         0.32          6.3 
      1014.0         0.27          5.8 
      1015.0         0.27          6.8 
      1016.0         0.27          5.5 
      1017.0         0.27          6.9 
      1018.0         0.20          7.2 
      1019.0         0.23          7.8 
      1020.0         0.30          8.1 
      1021.0         0.27          7.6 
      1022.0         0.20          7.7 
      1023.0         0.23          8.4 
      1024.0         0.20          9.1 
      1025.0         0.23         10.0 
      1026.0         0.22         10.8 
      1027.0         0.23         11.7 
      1028.0         0.20         10.3 
      1029.0         0.27         10.3 
      1030.0         0.23          9.5 
      1031.0         0.27          8.4 
      1032.0         0.23          6.9 
      1033.0         0.27          6.8 
      1034.0         0.27          6.6 
      1035.0         0.30          6.4 
      1036.0         0.27          5.6 
      1037.0         0.27          6.3 
      1038.0         0.30          6.4 
      1039.0         0.28          5.4 
      1040.0         0.30          5.7 
      1041.0         0.47          5.6 
      1042.0         4.82         22.7 
      1043.0         0.33          7.2 
      1044.0         0.30          7.5 
      1045.0         0.27         23.2 
      1046.0         0.25         60.7 
      1047.0         0.23         95.8 
      1048.0         0.23         95.8 
      1049.0         0.30        138.8 
      1050.0         0.30        168.7 
      1051.0         0.30        183.6 
      1052.0         0.30        202.4 
      1053.0         0.37        221.1 
      1054.0         0.33        225.5 
      1055.0         0.37        244.4 
      1056.0         0.37        254.2 
      1057.0         0.42        281.1 
      1058.0         0.37        291.4 
      1059.0         0.33        291.6 
      1060.0         0.30        290.5 
      1061.0         0.37        293.7 
      1062.0         0.30        294.4 
      1063.0         0.30        294.4 
      1064.0         0.33        291.4 
      1065.0         0.30        287.1 
      1066.0         0.30        291.1 
      1067.0         0.32        302.0 
      1068.0         0.33        303.7 
      1069.0         0.33        309.2 
      1070.0         0.27        310.3 
      1071.0         0.30        277.6 
      1072.0         5.02       1606.5 
      1073.0         0.58        938.2 
      1074.0         0.33        865.5 
      1075.0         0.30        801.5 
      1076.0         0.30        724.3 
      1077.0         0.33        718.1 
      1078.0         0.30        665.8 
      1079.0         0.30        657.4 
      1080.0         0.30        639.2 
      1081.0         0.30        632.0 
      1082.0         0.33        647.9 
      1083.0         0.38        651.8 
      1084.0         0.37        651.2 
      1085.0         0.37        647.9 
      1086.0         0.37        642.1 
      1087.0         0.37        626.8 
      1088.0         0.30        602.8 
      1089.0         0.33        596.6 
      1090.0         0.33        603.1 
      1091.0         0.33        609.3 
      1092.0         0.33        617.4 
      1093.0         0.35        627.5 
      1094.0         0.37        629.4 
      1095.0         0.27        626.8 
      1096.0         0.17        625.2 
      1097.0         0.23        633.0 
      1098.0         0.33        629.4 
      1099.0         0.23        616.4 
      1100.0         0.50        606.4 
      1101.0         1.15        509.0 
      1102.0         4.98       3162.8 
      1103.0         0.27        978.5 
      1104.0         0.30        967.8 
      1105.0         0.30        894.1 
      1106.0         0.27        848.3 
      1107.0         0.20        822.0 
      1108.0         0.25        760.9 
      1109.0         0.23        752.5 
      1110.0         0.20        723.0 
      1111.0         0.23        720.4 
      1112.0         0.20        731.1 
      1113.0         0.20        733.0 
      1114.0         0.27        745.7 
      1115.0         0.33        758.7 
      1116.0         0.60        746.7 
      1117.0         0.30        709.3 
      1118.0         0.27        693.4 
      1119.0         0.23        706.1 
      1120.0         0.28        710.0 
      1121.0         0.27        706.7 
      1122.0         0.20        706.7 
      1123.0         0.20        707.4 
      1124.0         0.23        707.7 
      1125.0         0.20        709.0 
      1126.0         0.23        713.5 
      1127.0         0.23        716.5 
      1128.0         0.20        718.7 
      1129.0         0.23        715.5 
      1130.0         0.23        680.4 
      1131.0         0.40        662.9 
      1132.0         5.50       2969.0 
      1133.0         0.33        962.6 
      1134.0         0.33        972.3 
      1135.0         0.37        949.3 
      1136.0         0.37        911.6 
      1137.0         0.48        865.5 
      1138.0         0.33        819.4 
      1139.0         0.33        776.2 
      1140.0         0.33        750.9 
      1141.0         0.30        729.4 
      1142.0         0.37        717.1 
      1143.0         0.33        719.7 
      1144.0         0.40        716.8 
      1145.0         0.43        687.9 
      1146.0         0.58        680.4 
