~Version Information
VERS.                      2.0: CWLS Log ASCII Standard - VERSION 2.0
WRAP.                       NO: One line per depth step
~Well Information Block
STRT.FT              2013.2500: 
STOP.FT              2153.2500: 
STEP.FT                 0.2500: 
NULL.                -999.2500: 
COMP.          XTO Energy Inc.: COMPANY
WELL.          Hill Ranch 15-09: WELL
FLD.           Purgatorie River: FIELD
LOC.           1816' FSL & 521' FEL--: LOCATION
CNTY.               Las Animas: COUNTY
CTRY.    :
API.     :
SRVC.          Patterson Wireline: SERVICE COMPANY
DATE.          Fri Oct 13 07:59:41 2006: LOG DATE
UWI.              05 071 08474: UNIQUE WELL ID
STAT.                       CO: STATE
~Curve Information Block
DEPT.FT            0 000 00 00: Depth
XCAL.in                       : X Caliper
YCAL.in                       : Y Caliper
CCL.                          : Casing Collar Locator
~Parameter Information Block
~A  Depth       XCAL        YCAL        CCL     
  2013.2500   -999.2500   -999.2500   -999.2500
  2013.5000   -999.2500   -999.2500      0.0000
  2013.7500   -999.2500   -999.2500      0.0000
  2014.0000   -999.2500   -999.2500      0.0000
  2014.2500   -999.2500   -999.2500      0.0000
  2014.5000   -999.2500   -999.2500      0.0000
  2014.7500   -999.2500   -999.2500      0.0000
  2015.0000   -999.2500   -999.2500      0.0000
  2015.2500   -999.2500   -999.2500      0.0000
  2015.5000   -999.2500   -999.2500      0.0000
  2015.7500   -999.2500   -999.2500      0.0000
  2016.0000   -999.2500   -999.2500      0.0000
  2016.2500   -999.2500   -999.2500      0.0000
  2016.5000   -999.2500   -999.2500      0.0000
  2016.7500   -999.2500   -999.2500      0.0000
  2017.0000   -999.2500   -999.2500      0.0000
  2017.2500   -999.2500   -999.2500      0.0000
  2017.5000   -999.2500   -999.2500      0.0000
  2017.7500   -999.2500   -999.2500      0.0000
  2018.0000   -999.2500   -999.2500      0.0000
  2018.2500      2.4199      2.4199      0.0000
  2018.5000      2.4200      2.4200      0.0000
  2018.7500      2.4200      2.4200      0.0000
  2019.0000      2.4200      2.4200      0.0000
  2019.2500      2.4200      2.4200      0.0000
  2019.5000      2.4200      2.4200      0.0000
  2019.7500      2.4200      2.4200      0.0000
  2020.0000      2.4200      2.4200      0.0000
  2020.2500      2.4200      2.4200      0.0000
  2020.5000      2.4200      2.4200      0.0000
  2020.7500      2.4200      2.4200      0.0000
  2021.0000      2.4201      2.4201      0.0000
  2021.2500      2.4200      2.4200      0.0000
  2021.5000      2.4200      2.4200      0.0000
  2021.7500      2.4200      2.4200      0.0000
  2022.0000      2.4200      2.4200      0.0000
  2022.2500      2.4200      2.4200      0.0000
  2022.5000      2.4200      2.4200      0.0000
  2022.7500      2.4200      2.4200      0.0000
  2023.0000      2.4200      2.4200      0.0000
  2023.2500      2.4200      2.4200      0.0000
  2023.5000      2.4200      2.4200      0.0000
  2023.7500      2.4200      2.4200      0.0000
  2024.0000      2.4200      2.4200      0.0000
  2024.2500      2.4200      2.4200      0.0000
  2024.5000      2.4200      2.4200      0.0000
  2024.7500      2.4201      2.4201      0.0000
  2025.0000      2.4201      2.4201      0.0000
  2025.2500      2.4200      2.4200      0.0000
  2025.5000      2.4200      2.4200      0.0000
  2025.7500      2.4200      2.4200      0.0000
  2026.0000      2.4200      2.4200      0.0000
  2026.2500      2.4200      2.4200      0.0000
  2026.5000      2.4200      2.4200      0.0000
  2026.7500      2.4200      2.4200      0.5768
  2027.0000      2.4200      2.4200      0.0000
  2027.2500      2.4200      2.4200      0.0000
  2027.5000      2.4199      2.4199      0.0000
  2027.7500      2.4200      2.4200      0.0000
  2028.0000      2.4200      2.4200      0.0000
  2028.2500      2.4200      2.4200      0.0000
  2028.5000      2.4201      2.4201      0.0000
  2028.7500      2.4201      2.4201      0.0000
  2029.0000      2.4200      2.4200      0.0000
  2029.2500      2.4200      2.4200      0.0000
  2029.5000      2.4199      2.4199      0.0000
  2029.7500      2.4200      2.4200      0.0000
  2030.0000      2.4200      2.4200      0.0000
  2030.2500      2.4200      2.4200      0.0000
  2030.5000      2.4201      2.4201      0.0000
  2030.7500      2.4201      2.4201      0.0000
  2031.0000      2.4200      2.4200      0.0000
  2031.2500      2.4200      2.4200      0.0000
  2031.5000      2.4200      2.4200      0.0000
  2031.7500      2.4200      2.4200      0.0000
  2032.0000      2.4200      2.4200      0.0000
  2032.2500      2.4200      2.4200      0.0000
  2032.5000      2.4200      2.4200      0.0000
  2032.7500      2.4200      2.4200      0.0000
  2033.0000      2.4200      2.4200      0.0000
  2033.2500      2.4199      2.4199      0.0000
  2033.5000      2.4200      2.4200      0.0000
  2033.7500      2.4200      2.4200      0.0000
  2034.0000      2.4200      2.4200      0.0000
  2034.2500      2.4201      2.4201      0.0000
  2034.5000      2.4201      2.4201      0.0000
  2034.7500      2.4200      2.4200      0.0000
  2035.0000      2.4200      2.4200      0.0000
  2035.2500      2.4200      2.4200      0.0000
  2035.5000      2.4200      2.4200      0.0000
  2035.7500      2.4200      2.4200      0.0000
  2036.0000      2.4201      2.4201      0.0000
  2036.2500      2.4201      2.4201      0.0000
  2036.5000      2.4200      2.4200      0.0000
  2036.7500      2.4200      2.4200      0.0000
  2037.0000      2.4200      2.4200      0.0000
  2037.2500      2.4200      2.4200      0.0000
  2037.5000      2.4200      2.4200      0.0000
  2037.7500      2.4200      2.4200      0.0000
  2038.0000      2.4201      2.4201      0.0000
  2038.2500      2.4200      2.4200      0.0000
  2038.5000      2.4201      2.4201      1.6388
  2038.7500      2.4202      2.4202      0.0000
  2039.0000      2.4154      2.4154      0.0000
  2039.2500      2.3838      2.3838     -1.8539
  2039.5000      2.3054      2.3054      3.0000
  2039.7500      2.2583      2.2583     -3.0000
  2040.0000      2.3695      2.3695      3.0000
  2040.2500      2.5547      2.5547     -3.0000
  2040.5000      2.6296      2.6296     -3.0000
  2040.7500      2.5926      2.5926      1.2634
  2041.0000      2.5402      2.5402     -0.7462
  2041.2500      2.5168      2.5168      3.0000
  2041.5000      2.5124      2.5124      0.0000
  2041.7500      2.5131      2.5131      0.0000
  2042.0000      2.5225      2.5225      0.0000
  2042.2500      2.5596      2.5596     -3.0000
  2042.5000      2.6196      2.6196      0.0000
  2042.7500      2.6641      2.6641      1.8265
  2043.0000      2.6962      2.6962     -3.0000
  2043.2500      2.7404      2.7404     -3.0000
  2043.5000      2.8405      2.8405      1.4832
  2043.7500      3.1933      3.1933     -2.5360
  2044.0000      3.8084      3.8084      0.0000
  2044.2500      4.3606      4.3606      0.7462
  2044.5000      4.6183      4.6183      0.0000
  2044.7500      4.6795      4.6795      0.0000
  2045.0000      4.6875      4.6875      0.0000
  2045.2500      4.6885      4.6885      2.0737
  2045.5000      4.6879      4.6879      0.0000
  2045.7500      4.6872      4.6872      0.0000
  2046.0000      4.6871      4.6871      0.0000
  2046.2500      4.6871      4.6871      0.0000
  2046.5000      4.6871      4.6871      0.0000
  2046.7500      4.6871      4.6871      0.0000
  2047.0000      4.6871      4.6871      0.0000
  2047.2500      4.6870      4.6870      0.0000
  2047.5000      4.6870      4.6870      0.0000
  2047.7500      4.6870      4.6870      0.0000
  2048.0000      4.6872      4.6872      0.0000
  2048.2500      4.6878      4.6878      0.0000
  2048.5000      4.6884      4.6884      0.0000
  2048.7500      4.6889      4.6889      0.0000
  2049.0000      4.6950      4.6950      0.0000
  2049.2500      4.7136      4.7136      0.0000
  2049.5000      4.7373      4.7373      0.0000
  2049.7500      4.7490      4.7490      0.0000
  2050.0000      4.7507      4.7507      0.0000
  2050.2500      4.7472      4.7472      0.0000
  2050.5000      4.7399      4.7399      0.0000
  2050.7500      4.7344      4.7344      0.0000
  2051.0000      4.7308      4.7308      0.0000
  2051.2500      4.7253      4.7253      0.0000
  2051.5000      4.7200      4.7200      0.0000
  2051.7500      4.7195      4.7195      0.0000
  2052.0000      4.7221      4.7221      0.0000
  2052.2500      4.7239      4.7239      0.0000
  2052.5000      4.7245      4.7245      0.0000
  2052.7500      4.7249      4.7249      0.0000
  2053.0000      4.7256      4.7256      0.0000
  2053.2500      4.7264      4.7264      0.0000
  2053.5000      4.7253      4.7253      0.0000
  2053.7500      4.7246      4.7246      0.0000
  2054.0000      4.7267      4.7267      0.0000
  2054.2500      4.7296      4.7296      0.0000
  2054.5000      4.7312      4.7312      0.0000
  2054.7500      4.7319      4.7319      0.0000
