~Version Information
VERS.                      2.0: CWLS Log ASCII Standard - VERSION 2.0
WRAP.                       NO: One line per depth step
~Well Information Block
STRT.FT                -9.0000: 
STOP.FT              1754.0000: 
STEP.FT                 0.2500: 
NULL.                -999.2500: 
COMP.          Pioneer Natural Resources: COMPANY
WELL.          Touchstone 11-32 Tr: WELL
FLD.           Purgatorie River: FIELD
LOC.           782' FNL & 840' FWL--: LOCATION
CNTY.               Las Animas: COUNTY
SRVC.          Patterson Wireline: SERVICE COMPANY
DATE.          Mon Mar 06 09:18:09 2006: LOG DATE
UWI.           05 071 08626 00: UNIQUE WELL ID
STAT.                       CO: STATE
~Curve Information Block
DEPT.FT            0 000 00 00: Depth
CCL.                          : Casing Collar Locator
TT3.usec                      : CBL 3' Travel Time
AMP3.mV                       : CBL 3' Amplitude
GR.GAPI                       : Gamma Ray
~Parameter Information Block
~A  Depth       CCL         TT3         AMP3         GR     
# ...
  1632.5000      0.0000    659.5297      1.8215     44.3594
  1632.7500      0.0000    659.3605      1.6922     52.0495
  1633.0000      0.0000    659.8434      1.5946     57.2535
  1633.2500      0.0000    658.8290      1.5202     59.1833
  1633.5000      0.0000    657.0190      1.4693     58.7183
  1633.7500      0.0000    657.7860      1.4543     57.4439
  1634.0000      0.0000    665.6237      1.4928     56.5861
  1634.2500      0.0000    684.1215      1.5976     56.5014
  1634.5000      0.0000    712.5881      1.7668     56.8492
  1634.7500      0.0000    742.9475      1.9811     57.1919
  1635.0000      0.0000    762.2557      2.2147     57.5849
  1635.2500      0.0000    762.0082      2.4569     58.9057
  1635.5000      0.0000    745.5810      2.7265     62.6287
  1635.7500      0.0000    725.1636      3.0542     69.7150
  1636.0000      0.0000    711.7245      3.4439     79.1926
  1636.2500      0.0000    708.4855      3.8573     88.2278
  1636.5000      0.0000    711.9901      4.2469     94.4349
  1636.7500      0.0000    716.8171      4.5966     98.2338
  1637.0000      0.0000    718.7489      4.9156    102.4467
  1637.2500      0.0000    714.7662      5.1961    109.3959
  1637.5000      0.0000    702.3913      5.3997    118.4001
  1637.7500      0.0000    681.0283      5.4934    126.0614
  1638.0000      0.0000    653.3698      5.4852    129.0872
  1638.2500      0.0000    624.1638      5.4189    126.7252
  1638.5000      0.0000    598.1670      5.3416    120.3425
  1638.7500      0.0000    579.6696      5.2794    111.3749
  1639.0000      0.0000    571.8807      5.2362    100.6412
  1639.2500      0.0000    574.6398      5.2050     89.3245
  1639.5000      0.0000    582.4023      5.1801     79.4034
  1639.7500      0.0000    585.7224      5.1622     72.6338
  1640.0000      0.0000    577.1652      5.1549     69.4111
  1640.2500      0.0000    557.3295      5.1571     68.8305
  1640.5000      0.0000    533.8108      5.1640     69.6339
  1640.7500      0.0000    512.8611      5.1754     70.9387
  1641.0000      0.0000    494.2946      5.2011     72.3301
  1641.2500      0.0000    477.5543      5.2545     73.6826
  1641.5000      0.0000    470.0501      5.3371     75.0255
  1641.7500      0.0000    483.7206      5.4273     76.5249
  1642.0000      0.0000    521.9897      5.4860     78.3342
  1642.2500      0.0000    572.6494      5.4809     80.2471
  1642.5000      0.0000    615.5900      5.4055     81.5855
  1642.7500      0.0000    638.2598      5.2778     81.5651
  1643.0000      0.0000    644.1460      5.1257     79.6898
  1643.2500      0.0000    646.9656      4.9778     75.9901
  1643.5000      0.0000    657.1550      4.8614     71.2531
  1643.7500      0.0000    674.2706      4.7979     66.8149
  1644.0000      0.0000    691.1749      4.7957     63.6999
  1644.2500      0.0000    702.5164      4.8482     62.0626
  1644.5000      0.0000    707.9523      4.9387     61.5672
  1644.7500      0.0000    709.4633      5.0467     61.9405
  1645.0000      0.0000    708.3782      5.1527     63.0057
  1645.2500      0.0000    705.2485      5.2405     64.6091
  1645.5000      0.0000    700.5359      5.3002     66.8027
  1645.7500      0.0000    693.5992      5.3321     69.9002
  1646.0000      0.0000    681.8472      5.3473     74.1808
  1646.2500      0.0000    663.0215      5.3642     79.6208
  1646.5000      0.0000    639.1227      5.3994     85.7034
  1646.7500      0.0000    616.9060      5.4606     91.1995
  1647.0000      0.0000    603.7474      5.5448     94.4264
  1647.2500      0.0000    603.4128      5.6436     94.3836
  1647.5000      0.0000    614.8972      5.7476     91.8100
  1647.7500      0.0000    633.1776      5.8491     88.8166
  1648.0000      0.0000    651.2524      5.9404     87.3945
  1648.2500      0.0000    663.6679      6.0089     88.4630
  1648.5000      0.0000    668.8439      6.0312     92.0947
  1648.7500      0.0000    667.9394      5.9852     97.9734
  1649.0000      0.0000    663.0672      5.8763    105.4637
  1649.2500      0.0000    657.9584      5.7366    113.5112
  1649.5000      0.0000    658.3683      5.5863    120.6011
  1649.7500      0.0000    668.7838      5.4139    125.0221
  1650.0000     -2.0000    689.0377      5.2067    125.6677
  1650.2500     -2.0000    714.6044      4.9820    122.7641
  1650.5000      2.0000    738.2853      4.7756    117.6634
  1650.7500      0.0000    751.9952      4.6151    112.0671
  1651.0000      0.0000    750.9286      4.5216    107.5142
  1651.2500      0.0000    737.6831      4.5181    105.0585
  1651.5000      0.0000    720.6932      4.6087    104.8851
  1651.7500      0.0000    708.0927      4.7554    106.2200
  1652.0000      0.0000    703.8658      4.8920    107.8235
  1652.2500      0.0000    708.5399      4.9640    108.7101
  1652.5000      0.0000    720.3953      4.9639    108.5159
  1652.7500      0.0000    734.8353      4.9406    107.4370
  1653.0000      0.0000    744.9656      4.9621    105.9060
  1653.2500      0.0000    745.7618      5.0527    104.0703
  1653.5000      0.0000    738.0303      5.1710    101.4401
  1653.7500      0.0000    726.9151      5.2609     97.3137
  1654.0000      0.0000    716.4262      5.3119     91.8915
  1654.2500      0.0000    706.2831      5.3592     86.9539
  1654.5000      0.0000    694.3146      5.4331     85.1798
  1654.7500      0.0000    680.4499      5.5267     88.4825
  1655.0000      0.0000    666.6752      5.6092     96.6262
  1655.2500      0.0000    653.6381      5.6585    107.0247
  1655.5000      0.0000    639.5969      5.6775    115.9131
  1655.7500      0.0000    623.0085      5.6874    120.5019
  1656.0000      0.0000    605.1073      5.7078    120.7601
  1656.2500      0.0000    589.7195      5.7443    119.1838
  1656.5000      0.0000    579.7994      5.7892    118.6118
  1656.7500      0.0000    573.6247      5.8333    120.1651
  1657.0000      0.0000    567.6188      5.8713    123.0429
  1657.2500      0.0000    565.0251      5.8987    125.9424
  1657.5000      0.0000    577.4453      5.9086    128.4218
  1657.7500      0.0000    613.0504      5.8902    130.8223
  1658.0000      0.0000    664.9707      5.8284    133.2239
  1658.2500      0.0000    714.6582      5.7050    135.0410
  1658.5000      0.0000    745.8808      5.5061    135.6548
  1658.7500      0.0000    754.0789      5.2318    134.8073
  1659.0000      0.0000    745.5163      4.9032    132.1212
  1659.2500      0.0000    731.4293      4.5569    126.8289
  1659.5000      0.0000    722.5051      4.2312    118.4616
  1659.7500      0.0000    725.4338      3.9553    107.5289
  1660.0000      0.0000    741.8676      3.7490     95.3911
  1660.2500      0.0000    768.5231      3.6283     83.8719
  1660.5000      0.0000    797.4370      3.6009     74.9226
  1660.7500      0.0000    817.9791      3.6566     69.9437
  1661.0000      0.0000    821.9826      3.7685     69.0675
  1661.2500      0.0000    809.1570      3.9127     71.3617
  1661.5000      0.0000    788.0368      4.0913     75.9911
  1661.7500      0.0000    770.7961      4.3354     83.1525
  1662.0000      0.0000    765.3705      4.6825     93.6818
  1662.2500      0.0000    771.1145      5.1494    107.4224
  1662.5000      0.0000    781.3491      5.7171    121.9596
  1662.7500      0.0000    789.4683      6.3289    133.5272
  1663.0000      0.0000    792.4857      6.9029    139.7101
  1663.2500      0.0000    789.7619      7.3637    141.2493
  1663.5000      0.0000    779.3222      7.6707    141.0872
  1663.7500      0.0000    755.8226      7.8153    141.6809
  1664.0000      0.0000    713.5149      7.8014    143.1434
  1664.2500      0.0000    653.3208      7.6393    143.6755
  1664.5000      0.0000    586.7816      7.3550    141.6878
  1664.7500      0.0000    530.2060      6.9916    137.6201
  1665.0000      0.0000    493.5034      6.5966    133.8418
  1665.2500      0.0000    475.3705      6.2072    132.9283
  1665.5000      0.0000    468.1744      5.8445    135.8017
  1665.7500      0.0000    465.0936      5.5194    140.8315
