~Version Information
VERS.                      2.0: CWLS Log ASCII Standard - VERSION 2.0
WRAP.                       NO: One line per depth step
~Well Information Block
STRT.FT               370.0000: 
STOP.FT              1282.5000: 
STEP.FT                 0.1000: 
NULL.                -999.2500: 
COMP.          Pioneer Natural Resources: COMPANY
WELL.          Irish Eyes 33-21: WELL
FLD.           Purgatoire River: FIELD
LOC.           1379' FSL & 2544' FEL: LOCATION
PROV.                 Colorado: PROVINCE
CNTY.               Las Animas: COUNTRY
SRVC.                Patterson: SERVICE COMPANY
DATE.          Mon Jan 16 13:31:01 2006: LOG DATE
UWI.           05 071 08658 00: UNIQUE WELL ID
~Curve Information Block
DEPT.FT            0 000 00 00: Depth
DCAL.in                       : CDL Caliper
RHOB.g/cc                     : CDL Bulk Density
RHOC.g/cc                     : CDL Density Correction
DPOR.pu                       : CDL Density Porosity
GR.GAPI                       : Gamma Ray
NPOR.pu                       : Neutron Porosity
~Parameter Information Block
~A  Depth       DCAL        RHOB        RHOC        DPOR         GR         NPOR    
# ...
  1147.6000      7.8944      2.4787     -0.0022     10.3840     60.8438     23.5248
  1147.7000      7.8944      2.4810     -0.0085     10.2398     57.7698     24.6762
  1147.8000      7.8930      2.4932      0.0099      9.5016     58.9995     26.0323
  1147.9000      7.8930      2.5000      0.0857      9.0937     63.6284     26.4978
  1148.0000      7.8857      2.4949      0.0032      9.4028     69.2151     26.1536
  1148.1000      7.8857      2.4931     -0.0014      9.5063     71.7835     25.5909
  1148.2000      7.8857      2.4975      0.0389      9.2435     70.0401     24.8487
  1148.3000      7.8817      2.5077      0.0195      8.6225     67.0404     24.4506
  1148.4000      7.8817      2.5352      0.0285      6.9558     64.5234     25.2500
  1148.5000      7.8834      2.5754      0.0520      4.5229     62.0355     26.9153
  1148.6000      7.8834      2.6019      0.1105      2.9156     61.8031     27.6940
  1148.7000      7.8834      2.6004      0.0834      3.0063     66.5060     26.6662
  1148.8000      7.8818      2.5890      0.0438      3.6940     75.9660     25.3863
  1148.9000      7.8818      2.5908      0.0518      3.5866     87.3484     25.4269
  1149.0000      7.8875      2.6020      0.0549      2.9086     92.7990     26.2868
  1149.1000      7.8875      2.6028      0.1076      2.8598     90.6180     26.8416
  1149.2000      7.8875      2.5903      0.0275      3.6178     94.0081     27.1139
  1149.3000      7.8748      2.5842      0.0249      3.9886    107.4543     27.2559
  1149.4000      7.8748      2.5922      0.0520      3.5057    118.9556     26.8379
  1149.5000      7.8702      2.5990      0.0042      3.0938    124.7821     26.0377
  1149.6000      7.8702      2.5993     -0.0160      3.0715    129.5766     25.9575
  1149.7000      7.8702      2.6027      0.0178      2.8695    132.0360     26.6468
  1149.8000      7.8738      2.6122      0.0427      2.2920    131.5691     26.7967
  1149.9000      7.8738      2.6277      0.0256      1.3505    133.0679     25.8493
  1150.0000      7.8695      2.6439      0.0786      0.3697    138.4982     24.7964
  1150.1000      7.8695      2.6497      0.0414      0.0172    145.1278     24.5775
  1150.2000      7.8695      2.6437      0.0299      0.3848    143.9518     24.7341
  1150.3000      7.8710      2.6341      0.0617      0.9612    130.3910     24.6405
  1150.4000      7.8710      2.6369     -0.0091      0.7911    116.0207     24.4405
  1150.5000      7.8719      2.6602      0.0640     -0.6192    108.5207     24.1471
  1150.6000      7.8719      2.6797      0.1088     -1.7995    104.2235     23.7570
  1150.7000      7.8719      2.6715      0.0660     -1.3013    104.6399     23.6550
  1150.8000      7.8749      2.6515      0.0183     -0.0891    110.3681     23.8153
  1150.9000      7.8749      2.6421      0.0588      0.4770    113.2389     23.5046
  1151.0000      7.8878      2.6399      0.0097      0.6138    110.7236     22.9944
  1151.1000      7.8878      2.6370      0.0708      0.7892    108.8912     23.4604
  1151.2000      7.8878      2.6377      0.0317      0.7484    108.0924     24.5407
  1151.3000      7.8728      2.6512      0.0158     -0.0740    100.1641     24.8966
  1151.4000      7.8728      2.6667      0.0954     -1.0140     85.6173     24.2427
  1151.5000      7.8700      2.6601      0.0337     -0.6106     75.0667     23.2919
  1151.6000      7.8700      2.6268      0.0507      1.4070     72.3015     22.7182
  1151.7000      7.8700      2.5791     -0.0356      4.2960     73.2591     22.8570
  1151.8000      7.8762      2.5367      0.0111      6.8671     73.2937     23.1395
  1151.9000      7.8762      2.5180     -0.0228      8.0020     70.6874     22.2605
  1152.0000      7.8769      2.5260      0.0049      7.5149     67.7085     20.6629
  1152.1000      7.8769      2.5412      0.0426      6.5934     68.0744     20.2964
  1152.2000      7.8769      2.5521     -0.0073      5.9356     70.8129     21.3868
  1152.3000      7.8699      2.5579      0.0810      5.5810     68.5607     22.9094
  1152.4000      7.8699      2.5465      0.0908      6.2742     59.3791     24.4174
  1152.5000      7.8680      2.5208      0.0245      7.8324     51.5173     24.9478
  1152.6000      7.8680      2.5001      0.0309      9.0879     50.8486     24.2417
  1152.7000      7.8680      2.4954      0.0253      9.3721     55.6571     23.7865
  1152.8000      7.8637      2.5157      0.0332      8.1419     62.2869     23.9524
  1152.9000      7.8637      2.5539      0.1174      5.8272     66.5237     23.9972
  1153.0000      7.8621      2.5820      0.1220      4.1195     64.2438     24.0671
  1153.1000      7.8621      2.5847      0.1097      3.9546     57.1865     24.6168
  1153.2000      7.8621      2.5723      0.0657      4.7062     52.6480     25.2995
  1153.3000      7.8657      2.5594      0.0695      5.4915     54.2750     25.6241
  1153.4000      7.8657      2.5442      0.0717      6.4142     58.0718     25.7124
  1153.5000      7.8554      2.5298      0.0249      7.2820     58.1397     25.7606
  1153.6000      7.8554      2.5274      0.0425      7.4299     55.1757     25.3764
  1153.7000      7.8554      2.5285      0.0338      7.3654     56.6489     24.4726
  1153.8000      7.8546      2.5165      0.0148      8.0881     62.9810     23.8009
  1153.9000      7.8546      2.4955     -0.0050      9.3611     67.1869     23.9495
  1154.0000      7.8569      2.4916     -0.0278      9.6012     65.8505     24.5406
  1154.1000      7.8569      2.5164      0.0745      8.0956     60.5479     24.7133
  1154.2000      7.8569      2.5451      0.0841      6.3547     53.1591     24.0513
  1154.3000      7.8573      2.5521      0.0889      5.9325     47.8102     22.6539
  1154.4000      7.8573      2.5393      0.0431      6.7080     49.2142     21.5044
  1154.5000      7.8577      2.5252      0.0452      7.5665     53.8975     21.4266
  1154.6000      7.8577      2.5271      0.0227      7.4500     55.2798     21.8748
  1154.7000      7.8577      2.5442      0.0253      6.4122     51.3270     22.1944
  1154.8000      7.8590      2.5546      0.0555      5.7814     43.8158     21.9731
  1154.9000      7.8590      2.5493      0.0163      6.1038     39.2234     21.2662
  1155.0000      7.8698      2.5446      0.0122      6.3888     42.6503     20.8519
  1155.1000      7.8698      2.5419      0.0909      6.5514     48.5652     20.7136
  1155.2000      7.8698      2.5277      0.0415      7.4106     48.4080     20.2172
  1155.3000      7.8829      2.5132     -0.0027      8.2896     42.4762     19.7402
  1155.4000      7.8829      2.5144      0.0265      8.2156     37.2694     19.8661
  1155.5000      7.8649      2.5207      0.0407      7.8350     38.3647     20.4636
  1155.6000      7.8649      2.5163      0.0269      8.1021     43.9309     21.4945
  1155.7000      7.8649      2.5094      0.0242      8.5223     47.1656     22.8673
  1155.8000      7.8591      2.5207      0.0074      7.8353     46.4094     24.0476
  1155.9000      7.8591      2.5464      0.0503      6.2780     45.5194     24.2265
  1156.0000      7.8676      2.5607      0.1151      5.4106     45.2944     23.3933
  1156.1000      7.8676      2.5593      0.0623      5.4988     45.7737     22.6620
  1156.2000      7.8676      2.5525      0.0641      5.9109     50.4921     22.8532
  1156.3000      7.8636      2.5354      0.0471      6.9458     58.4580     23.6606
  1156.4000      7.8636      2.5077      0.0594      8.6242     62.9426     24.0848
  1156.5000      7.8574      2.4789      0.0148     10.3708     59.9944     23.7847
  1156.6000      7.8574      2.4545      0.0007     11.8494     51.0032     23.1676
  1156.7000      7.8574      2.4406     -0.0149     12.6892     41.7807     22.5607
  1156.8000      7.8642      2.4424     -0.0025     12.5830     40.5300     22.2592
  1156.9000      7.8642      2.4520      0.0404     11.9990     47.6621     22.3338
  1157.0000      7.8662      2.4578      0.0388     11.6488     53.5315     22.6845
  1157.1000      7.8662      2.4638     -0.0039     11.2860     52.1306     23.2895
