~Version Information
VERS.                      2.0: CWLS Log ASCII Standard - VERSION 2.0
WRAP.                       NO: One line per depth step
~Well Information Block
STRT.FT               460.0000: 
STOP.FT              1509.0000: 
STEP.FT                 0.2500: 
NULL.                -999.2500: 
COMP.          Pioneer Natural Resources: COMPANY
WELL.           Amore 32-09 Tr: WELL
FLD.           Purgatoire River: FIELD
LOC.           1941' FNL & 2297' FEL: LOCATION
PROV.                 Colorado: PROVINCE
CNTY.               Las Animas: COUNTRY
SRVC.                Patterson: SERVICE COMPANY
DATE.          Mon Nov 14 11:07:52 2005: LOG DATE
UWI.           05 071 08584 00: UNIQUE WELL ID
~Curve Information Block
DEPT.FT            0 000 00 00: Depth
SN.Ohm-m                      : IEL Short Normal
SP.mV                         : IEL Spontaneous Potential
DIR.Ohm-m                     : IEL Induction Resistivity
GR.GAPI                       : Gamma Ray
~Parameter Information Block
~A  Depth        SN          SP         DIR          GR     
# ...
  1398.0000     17.4613    130.9648     18.1385    111.2699
  1398.2500     17.4581    131.2741     17.8752    112.4245
  1398.5000     17.6203    131.5103     17.6167    113.5864
  1398.7500     17.8180    131.6727     17.3341    113.5169
  1399.0000     17.9659    131.7700     17.0048    111.5899
  1399.2500     17.9590    131.8137     16.6372    109.2222
  1399.5000     17.7399    131.8121     16.2737    105.4871
  1399.7500     17.4135    131.7696     15.9674    104.2522
  1400.0000     17.1292    131.6901     15.7519    106.1966
  1400.2500     16.8704    131.5818     15.6281    109.9995
  1400.5000     16.4814    131.4602     15.5708    117.0025
  1400.7500     15.9329    131.3466     15.5469    120.3129
  1401.0000     15.4343    131.2617     15.5329    120.1596
  1401.2500     15.2029    131.2162     15.5218    116.3856
  1401.5000     15.2518    131.2038     15.5176    108.1035
  1401.7500     15.4771    131.2044     15.5207    103.4588
  1402.0000     15.8281    131.1938     15.5127    100.6314
  1402.2500     16.2748    131.1546     15.4495    101.2203
  1402.5000     16.7204    131.0804     15.2710    103.0700
  1402.7500     17.0734    130.9760     14.9287    103.3909
  1403.0000     17.3228    130.8520     14.4191    101.6221
  1403.2500     17.5272    130.7182     13.8016     99.3688
  1403.5000     17.7739    130.5794     13.1867     95.2783
  1403.7500     18.1155    130.4379     12.7060     92.1685
  1404.0000     18.5546    130.2986     12.4947     86.7299
  1404.2500     19.0478    130.1730     12.7065     82.7212
  1404.5000     19.4886    130.0749     13.5760     77.0063
  1404.7500     19.7559    130.0119     15.5661     74.0881
  1405.0000     19.7689    129.9819     19.7893     72.1285
  1405.2500     19.4883    129.9797     29.6128     72.8878
  1405.5000     18.9279    130.0006     60.6374     77.3961
  1405.7500     18.1204    130.0350    469.2118     82.3584
  1406.0000     17.0689    130.0614 100000.0000     91.4049
  1406.2500     15.8364    130.0486 100000.0000     97.4641
  1406.5000     14.6117    129.9673   1367.1014    104.9797
  1406.7500     13.5669    129.7968     74.7912    108.3567
  1407.0000     12.7214    129.5236     35.9030    110.9069
  1407.2500     12.0009    129.1347     24.4656    111.4604
  1407.5000     11.3714    128.6144     19.6622    111.8811
  1407.7500     10.8737    127.9509     17.1852    112.4070
  1408.0000     10.5437    127.1464     15.5464    113.7156
  1408.2500     10.3387    126.2267     14.2234    114.8559
  1408.5000     10.1556    125.2513     13.2982    117.0801
  1408.7500      9.9288    124.3142     13.3427    119.1484
  1409.0000      9.6667    123.5120     15.9723    123.3892
  1409.2500      9.3770    122.8775     32.2743    126.6770
  1409.5000      9.0488    122.3229 100000.0000    130.8183
  1409.7500      8.7236    121.6545 100000.0000    132.0632
  1410.0000      8.4946    120.6530 100000.0000    131.0903
  1410.2500      8.3976    119.1476 100000.0000    129.1833
  1410.5000      8.3666    117.0279 100000.0000    126.3066
  1410.7500      8.3396    114.2100 100000.0000    125.1029
  1411.0000      8.3426    110.5984 100000.0000    124.2288
  1411.2500      8.4712    106.0480 100000.0000    123.6334
  1411.5000      8.7874    100.3086      3.4010    121.6716
  1411.7500      9.1944     92.9568      1.2984    119.4544
  1412.0000      9.5060     83.3427      0.7320    115.3141
  1412.2500      9.6431     70.5863      0.5109    112.6828
  1412.5000      9.5979     53.6588      0.4339    110.0472
  1412.7500      9.2606     31.5648      0.4552    109.3817
  1413.0000      8.4694      3.6531      0.5909    109.3714
  1413.2500      7.1939    -29.8957      0.9464    109.3188
  1413.5000      5.6483    -67.4557      1.9970    108.0004
  1413.7500      4.2120   -105.6465      8.6179    105.6123
  1414.0000      3.1267   -139.9918 100000.0000     98.4971
  1414.2500      2.3670   -166.6463 100000.0000     91.0003
  1414.5000      1.8431   -184.1259 100000.0000     76.5946
  1414.7500      1.5351   -193.6464 100000.0000     66.4057
  1415.0000      1.4132   -197.8945 100000.0000     53.0860
  1415.2500      1.4071   -199.4303 100000.0000     46.4497
  1415.5000      1.4637   -199.8762 100000.0000     39.8096
  1415.7500      1.5337   -199.9793 100000.0000     37.0146
  1416.0000      1.5532   -199.9978 100000.0000     34.3652
  1416.2500      1.5072   -200.0001 100000.0000     33.4308
  1416.5000      1.4305   -200.0001 100000.0000     33.3877
  1416.7500      1.3621   -200.0001 100000.0000     34.3415
  1417.0000      1.3354   -200.0001 100000.0000     37.0547
  1417.2500      1.3412   -199.9996 100000.0000     39.4715
  1417.5000      1.3671   -199.9947 100000.0000     43.7160
  1417.7500      1.4818   -199.9665 100000.0000     46.9357
  1418.0000      1.7478   -199.8369     22.3223     52.2740
  1418.2500      2.1158   -199.3502     13.8185     55.9668
  1418.5000      2.4820   -197.8515      9.8859     61.4274
  1418.7500      2.7090   -194.0444      5.3312     65.3235
  1419.0000      2.6405   -185.9837      2.5469     73.1436
  1419.2500      2.2886   -171.5271      1.3174     80.7449
  1419.5000      1.9000   -149.1095      0.7711     96.2858
  1419.7500      1.6869   -118.4413      0.5028    108.4657
  1420.0000      1.6377    -80.9127      0.3583    126.2376
  1420.2500      1.6577    -39.6526      0.2764    136.0539
  1420.5000      1.7662      1.0011      0.2304    146.9813
  1420.7500      2.1534     36.7560      0.2080    152.4058
  1421.0000      3.0001     64.8290      0.2052    158.7199
  1421.2500      4.1889     84.7144      0.2243    161.4782
  1421.5000      5.3690     97.8153      0.2749    162.4853
  1421.7500      6.3113    106.3201      0.3780    161.0027
  1422.0000      6.9852    112.1332      0.5819    156.6561
  1422.2500      7.3883    116.4182      1.0276    153.3195
  1422.5000      7.5405    119.7266      2.3358    149.0000
  1422.7500      7.5713    122.3147     13.5585    146.8470
  1423.0000      7.6378    124.3470 100000.0000    144.1702
  1423.2500      7.7783    125.9503 100000.0000    142.1561
  1423.5000      7.9271    127.2151 100000.0000    138.3101
  1423.7500      8.0743    128.2027 100000.0000    135.6292
  1424.0000      8.3250    128.9614 100000.0000    133.0174
  1424.2500      8.7404    129.5361 100000.0000    132.9085
  1424.5000      9.1995    129.9681 100000.0000    134.8235
  1424.7500      9.4958    130.2916 100000.0000    136.4476
  1425.0000      9.5578    130.5338 100000.0000    137.7937
  1425.2500      9.4782    130.7181 100000.0000    137.8435
  1425.5000      9.3550    130.8644 100000.0000    137.4447
  1425.7500      9.2339    130.9855 100000.0000    137.1850
  1426.0000      9.1089    131.0855 100000.0000    136.7640
  1426.2500      8.9288    131.1631 100000.0000    136.5156
  1426.5000      8.6933    131.2171 100000.0000    136.8080
  1426.7500      8.4593    131.2485 100000.0000    137.7567
  1427.0000      8.2673    131.2582 100000.0000    139.8627
  1427.2500      8.1785    131.2428 100000.0000    140.8311
  1427.5000      8.2615    131.1968 100000.0000    140.0429
  1427.7500      8.4751    131.1222 100000.0000    137.7594
  1428.0000      8.7324    131.0334 100000.0000    132.5171
  1428.2500      9.0479    130.9514     89.6566    128.5007
  1428.5000      9.4579    130.8949     28.4796    122.5867
  1428.7500      9.8862    130.8755     16.6509    119.0909
  1429.0000     10.1913    130.8946     12.0813    114.7757
  1429.2500     10.2882    130.9393      9.9249    112.2795
  1429.5000     10.2341    130.9845      8.8540    108.4041
  1429.7500     10.1820    131.0041      8.3552    105.7276
  1430.0000     10.2354    130.9882      8.1885    102.7726
  1430.2500     10.3955    130.9502      8.2326    102.4290
  1430.5000     10.5849    130.9150      8.4316    104.8705
  1430.7500     10.6983    130.9009      8.7669    107.9198
  1431.0000     10.7226    130.9092      9.2376    113.1140
  1431.2500     10.7814    130.9252      9.8423    116.3561
