~Version Information
VERS.                      2.0: CWLS Log ASCII Standard - VERSION 2.0
WRAP.                       NO: One line per depth step
~Well Information Block
STRT.FT               621.2500: 
STOP.FT               951.7500: 
STEP.FT                 0.2500: 
NULL.                -999.2500: 
COMP.          Pioneer Natural Resources: COMPANY
WELL.          Screamin 12-29 Tr: WELL
FLD.           Purgatoire River: FIELD
LOC.           1979' FNL & 532' FWL--: LOCATION
CNTY.               Las Animas: COUNTY
SRVC.                Patterson: SERVICE COMPANY
DATE.          Fri Mar 31 01:01:50 2006: LOG DATE
UWI.           05 071 08660 00: UNIQUE WELL ID
STAT.                 Colorado: STATE
~Curve Information Block
DEPT.FT            0 000 00 00: Depth
SN.Ohm-m                      : IEL Short Normal
SP.mV                         : IEL Spontaneous Potential
DIR.Ohm-m                     : IEL Induction Resistivity
GR.GAPI                       : Gamma Ray
~Parameter Information Block
~A  Depth        SN          SP         DIR          GR     
# ...
   889.2500    601.5111   -553.4916     21.6346    101.1927
   889.5000    601.5111   -553.4485     21.3369    101.8008
   889.7500    601.5111   -553.4100     21.0085    103.3040
   890.0000    601.5111   -553.3804     20.6941    106.6656
   890.2500    601.5111   -553.3628     20.4462    109.1673
   890.5000    601.5111   -553.3584     20.3087    112.8752
   890.7500    601.5111   -553.3664     20.3065    115.1208
   891.0000    601.5111   -553.3836     20.4446    117.0852
   891.2500    601.5111   -553.4057     20.7152    116.4604
   891.5000    601.5111   -553.4280     21.1089    111.4331
   891.7500    601.5111   -553.4465     21.6210    105.4721
   892.0000    601.5111   -553.4590     22.2518     94.0700
   892.2500    601.5111   -553.4647     22.9981     86.0360
   892.5000    601.5111   -553.4648     23.8389     75.4101
   892.7500    601.5111   -553.4617     24.7223     70.1719
   893.0000    601.5111   -553.4584     25.5661     65.5520
   893.2500    601.5111   -553.4578     26.2745     64.2995
   893.5000    601.5111   -553.4620     26.7664     64.3022
   893.7500    601.5111   -553.4721     27.0001     65.3370
   894.0000    601.5111   -553.4882     26.9813     68.7105
   894.2500    601.5111   -553.5090     26.7519     72.4117
   894.5000    601.5111   -553.5328     26.3665     79.9594
   894.7500    601.5111   -553.5571     25.8724     85.6701
   895.0000    601.5111   -553.5801     25.3057     93.3900
   895.2500    601.5111   -553.6000     24.6997     96.8801
   895.5000    601.5111   -553.6160     24.0940     98.8033
   895.7500    601.5111   -553.6280     23.5321     98.2931
   896.0000    601.5111   -553.6360     23.0495     96.5597
   896.2500    601.5111   -553.6406     22.6607     95.6817
   896.5000    601.5111   -553.6418     22.3550     95.2165
   896.7500    601.5111   -553.6398     22.0998     95.0709
   897.0000    601.5111   -553.6340     21.8472     94.3557
   897.2500    601.5111   -553.6238     21.5394     93.6597
   897.5000    601.5111   -553.6088     21.1155     93.2323
   897.7500    601.5111   -553.5885     20.5279     93.7078
   898.0000    601.5111   -553.5630     19.7638     95.2705
   898.2500    601.5111   -553.5330     18.8557     96.5971
   898.5000    601.5111   -553.4992     17.8693     99.2513
   898.7500    601.5111   -553.4631     16.8760    102.0135
   899.0000    601.5111   -553.4264     15.9303    108.6005
   899.2500    601.5111   -553.3905     15.0622    114.7762
   899.5000    601.5111   -553.3571     14.2817    125.7709
   899.7500    601.5111   -553.3275     13.5873    133.0542
   900.0000    601.5111   -553.3024     12.9719    141.7316
   900.2500    601.5111   -553.2828     12.4271    145.3247
   900.5000    601.5111   -553.2689     11.9464    147.6139
   900.7500    601.5111   -553.2611     11.5294    147.7095
   901.0000    601.5111   -553.2601     11.1852    146.9269
   901.2500    601.5111   -553.2664     10.9300    146.2565
   901.5000    601.5111   -553.2802     10.7792    145.2040
   901.7500    601.5111   -553.3013     10.7372    144.3398
   902.0000    601.5111   -553.3288     10.7908    142.5199
   902.2500    601.5111   -553.3606     10.9111    140.7310
   902.5000    601.5111   -553.3943     11.0622    136.5678
   902.7500    601.5111   -553.4271     11.2159    132.5490
   903.0000    601.5111   -553.4564     11.3604    125.1205
   903.2500    601.5111   -553.4803     11.4990    120.1465
   903.5000    601.5111   -553.4979     11.6386    114.8490
   903.7500    601.5111   -553.5089     11.7782    113.8726
   904.0000    601.5111   -553.5139     11.9036    116.6299
   904.2500    601.5111   -553.5140     11.9892    120.3507
   904.5000    601.5111   -553.5104     12.0043    126.2786
   904.7500    601.5111   -553.5047     11.9227    129.4779
   905.0000    601.5111   -553.4980     11.7333    132.8962
   905.2500    601.5111   -553.4915     11.4476    134.5623
   905.5000    601.5111   -553.4857     11.0957    136.7314
   905.7500    601.5111   -553.4807     10.7151    138.2157
   906.0000    601.5111   -553.4758     10.3404    140.5580
   906.2500    601.5111   -553.4702      9.9988    141.9112
   906.5000    601.5111   -553.4621      9.7120    143.0675
   906.7500    601.5111   -553.4501      9.4963    143.3405
   907.0000    601.5111   -553.4330      9.3628    143.9783
   907.2500    601.5111   -553.4102      9.3157    145.0494
   907.5000    601.5111   -553.3823      9.3526    147.1716
   907.7500    601.5111   -553.3508      9.4662    147.9209
   908.0000    601.5111   -553.3181      9.6479    146.3141
   908.2500    601.5111   -553.2869      9.8919    143.1074
   908.5000    601.5111   -553.2601     10.1989    136.0204
   908.7500    601.5111   -553.2394     10.5752    130.8556
   909.0000    601.5111   -553.2258     11.0290    124.4233
   909.2500    601.5111   -553.2188     11.5652    121.8157
   909.5000    601.5111   -553.2167     12.1811    120.6451
   909.7500    601.5111   -553.2171     12.8641    121.1595
   910.0000    601.5111   -553.2175     13.5891    122.3622
   910.2500    601.5111   -553.2155     14.3201    122.4450
   910.5000    601.5111   -553.2096     15.0161    119.8347
   910.7500    601.5111   -553.1985     15.6438    115.7244
   911.0000    601.5111   -553.1819     16.1878    106.6507
   911.2500    601.5111   -553.1593     16.6525     99.9486
   911.5000    601.5111   -553.1302     17.0502     91.3646
   911.7500    601.5111   -553.0941     17.3865     87.3743
   912.0000    601.5111   -553.0500     17.6489     83.7892
   912.2500    601.5111   -552.9972     17.8056     82.5258
   912.5000    601.5111   -552.9350     17.8137     81.8848
   912.7500    601.5111   -552.8632     17.6338     82.3392
   913.0000    601.5111   -552.7825     17.2444     84.4202
   913.2500    601.5111   -552.6935     16.6513     86.5399
   913.5000    601.5111   -552.5970     15.8887     90.0802
   913.7500    601.5111   -552.4931     15.0123     92.3115
   914.0000    601.5111   -552.3762     14.0855     95.4944
   914.2500    601.5111   -552.2334     13.1641     97.9369
   914.5000    601.5111   -552.0394     12.2878    102.8652
   914.7500    601.5111   -551.7499     11.4785    107.0146
   915.0000    601.5111   -551.2945     10.7443    113.7035
   915.2500    601.5111   -550.5725     10.0844    117.9213
   915.5000    601.5111   -549.4468      9.4941    123.4657
   915.7500    601.5111   -547.7413      8.9691    126.5121
   916.0000    601.5111   -545.2418      8.5069    129.5932
   916.2500    601.5078   -541.7012      8.1065    130.3942
   916.5000    601.4899   -536.8464      7.7672    130.0838
   916.7500    601.4036   -530.3909      7.4873    129.5327
   917.0000    601.0859   -522.0486      7.2642    129.1721
   917.2500    600.1917   -511.5504      7.0934    129.3198
   917.5000    598.3061   -498.6603      6.9680    129.5629
   917.7500    595.3192   -483.1896      6.8781    129.3458
   918.0000    591.6566   -465.0006      6.8121    127.9196
   918.2500    587.6007   -444.0034      6.7593    125.9680
   918.5000    581.8998   -420.1439      6.7138    121.4119
   918.7500    571.1827   -393.3926      6.6760    117.6774
   919.0000    550.2106   -363.7447      6.6524    112.3795
   919.2500    511.6727   -331.2442      6.6519    109.7936
   919.5000    447.7558   -296.0351      6.6825    107.7658
   919.7500    357.3253   -258.4301      6.7483    107.3574
   920.0000    253.2831   -218.9759      6.8488    107.1538
   920.2500    158.2408   -178.4881      6.9790    106.6700
   920.5000     89.6502   -138.0296      7.1306    104.6534
   920.7500     50.1501    -98.8251      7.2943    102.2939
   921.0000     31.3821    -62.1212      7.4613     97.5950
   921.2500     23.3441    -29.0206      7.6248     94.2099
   921.5000     19.6334     -0.3320      7.7812     89.7865
   921.7500     17.4643     23.5297      7.9310     87.7465
   922.0000     15.9534     42.5689      8.0773     86.4499
   922.2500     14.8734     57.1583      8.2213     86.6591
   922.5000     14.1392     67.9355      8.3586     87.7459
