~Version Information
VERS.                      2.0: CWLS Log ASCII Standard - VERSION 2.0
WRAP.                       NO: One line per depth step
~Well Information Block
STRT.FT               230.2000: 
STOP.FT              1518.7000: 
STEP.FT                 0.1000: 
NULL.                -999.2500: 
COMP.          Pioneer Natural Resources: COMPANY
WELL.          Mow 8-14-33-67 Tr: WELL
FLD.           Purgatoire River: FIELD
LOC.           2258' FNL & 929' FEL: LOCATION
PROV.                 Colorado: PROVINCE
CNTY.               Las Animas: COUNTRY
SRVC.                Patterson: SERVICE COMPANY
DATE.          Mon Jan 30 11:22:55 2006: LOG DATE
UWI.           05 071 08684 00: UNIQUE WELL ID
~Curve Information Block
DEPT.FT            0 000 00 00: Depth
DCAL.in                       : CDL Caliper
DPOR.pu                       : CDL Density Porosity
RHOB.g/cc                     : CDL Bulk Density
RHOC.g/cc                     : CDL Density Correction
GR.GAPI                       : Gamma Ray
~Parameter Information Block
~A  Depth       DCAL        DPOR        RHOB        RHOC         GR     
# ...
   431.8000      7.7626      0.6720      2.6389      0.0286    120.9095
   431.9000      7.7626      0.2255      2.6463      0.0582    122.3578
   432.0000      7.7628     -0.0692      2.6511      0.0312    118.0218
   432.1000      7.7628      0.2402      2.6460      0.0483    115.2029
   432.2000      7.7628      0.9948      2.6336      0.0845    119.2643
   432.3000      7.7620      1.8967      2.6187      0.0854    126.3579
   432.4000      7.7620      2.4947      2.6088      0.0570    128.4654
   432.5000      7.7618      2.6219      2.6067      0.0501    123.6951
   432.6000      7.7618      2.6845      2.6057      0.0672    115.8815
   432.7000      7.7618      3.0496      2.5997      0.0529    108.7484
   432.8000      7.7624      3.6415      2.5899      0.0729    105.8892
   432.9000      7.7624      4.1698      2.5812      0.0780    107.5638
   433.0000      7.7627      4.4275      2.5769      0.1154    109.6801
   433.1000      7.7627      4.7791      2.5711      0.1039    112.7285
   433.2000      7.7627      5.5505      2.5584      0.0841    121.0775
   433.3000      7.7626      6.4487      2.5436      0.0909    131.1374
   433.4000      7.7626      7.2306      2.5307      0.1026    135.1775
   433.5000      7.7631      8.0793      2.5167      0.1424    132.5525
   433.6000      7.7631      9.1722      2.4987      0.0831    129.5891
   433.7000      7.7631     10.5813      2.4754      0.0898    129.8665
   433.8000      7.7633     12.3449      2.4463      0.0621    129.0401
   433.9000      7.7633     13.8822      2.4209      0.0646    122.5125
   434.0000      7.7627     14.1001      2.4173      0.0600    113.1803
   434.1000      7.7627     12.7112      2.4403      0.1214    109.1829
   434.2000      7.7627     10.7592      2.4725      0.1406    114.1346
   434.3000      7.7625      8.8610      2.5038      0.1790    124.1049
   434.4000      7.7625      6.9160      2.5359      0.2095    132.1119
   434.5000      7.7624      5.5449      2.5585      0.2435    131.6642
   434.6000      7.7624      5.3974      2.5609      0.2389    124.3772
   434.7000      7.7624      5.5121      2.5590      0.1833    118.8886
   434.8000      7.7625      4.7821      2.5711      0.2553    117.5091
   434.9000      7.7625      3.9659      2.5846      0.2965    118.2404
   435.0000      7.7633      3.7273      2.5885      0.2496    120.3568
   435.1000      7.7633      3.2030      2.5971      0.2384    122.7749
   435.2000      7.7633      2.1950      2.6138      0.2732    126.7287
   435.3000      7.7641      1.8704      2.6191      0.2518    131.0008
   435.4000      7.7641      2.7492      2.6046      0.2241    130.6565
   435.5000      7.7646      3.9830      2.5843      0.2145    126.9016
   435.6000      7.7646      4.3306      2.5785      0.1984    125.8621
   435.7000      7.7646      3.4463      2.5931      0.2098    126.1502
   435.8000      7.7647      2.0382      2.6164      0.2035    122.8757
   435.9000      7.7647      0.4159      2.6431      0.1551    118.6026
   436.0000      7.7640     -1.5451      2.6755      0.1968    119.5614
   436.1000      7.7640     -3.2229      2.7032      0.1965    122.4010
   436.2000      7.7640     -3.6939      2.7109      0.2105    120.5544
   436.3000      7.7625     -2.6584      2.6939      0.1613    118.3474
   436.4000      7.7625     -0.5893      2.6597      0.1454    119.9992
   436.5000      7.7596      2.0318      2.6165      0.1100    122.0818
   436.6000      7.7596      5.4461      2.5601      0.0994    121.6651
   436.7000      7.7596     10.0960      2.4834      0.0041    118.3228
   436.8000      7.7526     15.2617      2.3982      0.0109    114.9220
   436.9000      7.7526     19.1460      2.3341     -0.0995    114.0551
   437.0000      7.7427     20.1904      2.3169     -0.0650    111.6761
   437.1000      7.7427     18.2795      2.3484     -0.0094    104.2852
   437.2000      7.7427     14.3304      2.4135      0.0437     96.4654
   437.3000      7.7353      9.6302      2.4911      0.1271     93.4742
   437.4000      7.7353      5.5137      2.5590      0.2095     93.5895
   437.5000      7.7319      2.4859      2.6090      0.2097     91.2926
   437.6000      7.7319      0.2563      2.6458      0.2432     87.2368
   437.7000      7.7319     -0.8876      2.6646      0.2397     85.3200
   437.8000      7.7300     -0.1403      2.6523      0.2131     83.6864
   437.9000      7.7300      2.0502      2.6162      0.1605     79.4763
   438.0000      7.7267      4.1046      2.5823      0.1708     72.6695
   438.1000      7.7267      5.0522      2.5666      0.1582     64.5207
   438.2000      7.7267      4.8089      2.5707      0.1450     58.1849
   438.3000      7.7227      3.9159      2.5854      0.1367     54.5924
   438.4000      7.7227      2.9200      2.6018      0.1178     53.6783
   438.5000      7.7194      2.0232      2.6166      0.1550     55.4269
   438.6000      7.7194      1.4225      2.6265      0.1429     56.2446
   438.7000      7.7194      0.5980      2.6401      0.1674     54.5113
   438.8000      7.7176     -1.1574      2.6691      0.1966     53.5392
   438.9000      7.7176     -2.7359      2.6951      0.2477     54.3507
   439.0000      7.7222     -2.4790      2.6909      0.2091     54.1639
   439.1000      7.7222     -0.7585      2.6625      0.1682     51.2510
   439.2000      7.7222      0.9850      2.6337      0.1523     47.0578
   439.3000      7.7378      1.8521      2.6194      0.0857     46.3423
   439.4000      7.7378      1.9163      2.6184      0.0803     50.8584
   439.5000      7.7579      2.5195      2.6084      0.1026     54.4508
   439.6000      7.7579      4.4866      2.5760      0.0912     54.0596
   439.7000      7.7579      6.2811      2.5464      0.0624     53.8529
   439.8000      7.7739      6.4899      2.5429      0.0636     53.9578
   439.9000      7.7739      6.3469      2.5453      0.1053     52.6261
   440.0000      7.7840      7.4479      2.5271      0.0993     50.2371
   440.1000      7.7840      9.6722      2.4904      0.0928     45.9312
   440.2000      7.7840     12.3695      2.4459      0.0367     40.5521
   440.3000      7.7899     15.1815      2.3995      0.0639     37.0092
   440.4000      7.7899     17.8410      2.3556      0.0461     37.6448
   440.5000      7.7930     19.6544      2.3257      0.0079     40.6661
   440.6000      7.7930     19.1746      2.3336      0.0270     40.8759
   440.7000      7.7930     15.0178      2.4022      0.0435     37.5239
   440.8000      7.7922      8.0035      2.5179      0.1759     35.8462
   440.9000      7.7922      1.6323      2.6231      0.3019     39.3278
   441.0000      7.7896     -1.5414      2.6754      0.3102     45.4608
   441.1000      7.7896     -2.3130      2.6882      0.2780     49.6219
   441.2000      7.7896     -2.2106      2.6865      0.2754     50.1941
   441.3000      7.7882     -1.3283      2.6719      0.2236     48.0889
   441.4000      7.7882      0.3409      2.6444      0.2085     45.0580
   441.5000      7.7878      2.5545      2.6079      0.1624     43.7716
   441.6000      7.7878      5.1247      2.5654      0.0845     45.5801
   441.7000      7.7878      7.2730      2.5300      0.0507     48.0431
   441.8000      7.7879      8.3960      2.5115      0.0477     48.1216
   441.9000      7.7879      8.9347      2.5026      0.0655     46.7919
   442.0000      7.7875      9.7070      2.4898      0.0778     47.2746
   442.1000      7.7875     10.5649      2.4757      0.0160     49.5656
   442.2000      7.7875     10.0567      2.4841      0.0488     49.8344
   442.3000      7.7868      7.5938      2.5247      0.0858     46.9592
   442.4000      7.7868      4.4790      2.5761      0.1818     44.4559
   442.5000      7.7866      1.4335      2.6263      0.1383     44.7378
   442.6000      7.7866     -1.8865      2.6811      0.2266     47.3111
   442.7000      7.7866     -4.2286      2.7198      0.3122     49.6192
   442.8000      7.7867     -3.6363      2.7100      0.2616     50.4002
   442.9000      7.7867     -0.2638      2.6544      0.2145     52.1500
