~Version Information
VERS.                      2.0: CWLS Log ASCII Standard - VERSION 2.0
WRAP.                       NO: One line per depth step
~Well Information Block
STRT.FT               340.0000: 
STOP.FT              2342.7500: 
STEP.FT                 0.2500: 
NULL.                -999.2500: 
COMP.          Pioneer Natural Resources: COMPANY
WELL.          Pinkerton 41-12: WELL
FLD.           Purgatoire River: FIELD
LOC.           1222' FNL & 670' FEL--: LOCATION
CNTY.               Las Animas: COUNTY
SRVC.                Patterson: SERVICE COMPANY
DATE.          Wed Mar 15 10:37:39 2006: LOG DATE
UWI.           05 071 08500 00: UNIQUE WELL ID
STAT.                 Colorado: STATE
~Curve Information Block
DEPT.FT            0 000 00 00: Depth
SN.Ohm-m                      : IEL Short Normal
SP.mV                         : IEL Spontaneous Potential
DIR.Ohm-m                     : IEL Induction Resistivity
GR.GAPI                       : Gamma Ray
~Parameter Information Block
~A  Depth        SN          SP         DIR          GR     
# ...
  2182.5000     19.8454     85.2213     12.4295     71.4161
  2182.7500     20.7226     85.0350     13.1747     69.2427
  2183.0000     21.7962     84.8809     14.1286     66.7240
  2183.2500     22.8899     84.7681     15.2516     65.1389
  2183.5000     23.8117     84.6979     16.4507     62.3535
  2183.7500     24.4314     84.6626     17.5826     60.1223
  2184.0000     24.7319     84.6466     18.4919     56.9665
  2184.2500     24.8217     84.6284     19.0723     56.1087
  2184.5000     24.8906     84.5841     19.3113     59.1457
  2184.7500     25.1006     84.4922     19.2823     65.0972
  2185.0000     25.4699     84.3384     19.0954     80.0296
  2185.2500     25.8503     84.1207     18.8439     92.9730
  2185.5000     26.0327     83.8521     18.5774    113.8454
  2185.7500     25.8948     83.5607     18.3039    126.8245
  2186.0000     25.4704     83.2864     18.0098    142.5601
  2186.2500     24.9049     83.0742     17.6832    150.0186
  2186.5000     24.3578     82.9658     17.3277    156.7952
  2186.7500     23.9301     82.9899     16.9652    158.7701
  2187.0000     23.6514     83.1558     16.6303    158.8056
  2187.2500     23.5166     83.4500     16.3640    157.4000
  2187.5000     23.5289     83.8392     16.2099    153.7948
  2187.7500     23.7137     84.2775     16.2121    150.4073
  2188.0000     24.0952     84.7167     16.4129    142.9290
  2188.2500     24.6702     85.1180     16.8483    135.4911
  2188.5000     25.4042     85.4611     17.5387    120.0722
  2188.7500     26.2551     85.7487     18.4759    107.8518
  2189.0000     27.1935     86.0070     19.6115     89.9279
  2189.2500     28.1939     86.2807     20.8572     80.2257
  2189.5000     29.1989     86.6238     22.1070     71.0629
  2189.7500     30.0924     87.0891     23.2721     68.9232
  2190.0000     30.7177     87.7169     24.2942     71.5577
  2190.2500     30.9429     88.5262     25.1213     76.8208
  2190.5000     30.7285     89.5085     25.6749     88.4409
  2190.7500     30.1438     90.6273     25.8583     97.1252
  2191.0000     29.3231     91.8213     25.6112    108.1325
  2191.2500     28.3969     93.0113     24.9616    112.3182
  2191.5000     27.4461     94.1107     24.0211    112.6910
  2191.7500     26.4984     95.0354     22.9324    109.9126
  2192.0000     25.5570     95.7142     21.8189    104.7550
  2192.2500     24.6304     96.0972     20.7671    102.7713
  2192.5000     23.7415     96.1612     19.8341    103.4684
  2192.7500     22.9197     95.9122     19.0569    105.4769
  2193.0000     22.1877     95.3826     18.4539    107.5048
  2193.2500     21.5564     94.6254     18.0200    106.7217
  2193.5000     21.0251     93.7044     17.7265    102.2735
  2193.7500     20.5859     92.6854     17.5297     98.3080
  2194.0000     20.2284     91.6283     17.3859     93.4855
  2194.2500     19.9421     90.5835     17.2646     92.0579
  2194.5000     19.7159     89.5937     17.1510     92.5543
  2194.7500     19.5374     88.6978     17.0409     93.7646
  2195.0000     19.3970     87.9375     16.9342     95.5022
  2195.2500     19.2913     87.3606     16.8339     96.4467
  2195.5000     19.2206     87.0207     16.7480     97.8308
  2195.7500     19.1844     86.9710     16.6889     98.6163
  2196.0000     19.1795     87.2520     16.6714     98.9303
  2196.2500     19.2030     87.8764     16.7103     98.4700
  2196.5000     19.2570     88.8143     16.8188     97.4641
  2196.7500     19.3484     89.9841     17.0063     96.9352
  2197.0000     19.4851     91.2540     17.2746     95.9127
  2197.2500     19.6713     92.4565     17.6165     94.5035
  2197.5000     19.9039     93.4140     18.0184     91.0948
  2197.7500     20.1723     93.9713     18.4661     88.4979
  2198.0000     20.4641     94.0254     18.9472     85.3388
  2198.2500     20.7700     93.5453     19.4460     84.1916
  2198.5000     21.0821     92.5761     19.9403     84.2264
  2198.7500     21.3887     91.2262     20.4081     85.3813
  2199.0000     21.6746     89.6435     20.8390     88.2058
  2199.2500     21.9263     87.9875     21.2358     90.1030
  2199.5000     22.1362     86.4050     21.5977     91.5844
  2199.7500     22.3041     85.0161     21.9036     91.2115
  2200.0000     22.4341     83.9090     22.1188     89.0598
  2200.2500     22.5296     83.1439     22.2254     87.4226
  2200.5000     22.5931     82.7580     22.2477     86.1008
  2200.7500     22.6308     82.7688     22.2442     86.2112
  2201.0000     22.6554     83.1728     22.2759     87.1195
  2201.2500     22.6830     83.9390     22.3787     87.5606
  2201.5000     22.7276     85.0026     22.5562     87.3972
  2201.7500     22.7960     86.2615     22.7873     86.8676
  2202.0000     22.8854     87.5815     23.0361     85.8372
  2202.2500     22.9839     88.8104     23.2611     84.9081
  2202.5000     23.0766     89.8000     23.4269     82.8100
  2202.7500     23.1571     90.4310     23.5175     81.2837
  2203.0000     23.2334     90.6337     23.5437     80.6032
  2203.2500     23.3223     90.3993     23.5362     82.2759
  2203.5000     23.4330     89.7796     23.5268     88.2088
  2203.7500     23.5584     88.8731     23.5340     93.4855
  2204.0000     23.6806     87.8045     23.5611    100.9293
  2204.2500     23.7854     86.7014     23.6030    104.6121
  2204.5000     23.8722     85.6742     23.6533    108.2374
  2204.7500     23.9520     84.8027     23.7081    109.9093
  2205.0000     24.0365     84.1313     23.7677    111.5716
  2205.2500     24.1285     83.6714     23.8366    111.8227
  2205.5000     24.2205     83.4073     23.9204    110.7876
  2205.7500     24.3011     83.3057     24.0199    109.7109
  2206.0000     24.3624     83.3230     24.1278    109.0615
  2206.2500     24.3995     83.4117     24.2298    109.9800
  2206.5000     24.4080     83.5250     24.3091    113.7442
  2206.7500     24.3844     83.6197     24.3520    117.6333
  2207.0000     24.3304     83.6588     24.3552    125.0888
  2207.2500     24.2568     83.6138     24.3290    131.2434
  2207.5000     24.1794     83.4677     24.2902    143.3506
  2207.7500     24.1096     83.2168     24.2488    154.1071
  2208.0000     24.0489     82.8719     24.1998    174.3885
  2208.2500     23.9900     82.4575     24.1262    189.5719
  2208.5000     23.9230     82.0098     24.0112    211.3820
  2208.7500     23.8391     81.5721     23.8487    223.2182
  2209.0000     23.7338     81.1909     23.6456    235.0483
  2209.2500     23.6119     80.9107     23.4188    239.0539
  2209.5000     23.4897     80.7688     23.1917    240.0026
  2209.7500     23.3882     80.7916     22.9910    237.4881
  2210.0000     23.3222     80.9905     22.8443    229.4840
  2210.2500     23.2969     81.3588     22.7755    222.0446
  2210.5000     23.3138     81.8711     22.7984    209.1714
  2210.7500     23.3743     82.4846     22.9111    199.9357
  2211.0000     23.4770     83.1438     23.0913    185.4246
  2211.2500     23.6151     83.7870     23.3011    175.5519
  2211.5000     23.7786     84.3557     23.5019    161.2372
  2211.7500     23.9561     84.8023     23.6756    152.6814
  2212.0000     24.1358     85.0971     23.8307    142.8886
  2212.2500     24.3085     85.2319     23.9877    139.4944
  2212.5000     24.4720     85.2199     24.1562    140.2862
  2212.7500     24.6282     85.0920     24.3262    144.2315
  2213.0000     24.7756     84.8914     24.4790    152.2805
  2213.2500     24.9065     84.6664     24.6019    156.9684
  2213.5000     25.0148     84.4627     24.6928    160.3031
  2213.7500     25.1029     84.3178     24.7560    159.1231
  2214.0000     25.1798     84.2561     24.7981    151.5594
  2214.2500     25.2542     84.2868     24.8267    143.1390
  2214.5000     25.3318     84.4040     24.8470    128.2770
  2214.7500     25.4181     84.5892     24.8560    119.1503
  2215.0000     25.5179     84.8153     24.8435    109.7236
  2215.2500     25.6304     85.0511     24.8011    107.1534
  2215.5000     25.7462     85.2663     24.7341    108.9494
  2215.7500     25.8533     85.4353     24.6649    113.0874
