~Version Information
VERS.                      2.0: CWLS Log ASCII Standard - VERSION 2.0
WRAP.                       NO: One line per depth step
~Well Information Block
STRT.FT               655.0000: 
STOP.FT              2623.7000: 
STEP.FT                 0.1000: 
NULL.                -999.2500: 
COMP.          Pioneer Natural Resources: COMPANY
WELL.             Aviator 12-4: WELL
FLD.           Purgatoire River: FIELD
LOC.           1969' FNL & 732' FWL--: LOCATION
CNTY.               Las Animas: COUNTY
SRVC.                Patterson: SERVICE COMPANY
DATE.          Mon Apr 10 07:35:20 2006: LOG DATE
UWI.           05 071 08714 00: UNIQUE WELL ID
STAT.                 Colorado: STATE
~Curve Information Block
DEPT.FT            0 000 00 00: Depth
DCAL.in                       : CDL Caliper
RHOB.g/cc                     : CDL Bulk Density
RHOC.g/cc                     : CDL Density Correction
DPOR.pu                       : CDL Density Porosity
NPOR.pu                       : Neutron Porosity
GR.GAPI                       : Gamma Ray
~Parameter Information Block
~A  Depth       DCAL        RHOB        RHOC        DPOR        NPOR         GR     
# ...
  2335.0000      7.9693      2.5579      0.0743      5.5845     21.6563    106.1156
  2335.1000      7.9693      2.5635      0.0906      5.2452     21.8218    107.3676
  2335.2000      7.9693      2.5527      0.0826      5.8970     22.2108    106.2663
  2335.3000      7.9627      2.5244      0.0696      7.6110     22.6835    100.2532
  2335.4000      7.9627      2.4907      0.0160      9.6529     22.6933     88.8217
  2335.5000      7.9589      2.4696      0.0112     10.9309     22.3009     76.8363
  2335.6000      7.9589      2.4772      0.0065     10.4710     21.8991     72.6487
  2335.7000      7.9589      2.5103      0.0575      8.4688     21.7946     78.1943
  2335.8000      7.9587      2.5392      0.0842      6.7170     22.1040     85.1022
  2335.9000      7.9587      2.5407      0.0544      6.6214     22.4733     84.8783
  2336.0000      7.9588      2.5221      0.0449      7.7511     22.4011     82.0351
  2336.1000      7.9588      2.4998      0.0696      9.1060     21.9709     84.1591
  2336.2000      7.9588      2.4814      0.0390     10.2201     21.4588     90.2685
  2336.3000      7.9561      2.4727      0.0363     10.7443     21.2014     95.0584
  2336.4000      7.9561      2.4794      0.0527     10.3365     21.5218     94.8862
  2336.5000      7.9551      2.5011      0.0648      9.0252     22.1895     92.5428
  2336.6000      7.9551      2.5244      0.1015      7.6139     22.9436     93.1669
  2336.7000      7.9551      2.5286      0.1233      7.3572     23.5681     95.5879
  2336.8000      7.9579      2.5099      0.0503      8.4893     23.7782     94.5542
  2336.9000      7.9579      2.4846      0.0679     10.0216     23.5328     91.7183
  2337.0000      7.9598      2.4642      0.0618     11.2596     23.0405     91.5545
  2337.1000      7.9598      2.4491      0.0476     12.1743     22.7499     95.6218
  2337.2000      7.9598      2.4363      0.0839     12.9543     23.0401    101.5947
  2337.3000      7.9599      2.4266      0.0506     13.5401     23.7541    105.4448
  2337.4000      7.9599      2.4308      0.0437     13.2828     24.2013    104.9055
  2337.5000      7.9625      2.4511      0.0674     12.0563     24.1113    101.7159
  2337.6000      7.9625      2.4699      0.1127     10.9142     23.9012     99.5116
  2337.7000      7.9625      2.4733      0.0990     10.7064     24.0692    101.8485
  2337.8000      7.9693      2.4680      0.0761     11.0327     24.8192    107.0057
  2337.9000      7.9693      2.4689      0.0513     10.9757     25.6063    108.5328
  2338.0000      7.9759      2.4802      0.0780     10.2936     25.9239    105.4775
  2338.1000      7.9759      2.4900      0.0819      9.6949     25.8979     99.6648
  2338.2000      7.9759      2.4932      0.0722      9.5051     25.5651     93.8286
  2338.3000      7.9741      2.4994      0.0666      9.1296     25.2092     93.5391
  2338.4000      7.9741      2.5134      0.1033      8.2806     24.8934     97.5499
  2338.5000      7.9672      2.5294      0.0811      7.3101     24.0737    101.1699
  2338.6000      7.9672      2.5409      0.0921      6.6133     23.1214    106.0853
  2338.7000      7.9672      2.5491      0.0686      6.1168     23.0517    113.5331
  2338.8000      7.9632      2.5621      0.0688      5.3265     23.2866    118.6255
  2338.9000      7.9632      2.5817      0.0951      4.1396     22.9568    119.2686
  2339.0000      7.9602      2.5991      0.0834      3.0849     22.8036    118.8280
  2339.1000      7.9602      2.6011      0.0953      2.9612     23.4877    120.7980
  2339.2000      7.9602      2.5823      0.0610      4.1002     24.6311    123.5715
  2339.3000      7.9583      2.5590      0.0536      5.5136     25.3957    125.7699
  2339.4000      7.9583      2.5455      0.0770      6.3306     25.1395    126.8402
  2339.5000      7.9585      2.5330      0.0781      7.0906     24.2950    121.4246
  2339.6000      7.9585      2.5116      0.0627      8.3863     23.9702    111.5587
  2339.7000      7.9585      2.4883      0.0320      9.7984     23.9921    106.7678
  2339.8000      7.9594      2.4791     -0.0048     10.3595     23.5632    109.5990
  2339.9000      7.9594      2.4880      0.0553      9.8178     23.0246    119.9994
  2340.0000      7.9587      2.4957      0.0907      9.3542     23.0594    134.0958
  2340.1000      7.9587      2.4913      0.0609      9.6155     23.3395    139.8601
  2340.2000      7.9587      2.4940      0.0209      9.4516     23.4202    136.3651
  2340.3000      7.9580      2.5081      0.0880      8.6022     23.5586    133.5432
  2340.4000      7.9580      2.5117      0.0595      8.3841     23.8294    131.7023
  2340.5000      7.9579      2.5010      0.0501      9.0330     23.9623    127.5647
  2340.6000      7.9579      2.4917      0.0574      9.5925     23.7758    122.3759
  2340.7000      7.9579      2.4902      0.0433      9.6866     23.7190    116.6329
  2340.8000      7.9577      2.4865      0.0587      9.9116     24.0686    112.4560
  2340.9000      7.9577      2.4738      0.0325     10.6772     24.3680    112.4791
  2341.0000      7.9581      2.4643     -0.0027     11.2565     24.4872    116.5152
  2341.1000      7.9581      2.4695      0.0312     10.9378     24.4750    124.1470
  2341.2000      7.9581      2.4839      0.0306     10.0638     24.0356    131.6412
  2341.3000      7.9576      2.4934      0.0689      9.4905     23.2935    131.9239
  2341.4000      7.9576      2.4852      0.0809      9.9872     22.9059    123.3447
  2341.5000      7.9557      2.4634     -0.0226     11.3068     23.0043    111.5977
  2341.6000      7.9557      2.4481      0.0184     12.2375     22.9706    105.4413
  2341.7000      7.9557      2.4480      0.0174     12.2436     22.8323    106.0489
  2341.8000      7.9552      2.4580      0.0436     11.6392     23.0027    105.2531
  2341.9000      7.9552      2.4700      0.0341     10.9101     23.1657    104.2587
  2342.0000      7.9552      2.4808      0.0247     10.2559     23.0966    107.7192
  2342.1000      7.9552      2.4901      0.0560      9.6908     23.0682    111.0314
  2342.2000      7.9552      2.4965      0.0625      9.3026     23.2811    112.8857
  2342.3000      7.9540      2.5005      0.0476      9.0577     23.5666    113.9112
  2342.4000      7.9540      2.4994      0.0801      9.1266     23.8311    112.7986
  2342.5000      7.9519      2.4889      0.0700      9.7639     24.2817    109.6984
  2342.6000      7.9519      2.4758      0.0378     10.5567     24.7788    105.6702
  2342.7000      7.9519      2.4734      0.0552     10.7019     24.8599    105.7935
  2342.8000      7.9509      2.4880      0.0248      9.8185     24.6241    111.1509
  2342.9000      7.9509      2.5116      0.0443      8.3876     24.5811    115.5437
  2343.0000      7.9516      2.5252      0.0889      7.5640     24.8225    117.8015
  2343.1000      7.9516      2.5267      0.0453      7.4741     25.0063    119.1752
  2343.2000      7.9516      2.5371      0.0633      6.8441     24.7481    120.2305
  2343.3000      7.9516      2.5629      0.0496      5.2808     24.0762    121.1953
  2343.4000      7.9516      2.5854      0.1084      3.9129     23.5107    120.1245
  2343.5000      7.9507      2.5931      0.0552      3.4490     23.2663    115.3463
  2343.6000      7.9507      2.5950      0.0804      3.3338     23.3379    107.8977
  2343.7000      7.9507      2.5914      0.0699      3.5490     23.9409     99.0468
  2343.8000      7.9490      2.5757      0.0039      4.5028     24.9533     92.8626
  2343.9000      7.9490      2.5524      0.0361      5.9166     25.6872     93.5850
  2344.0000      7.9473      2.5254      0.0084      7.5533     25.5842     99.0054
  2344.1000      7.9473      2.4996     -0.0160      9.1155     24.8125    107.3349
  2344.2000      7.9473      2.4829      0.0123     10.1299     24.2160    117.6615
  2344.3000      7.9495      2.4770      0.0038     10.4854     24.4301    125.5579
  2344.4000      7.9495      2.4731      0.0609     10.7236     25.3878    130.4830
  2344.5000      7.9582      2.4613      0.0345     11.4344     26.6592    131.9448
