~Version Information
VERS.                      2.0: CWLS Log ASCII Standard - VERSION 2.0
WRAP.                       NO: One line per depth step
~Well Information Block
STRT.FT                -9.5000: 
STOP.FT              1304.7500: 
STEP.FT                 0.2500: 
NULL.                -999.2500: 
COMP.          Pioneer Natural Resources: COMPANY
WELL.            Hamburg 43-35: WELL
FLD.           Purgatorie River: FIELD
LOC.           2444' FSL & 950' FEL--: LOCATION
PROV.                       CO: PROVINCE
CNTY.               Las Animas: COUNTRY
SRVC.          Patterson Wireline: SERVICE COMPANY
DATE.          Thu Dec 08 14:29:45 2005: LOG DATE
UWI.           08 071 08607 00: UNIQUE WELL ID
~Curve Information Block
DEPT.FT            0 000 00 00: Depth
CCL.                          : Casing Collar Locator
TT3.usec                      : CBL 3' Travel Time
AMP3.mV                       : CBL 3' Amplitude
GR.GAPI                       : Gamma Ray
~Parameter Information Block
~A  Depth       CCL         TT3         AMP3         GR     
    -9.5000   -999.2500   -999.2500   -999.2500    114.5524
    -9.2500   -999.2500   -999.2500   -999.2500    114.2230
    -9.0000   -999.2500   -999.2500   -999.2500    112.4460
    -8.7500   -999.2500   -999.2500   -999.2500    111.5477
    -8.5000   -999.2500   -999.2500   -999.2500    113.2483
    -8.2500   -999.2500   -999.2500   -999.2500    117.0894
    -8.0000   -999.2500   -999.2500   -999.2500    120.5332
    -7.7500   -999.2500   -999.2500   -999.2500    120.9252
    -7.5000   -999.2500   -999.2500   -999.2500    117.6063
    -7.2500   -999.2500   -999.2500   -999.2500    112.1243
    -7.0000   -999.2500   -999.2500   -999.2500    106.6338
    -6.7500   -999.2500   -999.2500   -999.2500    102.3686
    -6.5000   -999.2500   -999.2500   -999.2500     99.3450
    -6.2500   -999.2500   -999.2500   -999.2500     97.0109
    -6.0000   -999.2500   -999.2500   -999.2500     95.1977
    -5.7500   -999.2500   -999.2500   -999.2500     94.4884
    -5.5000   -999.2500   -999.2500   -999.2500     95.4779
    -5.2500   -999.2500   -999.2500   -999.2500     97.9054
    -5.0000   -999.2500   -999.2500   -999.2500    101.0391
    -4.7500   -999.2500   -999.2500   -999.2500    104.4914
    -4.5000   -999.2500   1170.0000      1.1016    107.8443
    -4.2500   -999.2500   1170.0000      1.1045    109.8933
    -4.0000   -999.2500   1170.0000      1.1102    109.2253
    -3.7500   -999.2500   1170.0000      1.1157    105.6373
    -3.5000   -999.2500   1170.0000      1.1171    100.5144
    -3.2500   -999.2500   1170.0000      1.1140     95.6103
    -3.0000   -999.2500   1170.0000      1.1109     91.4552
    -2.7500   -999.2500   1170.0000      1.1117     87.0646
    -2.5000   -999.2500   1170.0000      1.1154     81.3903
    -2.2500   -999.2500   1170.0000      1.1191     74.7477
    -2.0000   -999.2500   1170.0000      1.1216     68.5186
    -1.7500   -999.2500   1170.0000      1.1228     63.9553
    -1.5000   -999.2500   1170.0000      1.1224     61.5507
    -1.2500   -999.2500   1170.0000      1.1203     60.8640
    -1.0000   -999.2500   1170.0000      1.1182     60.5820
    -0.7500   -999.2500   1170.0000      1.1190     59.1865
    -0.5000   -999.2500   1170.0000      1.1233     55.9549
    -0.2500   -999.2500   1170.0000      1.1269     51.3628
     0.0000   -999.2500   1170.0000      1.1236     46.6904
     0.2500   -999.2500   1170.0000      1.1109     43.3941
     0.5000   -999.2500   1170.0000      1.0746     43.8755
     0.7500      0.0000   1170.0000      1.0624     46.4035
     1.0000      0.0000   1170.0000      1.0565     48.3889
     1.2500      0.0000   1170.0000      1.0553     48.9549
     1.5000      0.0000   1170.0000      1.0575     48.6897
     1.7500      0.0000   1170.0000      1.0621     49.0044
     2.0000      0.0000   1170.0000      1.0674     50.8202
     2.2500      0.0000   1170.0000      1.0710     54.0656
     2.5000      0.0000   1170.0000      1.0714     58.3109
     2.7500      0.0000   1170.0000      1.0694     63.3074
     3.0000      0.0000   1170.0000      1.0686     68.7491
     3.2500      0.0000   1170.0000      1.0731     73.9933
     3.5000      0.0000   1170.0000      1.0850     78.2702
     3.7500      0.0000   1170.0000      1.1014     80.9286
     4.0000      0.0000   1170.0000      1.1170     81.3728
     4.2500      0.0000   1169.9783      1.1291     79.0894
     4.5000      0.0000   1169.7983      1.1439     74.1408
     4.7500      0.0000   1168.8303      1.1903     67.6507
     5.0000      0.0000   1164.7253      1.3927     61.4571
     5.2500      0.0000   1150.9877      2.1533     57.0880
     5.5000      0.0000   1114.6658      4.4259     55.1040
     5.7500      0.0000   1038.7355      9.7711     55.1747
     6.0000      0.0000    913.1887     19.6501     56.4038
     6.2500      0.0000    749.0210     33.9829     57.8033
     6.5000      0.0000    579.3522     50.2941     59.0661
     6.7500      0.0000    440.8950     64.8496     60.9764
     7.0000      0.0000    351.7971     75.0374     64.5482
     7.2500      0.0000    306.6510     80.6396     69.4451
     7.5000      0.0000    288.6657     83.0720     73.6331
     7.7500      0.0000    283.0406     83.9150     75.2616
     8.0000      0.0000    281.6598     84.1356     74.8708
     8.2500      0.0000    281.3883     84.0938     75.1135
     8.5000      0.0000    281.3370     83.7868     78.0626
     8.7500      0.0000    281.3181     83.0263     83.1531
     9.0000      0.0000    281.3057     81.5555     87.7806
     9.2500      0.0000    281.3247     79.1513     89.4072
     9.5000      0.0000    281.4207     75.7092     87.1684
     9.7500      0.0000    281.6905     71.2767     82.3018
    10.0000      0.0000    282.3542     66.0395     77.3175
    10.2500      0.0000    283.9036     60.2762     74.2099
    10.5000      0.0000    287.2077     54.2841     73.2201
    10.7500      0.0000    293.5992     48.3081     73.4477
    11.0000      0.0000    305.2680     42.5262     74.2705
    11.2500      0.0000    326.5907     37.0940     75.5752
    11.5000      0.0000    365.2077     32.1711     76.9110
    11.7500      0.0000    428.9756     27.8906     77.2586
    12.0000      0.0000    517.5775     24.3281     75.7932
    12.2500      0.0000    616.5583     21.5096     72.6160
    12.5000      0.0000    703.4366     19.4229     68.7704
    12.7500      0.0000    762.2711     18.0064     65.6681
    13.0000      0.0000    792.0716     17.1384     64.2896
    13.2500      0.0000    802.4592     16.6558     64.5230
    13.5000      0.0000    804.1766     16.3945     65.1283
    13.7500      0.0000    803.6803     16.2280     64.6479
    14.0000      0.0000    803.2528     16.0841     62.7924
    14.2500      0.0000    803.1692     15.9389     61.0038
    14.5000      0.0000    803.2298     15.8009     61.3676
    14.7500      0.0000    803.2766     15.6940     64.6960
    15.0000      0.0000    803.1999     15.6381     69.6077
    15.2500      0.0000    802.9354     15.6314     73.5952
    15.5000      0.0000    802.4897     15.6468     75.1364
    15.7500      0.0000    801.9608     15.6465     74.7000
    16.0000      0.0000    801.4845     15.6065     73.6434
    16.2500      0.0000    801.1549     15.5318     72.5666
    16.5000      0.0000    800.9960     15.4530     71.2427
    16.7500      0.0000    800.9829     15.4075     69.8225
    17.0000      0.0000    801.0571     15.4145     69.3162
    17.2500      0.0000    801.1311     15.4589     70.7165
    17.5000      0.0000    801.1107     15.4968     73.8719
    17.7500      0.0000    800.9319     15.4849     77.2779
    18.0000      0.0000    800.5464     15.4137     79.1457
    18.2500      0.0000    799.8121     15.3131     78.9252
    18.5000      0.0000    798.3516     15.2242     77.8033
    18.7500      0.0000    795.5989     15.1635     77.6570
    19.0000      0.0000    791.3208     15.1146     79.4351
    19.2500      0.0000    786.4135     15.0506     82.4802
    19.5000      0.0000    782.9151     14.9599     85.5087
    19.7500      0.0000    782.4964     14.8489     88.1874
    20.0000      0.0000    784.6411     14.7263     91.4080
    20.2500      0.0000    786.6960     14.5894     95.9785
    20.5000      0.0000    786.0425     14.4271    101.4252
    20.7500      0.0000    782.3522     14.2374    106.2118
    21.0000      0.0000    777.9635     14.0456    108.9596
    21.2500      0.0000    776.1082     13.8997    109.5379
    21.5000      0.0000    778.4132     13.8417    108.9874
    21.7500      0.0000    783.7747     13.8790    108.1932
    22.0000      0.0000    789.4414     13.9836    106.8011
    22.2500      0.0000    792.9311     14.1091    103.7749
    22.5000      0.0000    792.9836     14.2127     98.7890
    22.7500      0.0000    789.4622     14.2690     92.6177
    23.0000      0.0000    783.2354     14.2758     86.3963
    23.2500      0.0000    775.7849     14.2485     81.0983
    23.5000      0.0000    767.3538     14.2133     77.5701
    23.7500      0.0000    754.0607     14.2021     76.3577
