~Version Information
VERS.                      2.0: CWLS Log ASCII Standard - VERSION 2.0
WRAP.                       NO: One line per depth step
~Well Information Block
STRT.FT                 2.0000: 
STOP.FT               698.7500: 
STEP.FT                 0.2500: 
NULL.                -999.2500: 
COMP.          XTO Energy Inc.: COMPANY
WELL.          Golden Eagle 20-14: WELL
FLD.           Purgatrorie River: FIELD
LOC.           587' FSL & 2478' FWL--: LOCATION
STAT.                       CO: State
CNTY.               Las Animas: COUNTY
CTRY. USA : Country
SECT. 20 : Section
TOWN. 33S : Township
RANG. 67W : Range
SRVC.          Patterson Wireline: SERVICE COMPANY
DATE.          Sat Dec 10 16:49:08 2005: LOG DATE
API.           05 071 08614 00: UNIQUE WELL ID
~Curve Information Block
DEPT.FT            0 000 00 00: Depth
MINMK.                        : Magnetic Mark Ticks
TEMP.degF                     : Downhole Temperature
DTMP.degF                     : Delta Temperature
~Parameter Information Block
~A  Depth      MINMK        TEMP        DTMP    
# ...
    43.7500      0.0000     33.3314      0.0331
    44.0000      0.0000     33.3400      0.0358
    44.2500      0.0000     33.3492      0.0386
    44.5000      0.0000     33.3593      0.0413
    44.7500      0.0000     33.3700      0.0440
    45.0000      0.0000     33.3814      0.0465
    45.2500      0.0000     33.3934      0.0490
    45.5000      0.0000     33.4059      0.0514
    45.7500      0.0000     33.4193      0.0536
    46.0000      0.0000     33.4330      0.0558
    46.2500      0.0000     33.4471      0.0580
    46.5000      0.0000     33.4620      0.0601
    46.7500      0.0000     33.4772      0.0621
    47.0000      0.0000     33.4930      0.0642
    47.2500      0.0000     33.5093      0.0665
    47.5000      0.0000     33.5261      0.0688
    47.7500      0.0000     33.5434      0.0712
    48.0000      0.0000     33.5614      0.0738
    48.2500      0.0000     33.5801      0.0764
    48.5000      0.0000     33.5997      0.0790
    48.7500      0.0000     33.6196      0.0817
    49.0000      0.0000     33.6406      0.0874
    49.2500      0.0000     33.6622      0.0900
    49.5000      0.0000     33.6841      0.0925
    49.7500      0.0000     33.7068      0.0952
    50.0000      0.0000     33.7363      0.0978
    50.2500      0.0000     33.7602      0.0969
    50.5000      0.0000     33.7847      0.0994
    50.7500      0.0000     33.8101      0.1019
    51.0000      0.0000     33.8362      0.1016
    51.2500      0.0000     33.8560      0.1042
    51.5000      0.0000     33.8828      0.1067
    51.7500      0.0000     33.9106      0.1093
    52.0000      0.0000     33.9395      0.1115
    52.2500      0.0000     33.9685      0.1175
    52.5000      0.0000     33.9981      0.1244
    52.7500      0.0000     34.0286      0.1272
    53.0000      0.0000     34.0592      0.1300
    53.2500      0.0000     34.0910      0.1328
    53.5000      0.0000     34.1317      0.1360
    53.7500      0.0000     34.1649      0.1391
    54.0000      0.0000     34.1994      0.1378
    54.2500      0.0000     34.2342      0.1410
    54.5000      0.0000     34.2701      0.1400
    54.7500      0.0000     34.3068      0.1433
    55.0000      0.0000     34.3349      0.1461
    55.2500      0.0000     34.3729      0.1494
    55.5000      0.0000     34.4116      0.1523
    55.7500      0.0000     34.4516      0.1551
    56.0000      0.0000     34.4917      0.1623
    56.2500      0.0000     34.5330      0.1700
    56.5000      0.0000     34.5748      0.1724
    56.7500      0.0000     34.6170      0.1740
    57.0000      0.0000     34.6596      0.1760
    57.2500      0.0000     34.7128      0.1772
    57.5000      0.0000     34.7564      0.1786
    57.7500      0.0000     34.7996      0.1799
    58.0000      0.0000     34.8437      0.1811
    58.2500      0.0000     34.8874      0.1771
    58.5000      0.0000     34.9319      0.1780
    58.7500      0.0000     34.9768      0.1791
    59.0000      0.0000     35.0218      0.1802
    59.2500      0.0000     35.0670      0.1813
    59.5000      0.0000     35.1124      0.1823
    59.7500      0.0000     35.1579      0.1834
    60.0000      0.0000     35.2041      0.1847
    60.2500      0.0000     35.2499      0.1864
    60.5000      0.0000     35.2966      0.1879
    60.7500      0.0000     35.3436      0.1900
    61.0000      0.0000     35.3911      0.1920
    61.2500      0.0000     35.4398      0.1944
    61.5000      0.0000     35.4883      0.1966
    61.7500      0.0000     35.5379      0.1987
    62.0000      0.0000     35.5881      0.2008
    62.2500      0.0000     35.6387      0.2029
    62.5000      0.0000     35.6897      0.2052
    62.7500      0.0000     35.7411      0.2066
    63.0000      0.0000     35.7928      0.2082
    63.2500      0.0000     35.8456      0.2096
    63.5000      0.0000     35.8986      0.2108
    63.7500      0.0000     35.9511      0.2119
    64.0000      0.0000     36.0045      0.2127
    64.2500      0.0000     36.0579      0.2133
    64.5000      0.0000     36.1114      0.2134
    64.7500      0.0000     36.1648      0.2140
    65.0000      0.0000     36.2182      0.2139
    65.2500      0.0000     36.2722      0.2142
    65.5000      0.0000     36.3254      0.2144
    65.7500      0.0000     36.3792      0.2147
    66.0000      0.0000     36.4324      0.2151
    66.2500      0.0000     36.4862      0.2155
    66.5000      0.0000     36.5402      0.2159
    66.7500      0.0000     36.5942      0.2160
    67.0000      0.0000     36.6484      0.2166
    67.2500      0.0000     36.7032      0.2164
    67.5000      0.0000     36.7573      0.2164
    67.7500      0.0000     36.8112      0.2162
    68.0000      0.0000     36.8656      0.2154
    68.2500      0.0000     36.9191      0.2145
    68.5000      0.0000     36.9730      0.2139
    68.7500      0.0000     37.0266      0.2131
    69.0000      0.0000     37.0792      0.2120
    69.2500      0.0000     37.1322      0.2112
    69.5000      0.0000     37.1850      0.2101
    69.7500      0.0000     37.2374      0.2094
    70.0000      0.0000     37.2896      0.2087
    70.2500      0.0000     37.3416      0.2080
    70.5000      0.0000     37.3933      0.2070
    70.7500      0.0000     37.4454      0.2064
    71.0000      0.0000     37.4966      0.2059
    71.2500      0.0000     37.5482      0.2050
    71.5000      0.0000     37.5991      0.2045
    71.7500      0.0000     37.6503      0.2041
    72.0000      0.0000     37.7013      0.2037
    72.2500      0.0000     37.7516      0.2031
    72.5000      0.0000     37.8023      0.2028
    72.7500      0.0000     37.8535      0.2027
    73.0000      0.0000     37.9040      0.2026
    73.2500      0.0000     37.9544      0.2026
    73.5000      0.0000     38.0047      0.1964
    73.7500      0.0000     38.0556      0.2024
    74.0000      0.0000     38.1065      0.2025
    74.2500      0.0000     38.1567      0.1965
    74.5000      0.0000     38.1951      0.2032
    74.7500      0.0000     38.2583      0.2032
    75.0000      0.0000     38.3091      0.2034
    75.2500      0.0000     38.3475      0.2036
    75.5000      0.0000     38.4112      0.2100
    75.7500      0.0000     38.4619      0.2036
    76.0000      1.0000     38.5132      0.2036
    76.2500      1.0000     38.5639      0.2097
    76.5000      1.0000     38.6150      0.2030
    76.7500      1.0000     38.6655      0.2027
    77.0000      0.0000     38.7163      0.2019
    77.2500      0.0000     38.7669      0.2013
    77.5000      0.0000     38.8173      0.2003
    77.7500      0.0000     38.8673      0.1994
    78.0000      0.0000     38.9171      0.1983
    78.2500      0.0000     38.9665      0.1973
    78.5000      0.0000     39.0156      0.1961
    78.7500      0.0000     39.0643      0.1953
    79.0000      0.0000     39.1128      0.1942
    79.2500      0.0000     39.1616      0.1935
    79.5000      0.0000     39.2096      0.1929
    79.7500      0.0000     39.2579      0.1923
    80.0000      0.0000     39.3055      0.1917
    80.2500      0.0000     39.3535      0.1906
    80.5000      0.0000     39.4013      0.1900
    80.7500      0.0000     39.4489      0.1891
    81.0000      0.0000     39.4962      0.1886
    81.2500      0.0000     39.5428      0.1875
    81.5000      0.0000     39.5896      0.1862
    81.7500      0.0000     39.6360      0.1849
    82.0000      0.0000     39.6827      0.1836
    82.2500      0.0000     39.7284      0.1828
    82.5000      0.0000     39.7738      0.1815
    82.7500      0.0000     39.8188      0.1805
    83.0000      0.0000     39.8634      0.1791
    83.2500      0.0000     39.9084      0.1782
    83.5000      0.0000     39.9526      0.1774
    83.7500      0.0000     39.9971      0.1764
    84.0000      0.0000     40.0408      0.1755
    84.2500      0.0000     40.0848      0.1744
    84.5000      0.0000     40.1286      0.1735
    84.7500      0.0000     40.1715      0.1723
    85.0000      0.0000     40.2145      0.1713
    85.2500      0.0000     40.2572      0.1700
