~Version Information
VERS.                      2.0: CWLS Log ASCII Standard - VERSION 2.0
WRAP.                       NO: One line per depth step
~Well Information Block
STRT.FT                -8.5000: 
STOP.FT              1263.2500: 
STEP.FT                 0.2500: 
NULL.                -999.2500: 
COMP.          Pioneer Natural Resources: COMPANY
WELL.          Rockfish 11-30 Tr: WELL
FLD.           Purgatoire River: FIELD
LOC.           1063' FNL & 1068' FWL--: LOCATION
STAT.                       CO: State
CNTY.               Las Animas: COUNTY
CTRY. USA : country
SECT. 30 : Section
TOWN. 32S : Township
RANG. 65W : Range
SRVC.          Patterson Wireline: SERVICE COMPANY
DATE.          Tue Nov 22 16:08:49 2005: LOG DATE
API.           05 071 08585 00: UNIQUE WELL ID
~Curve Information Block
DEPT.FT            0 000 00 00: Depth
HVOLTA.V                      : Head Voltage Apparent
CCL.                          : Casing Collar Locator
TT3.usec                      : CBL 3' Travel Time
AMP3.mV                       : CBL 3' Amplitude
GR.GAPI                       : Gamma Ray
~Parameter Information Block
PPT.usec                0.0000: Predicted Pipe Time
~A  Depth      HVOLTA       CCL         TT3         AMP3         GR     
# ...
   887.5000     96.2267      0.0000    325.6026     27.4985    115.7269
   887.7500     96.1664      0.0000    325.6238     27.4117    112.8936
   888.0000     96.4624      0.0000    325.6565     27.2848    112.6804
   888.2500     96.2267      0.0000    325.7128     27.1022    114.9371
   888.5000     96.4091      0.0000    325.7915     26.8743    118.6770
   888.7500     96.2829      0.0000    325.8744     26.6419    122.2113
   889.0000     96.3109      0.0000    325.9365     26.4549    124.0839
   889.2500     96.3501      0.0000    325.9622     26.3470    124.3123
   889.5000     96.3418      0.0000    325.9536     26.3239    123.9531
   889.7500     96.3179      0.0000    325.9264     26.3694    123.3324
   890.0000     96.3207      0.0000    325.8978     26.4613    121.8406
   890.2500     96.3740      0.0000    325.8782     26.5799    119.5660
   890.5000     96.4007      0.0000    325.8706     26.7039    117.6464
   890.7500     96.2632      0.0000    325.8741     26.8099    116.7030
   891.0000     96.3515      0.0000    325.8842     26.8852    116.3068
   891.2500     96.2365      0.0000    325.8922     26.9396    116.1672
   891.5000     96.3179      0.0000    325.8884     26.9950    116.6234
   891.7500     96.3460      0.0000    325.8668     27.0662    117.8685
   892.0000     96.3754      0.0000    325.8244     27.1569    119.6417
   892.2500     96.2042      0.0000    325.7582     27.2743    121.7000
   892.5000     96.2309      0.0000    325.6667     27.4341    123.9085
   892.7500     96.3446      0.0000    325.5544     27.6495    125.7754
   893.0000     96.1594      0.0000    325.4316     27.9195    126.3694
   893.2500     96.2870      0.0000    325.3099     28.2305    124.9952
   893.5000     96.3487      0.0000    325.1976     28.5634    121.9512
   893.7500     96.2548      0.0000    325.0997     28.8958    118.4698
   894.0000     96.2815      0.0000    325.0201     29.2023    115.7926
   894.2500     96.2856      0.0000    324.9615     29.4604    114.3929
   894.5000     96.3501      0.0000    324.9226     29.6636    114.1255
   894.7500     96.2548      0.0000    324.8952     29.8300    114.9001
   895.0000     96.2632      0.0000    324.8652     29.9971    116.8745
   895.2500     96.3515      0.0000    324.8195     30.2002    120.0221
   895.5000     96.3179      0.0000    324.7542     30.4470    123.7623
   895.7500     96.2801      0.0000    324.6761     30.7105    127.0331
   896.0000     96.3291      0.0000    324.5969     30.9472    128.6816
   896.2500     96.3376      0.0000    324.5277     31.1166    128.0491
   896.5000     96.3726      0.0000    324.4803     31.1846    125.5211
   896.7500     96.3474      0.0000    324.4685     31.1261    122.4191
   897.0000     96.3432      0.0000    324.5000     30.9408    120.0264
   897.2500     96.3137      0.0000    324.5689     30.6639    118.7266
   897.5000     96.3474      0.0000    324.6588     30.3492    118.1529
   897.7500     96.4007      0.0000    324.7562     30.0382    117.7655
   898.0000     96.2323      0.0000    324.8565     29.7449    117.0571
   898.2500     96.3810      0.0000    324.9610     29.4629    115.6599
   898.5000     96.2562      0.0000    325.0701     29.1849    113.8442
   898.7500     96.2548      0.0000    325.1783     28.9194    112.7762
   899.0000     96.3207      0.0000    325.2732     28.6957    113.8149
   899.2500     96.3740      0.0000    325.3409     28.5470    117.4716
   899.5000     96.3446      0.0000    325.3762     28.4848    123.0381
   899.7500     96.3193      0.0000    325.3881     28.4858    128.8372
   900.0000     96.2281      0.0000    325.3926     28.5055    132.8695
   900.2500     96.3796      0.0000    325.3999     28.5100    133.9508
   900.5000     96.2548      0.0000    325.4079     28.4993    132.5132
   900.7500     96.2870      0.0000    325.4056     28.5003    130.0963
   901.0000     96.1987      0.0000    325.3810     28.5416    128.1365
   901.2500     96.2618      0.0000    325.3317     28.6287    127.2298
   901.5000     96.3979      0.0000    325.2722     28.7317    127.1504
   901.7500     96.3081      0.0000    325.2313     28.7931    127.4082
   902.0000     96.3165      0.0000    325.2342     28.7638    127.7270
   902.2500     96.3179      0.0000    325.2840     28.6435    127.7804
   902.5000     96.2478      0.0000    325.3615     28.4805    126.8895
   902.7500     96.3193      0.0000    325.4414     28.3327    124.8653
   903.0000     96.2576      0.0000    325.5051     28.2404    123.0665
   903.2500     96.2323      0.0000    325.5403     28.2329    123.4246
   903.5000     96.2562      0.0000    325.5371     28.3360    126.2578
   903.7500     96.2912      0.0000    325.4901     28.5572    129.9678
   904.0000     96.1720      0.0000    325.4013     28.8731    132.8455
   904.2500     96.2604      0.0000    325.2824     29.2341    134.1493
   904.5000     96.3487      0.0000    325.1562     29.5768    133.6555
   904.7500     96.1720      0.0000    325.0540     29.8374    131.5113
   905.0000     96.2898      0.0000    325.0038     29.9699    128.6617
   905.2500     96.2912      0.0000    325.0153     29.9666    126.3306
   905.5000     96.2295      0.0000    325.0737     29.8629    124.8919
   905.7500     96.4049      0.0000    325.1458     29.7249    123.8484
   906.0000     96.3109      0.0000    325.1976     29.6174    122.6779
   906.2500     96.3726      0.0000    325.2132     29.5626    121.0364
   906.5000     96.3404      0.0000    325.2052     29.5158    118.2236
   906.7500     96.3656      0.0000    325.2044     29.3940    113.1121
   907.0000     96.3951      0.0000    325.2352     29.1465    105.1280
   907.2500     96.3446      0.0000    325.2973     28.8016     95.3211
   907.5000     96.4021      0.0000    325.3701     28.4432     86.1106
   907.7500     96.3684      0.0000    325.4351     28.1411     79.5899
   908.0000     96.2801      0.0000    325.4935     27.9040     76.0756
   908.2500     96.2576      0.0000    325.5639     27.6905     74.4425
   908.5000     96.2576      0.0000    325.6617     27.4602     73.6026
   908.7500     96.3432      0.0000    325.7766     27.2205     73.1921
   909.0000     96.2787      0.0000    325.8717     27.0262     72.9998
   909.2500     96.2590      0.0000    325.9124     26.9323     72.5565
   909.5000     96.2506      0.0000    325.8935     26.9465     71.7791
   909.7500     96.4540      0.0000    325.8361     27.0292     71.5318
   910.0000     96.3460      0.0000    325.7582     27.1364     72.8301
   910.2500     96.2731      0.0000    325.6578     27.2550     75.6284
   910.5000     96.3137      0.0000    325.5252     27.3980     78.9412
   910.7500     96.3165      0.0000    325.3703     27.5683     81.9910
   911.0000     96.1608      0.0000    325.2318     27.7336     84.6535
   911.2500     96.3418      0.0000    325.1551     27.8425     86.9651
   911.5000     96.3137      0.0000    325.1585     27.8692     88.9318
   911.7500     96.3404      0.0000    325.2188     27.8409     90.8026
   912.0000     96.3712      0.0000    325.2918     27.8181     92.9253
   912.2500     96.3095      0.0000    325.3452     27.8473     95.3328
   912.5000     96.4274      0.0000    325.3711     27.9273     97.7838
   912.7500     96.3432      0.0000    325.3752     28.0171     99.8559
   913.0000     96.2856      0.0000    325.3626     28.0667    100.5501
   913.2500     96.3404      0.0000    325.3382     28.0415     98.2741
   913.5000     96.3137      0.0000    325.3135     27.9314     91.9657
   913.7500     96.4638      0.0000    325.3045     27.7521     82.3848
   914.0000     96.2309      0.0000    325.3192     27.5500     72.1786
   914.2500     96.2267      0.0000    325.3452     27.3970     64.4199
   914.5000     96.2056      0.0000    325.3521     27.3627     60.5269
   914.7500     96.2267      0.0000    325.3081     27.4781     59.3183
   915.0000     96.2870      0.0000    325.1992     27.7234     58.2925
   915.2500     96.4021      0.0000    325.0360     28.0470     55.8998
