~Version Information
VERS.                      2.0: CWLS Log ASCII Standard - VERSION 2.0
WRAP.                       NO: One line per depth step
~Well Information Block
STRT.FT               575.0000: 
STOP.FT              1557.5000: 
STEP.FT                 0.1000: 
NULL.                -999.2500: 
COMP.          Pioneer Natural Resources: COMPANY
WELL.          McClaren 13-34 Tr: WELL
FLD.           Purgatoire River: FIELD
LOC.           1934' FSL & 826' FWL: LOCATION
PROV.                 Colorado: PROVINCE
CNTY.               Las Animas: COUNTRY
SRVC.                Patterson: SERVICE COMPANY
DATE.          Tue Jul 12 07:15:27 2005: LOG DATE
UWI.           05 071 08437 00: UNIQUE WELL ID
~Curve Information Block
DEPT.FT            0 000 00 00: Depth
DCAL.in                       : CDL Caliper
RHOB.g/cc                     : CDL Bulk Density
RHOC.g/cc                     : CDL Density Correction
DPOR.pu                       : CDL Density Porosity
GR.GAPI                       : Gamma Ray
NPOR.pu                       : Neutron Porosity
~Parameter Information Block
~A  Depth       DCAL        RHOB        RHOC        DPOR         GR         NPOR    
# ...
  1477.4000      7.8986      2.4372      0.2102     12.8993    120.5659     29.7119
  1477.5000      7.8795      2.4700      0.2294     10.9102    117.3474     29.4667
  1477.6000      7.8795      2.5045      0.2635      8.8172    117.4210     29.9073
  1477.7000      7.8795      2.5424      0.3081      6.5226    120.7857     31.2056
  1477.8000      7.8834      2.5590      0.3206      5.5161    126.2421     31.7532
  1477.9000      7.8834      2.5462      0.2446      6.2906    131.3496     30.8341
  1478.0000      7.9165      2.5354      0.1880      6.9484    133.2463     29.4963
  1478.1000      7.9165      2.5473      0.1805      6.2222    132.1410     28.7991
  1478.2000      7.9165      2.5619      0.2079      5.3382    131.1239     28.8268
  1478.3000      7.9309      2.5599      0.1490      5.4611    132.3369     28.8696
  1478.4000      7.9309      2.5542      0.1544      5.8054    132.6746     28.5612
  1478.5000      7.9058      2.5603      0.1575      5.4393    127.4924     28.2289
  1478.6000      7.9058      2.5668      0.2137      5.0403    119.1474     28.5091
  1478.7000      7.9058      2.5559      0.1888      5.7055    114.2932     29.1532
  1478.8000      7.8823      2.5306      0.1667      7.2387    118.4369     29.0807
  1478.9000      7.8823      2.5024      0.1350      8.9484    127.7223     28.2778
  1479.0000      7.8897      2.4775      0.0996     10.4550    131.3900     27.6672
  1479.1000      7.8897      2.4652      0.0320     11.1990    128.8704     27.7236
  1479.2000      7.8897      2.4730      0.0611     10.7257    127.3800     28.3897
  1479.3000      7.8925      2.4956      0.0711      9.3596    128.7050     28.9913
  1479.4000      7.8925      2.5282      0.0950      7.3837    128.9242     29.2339
  1479.5000      7.8748      2.5737      0.1059      4.6238    124.4162     29.3486
  1479.6000      7.8748      2.6281      0.1509      1.3250    115.8158     28.9496
  1479.7000      7.8748      2.6708      0.2252     -1.2601    109.8197     27.9464
  1479.8000      7.8541      2.6831      0.1964     -2.0041    112.0236     27.1561
  1479.9000      7.8541      2.6712      0.1797     -1.2846    119.7119     26.8608
  1480.0000      7.8589      2.6465      0.1692      0.2107    125.9913     26.4708
  1480.1000      7.8589      2.6137      0.0840      2.2023    123.6631     25.6277
  1480.2000      7.8589      2.5839      0.0696      4.0033    112.6637     25.0125
  1480.3000      7.8816      2.5679      0.0367      4.9746    104.7397     25.7624
  1480.4000      7.8816      2.5655      0.0487      5.1231    105.8197     27.5718
  1480.5000      7.8954      2.5714      0.0880      4.7634    108.3407     28.8907
  1480.6000      7.8954      2.5842      0.0883      3.9871    107.4690     28.6694
  1480.7000      7.8954      2.5959      0.1219      3.2795    106.9349     27.5734
  1480.8000      7.8944      2.5912      0.1211      3.5654    109.4824     26.9796
  1480.9000      7.8944      2.5790      0.0719      4.3008    114.3403     26.7861
  1481.0000      7.8786      2.5838      0.1044      4.0149    119.9179     26.4926
  1481.1000      7.8786      2.6027      0.1272      2.8663    123.7473     26.5238
  1481.2000      7.8786      2.6134      0.1541      2.2160    124.5798     27.1999
  1481.3000      7.8579      2.6127      0.1106      2.2633    123.1592     28.0733
  1481.4000      7.8579      2.6132      0.1617      2.2330    120.1417     28.2995
  1481.5000      7.8501      2.6130      0.1243      2.2453    116.5049     27.7262
  1481.6000      7.8501      2.6079      0.1175      2.5495    113.0440     26.6162
  1481.7000      7.8501      2.6053      0.1160      2.7100    109.1127     25.7736
  1481.8000      7.8624      2.6041      0.0909      2.7807    105.1449     25.9393
  1481.9000      7.8624      2.5950      0.0973      3.3353    104.4261     26.5454
  1482.0000      7.8864      2.5806      0.0746      4.2049    107.9377     26.8433
  1482.1000      7.8864      2.5713      0.0496      4.7727    112.6681     26.7772
  1482.2000      7.8864      2.5658      0.0446      5.1056    116.1195     26.4579
  1482.3000      7.9029      2.5581      0.0325      5.5688    117.3135     26.0494
  1482.4000      7.9029      2.5528      0.0111      5.8900    117.2367     25.5976
  1482.5000      7.9022      2.5520      0.0304      5.9364    118.2287     25.1559
  1482.6000      7.9022      2.5499      0.0251      6.0694    120.4431     25.2237
  1482.7000      7.9022      2.5427      0.0372      6.5049    118.7023     25.7945
  1482.8000      7.8933      2.5331      0.0326      7.0821    114.4559     26.0582
  1482.9000      7.8933      2.5304      0.0232      7.2461    114.5975     25.8473
  1483.0000      7.8868      2.5348      0.0489      6.9839    115.4416     25.6935
  1483.1000      7.8868      2.5348      0.0609      6.9828    114.9645     25.9686
  1483.2000      7.8868      2.5297      0.0572      7.2895    116.5430     26.5224
  1483.3000      7.8863      2.5267      0.0614      7.4698    117.6028     27.0425
  1483.4000      7.8863      2.5285      0.0343      7.3612    116.7478     27.1732
  1483.5000      7.8923      2.5358      0.0538      6.9201    117.2794     26.8630
  1483.6000      7.8923      2.5406      0.0452      6.6274    120.0637     26.8919
  1483.7000      7.8923      2.5321      0.0381      7.1452    122.0398     27.2719
  1483.8000      7.8994      2.5199     -0.0218      7.8830    120.4508     26.9944
  1483.9000      7.8994      2.5213      0.0463      7.7990    116.0483     25.9194
  1484.0000      7.9000      2.5284      0.0340      7.3715    113.0483     24.9583
  1484.1000      7.9000      2.5234      0.0325      7.6715    115.3327     24.7581
  1484.2000      7.9000      2.5063      0.0196      8.7097    120.3116     25.1813
  1484.3000      7.8955      2.4964      0.0071      9.3110    120.2911     25.7962
  1484.4000      7.8955      2.5167      0.0122      8.0790    115.4312     26.1384
  1484.5000      7.8908      2.5668      0.0644      5.0437    110.5471     25.9879
  1484.6000      7.8908      2.6146      0.1207      2.1453    107.1762     25.4551
  1484.7000      7.8908      2.6356      0.1043      0.8720    110.1738     24.9821
  1484.8000      7.8881      2.6402      0.0844      0.5931    119.7724     25.1382
  1484.9000      7.8881      2.6422      0.0813      0.4749    124.8088     25.9600
  1485.0000      7.8837      2.6350      0.1202      0.9103    120.4208     26.5411
  1485.1000      7.8837      2.6157      0.0841      2.0773    113.4654     26.2098
  1485.2000      7.8837      2.5990      0.0453      3.0908    109.7861     25.5701
  1485.3000      7.8784      2.5902      0.0493      3.6245    109.2668     25.5167
  1485.4000      7.8784      2.5734      0.0634      4.6420    108.5686     25.7987
  1485.5000      7.8790      2.5448      0.0407      6.3766    106.8320     25.7615
  1485.6000      7.8790      2.5216      0.0377      7.7833    106.8826     25.4853
  1485.7000      7.8790      2.5073      0.0474      8.6467    110.8296     24.9138
  1485.8000      7.8822      2.4965     -0.0097      9.3025    116.1808     23.7683
  1485.9000      7.8822      2.4940      0.0389      9.4536    120.2405     22.4039
  1486.0000      7.8809      2.5036     -0.0015      8.8746    121.7699     21.3834
  1486.1000      7.8809      2.5270      0.0432      7.4567    119.2634     21.3373
  1486.2000      7.8809      2.5566      0.0693      5.6634    115.1726     22.3156
  1486.3000      7.8748      2.5749      0.0946      4.5519    113.1763     23.2113
  1486.4000      7.8748      2.5798      0.0466      4.2522    113.1850     23.5759
  1486.5000      7.8688      2.5791      0.1323      4.2943    114.0945     23.8209
  1486.6000      7.8688      2.5733      0.0596      4.6475    113.5333     23.5453
  1486.7000      7.8688      2.5738      0.0570      4.6210    109.6832     22.6694
  1486.8000      7.8675      2.5900      0.1057      3.6388    108.2816     22.4132
  1486.9000      7.8675      2.6047      0.1265      2.7427    113.1552     23.3979
