~Version Information
 VERS.                                  2.0 : CWLS LAS VERSION
 WRAP.                                   NO : WRAPING MODE
 SWARE .                 MController 2.5.0J : SOFTWARE VERSION
~Well Information
 WELL.                       Montoya 12-44R : WELL
 COMP.                Petrogulf Corporation : COMPANY
 FLD.                      Purgatoire River : FIELD
 LOC.               SE/SE Sec 12 T33S R68W  : LOCATION
 DATE.                             10/01/05 : DATE(S) LOGGED
 SRVC.       BLANCO Geological Services LLC : SERVICE COMPANY
 STAT.                                  CO  : STATE
 CNTY.                           Las Animas : COUNTY
 CTRY.                                  USA : COUNTRY
 API.                       05 071 08538 00 : API NUMBER
 STRT.FT                              22.00 : START DEPTH
 STOP.FT                            2100.00 : STOP DEPTH
 STEP.FT                               1.00 : DEPTH INCREMENT
 NULL.                                -9999 : NULL VALUE
~Curve information
 DEPTH.FT                                   :
 ROP.MIN/FT                                 :
 GAS.UNITS                                  :
~ASCII Log data
# ...
      1222.0         0.13          9.1 
      1223.0         0.20          9.0 
      1224.0         0.27          8.3 
      1225.0         0.23          8.6 
      1226.0         0.23          8.4 
      1227.0         0.17          8.4 
      1228.0         0.13          7.6 
      1229.0         0.20          8.0 
      1230.0         2.68          8.5 
      1231.0         0.33          8.2 
      1232.0         0.33          7.8 
      1233.0         0.33          8.0 
      1234.0         0.33          7.8 
      1235.0         0.30         11.2 
      1236.0         0.20         16.0 
      1237.0         0.17         18.0 
      1238.0         0.17         19.3 
      1239.0         0.18         30.3 
      1240.0         0.17         59.7 
      1241.0         0.13         91.4 
      1242.0         0.13        119.7 
      1243.0         0.23        150.5 
      1244.0         0.27        156.1 
      1245.0         0.23        153.7 
      1246.0         0.23        145.6 
      1247.0         0.33        139.9 
      1248.0         0.43        133.4 
      1249.0         0.37        125.6 
      1250.0         0.30        119.2 
      1251.0         0.30        114.0 
      1252.0         0.32        109.9 
      1253.0         0.33        107.0 
      1254.0         0.30        104.9 
      1255.0         0.30        104.7 
      1256.0         0.27        102.9 
      1257.0         0.30        102.2 
      1258.0         0.27        101.5 
      1259.0         0.27         79.3 
      1260.0         2.28        286.8 
      1261.0         0.23        246.4 
      1262.0         0.23        213.4 
      1263.0         0.23        186.6 
      1264.0         0.23        166.0 
      1265.0         0.23        149.8 
      1266.0         0.23        138.8 
      1267.0         0.30        132.6 
      1268.0         0.27        126.7 
      1269.0         0.25        117.5 
      1270.0         0.20        110.4 
      1271.0         0.20        106.0 
      1272.0         0.20        101.8 
      1273.0         0.23         98.0 
      1274.0         0.20         93.3 
      1275.0         0.27         89.6 
      1276.0         0.27         87.1 
      1277.0         0.33         85.2 
      1278.0         0.27         82.4 
      1279.0         0.20         80.4 
      1280.0         0.20         78.8 
      1281.0         0.20         77.9 
      1282.0         0.20         76.7 
      1283.0         0.22         75.7 
      1284.0         0.23         75.1 
      1285.0         0.20         74.6 
      1286.0         0.23         74.1 
      1287.0         0.27         73.3 
      1288.0         0.23         71.9 
      1289.0         0.23         54.9 
      1290.0         1.98        222.5 
      1291.0         0.30        225.5 
      1292.0         0.37        216.2 
      1293.0         0.30        174.9 
      1294.0         0.27        141.9 
      1295.0         0.17        120.3 
      1296.0         0.20        111.4 
      1297.0         0.23        103.8 
      1298.0         0.30         98.9 
      1299.0         0.40         95.8 
      1300.0         0.40         87.4 
      1301.0         0.32         76.2 
      1302.0         0.23         69.5 
      1303.0         0.37         70.3 
      1304.0         0.37         69.5 
      1305.0         0.23         63.5 
      1306.0         0.17         63.8 
      1307.0         0.23         66.7 
      1308.0         0.30         67.9 
      1309.0         0.30         67.9 
      1310.0         0.30         67.0 
      1311.0         0.30         70.9 
      1312.0         0.38         71.7 
      1313.0         0.30         70.2 
      1314.0         0.33         64.7 
      1315.0         0.30         59.5 
      1316.0         0.33         58.1 
      1317.0         0.27         58.7 
      1318.0         0.27         58.7 
      1319.0         0.27         50.0 
      1320.0         2.45        218.8 
      1321.0         0.37        195.5 
      1322.0         0.33        149.2 
      1323.0         0.30        117.3 
      1324.0         0.33         97.1 
      1325.0         0.33         82.3 
      1326.0         0.37         73.2 
      1327.0         0.42         69.1 
      1328.0         0.40         67.3 
      1329.0         0.40         63.2 
      1330.0         0.47         59.6 
      1331.0         0.47         55.9 
      1332.0         0.43         52.8 
      1333.0         0.43         49.9 
      1334.0         0.35         48.8 
      1335.0         0.30         48.8 
      1336.0         0.27         48.7 
      1337.0         0.30         48.8 
      1338.0         0.30         48.7 
      1339.0         0.30         48.7 
      1340.0         0.30         48.6 
      1341.0         0.33         48.8 
      1342.0         0.30         48.7 
      1343.0         0.17         49.0 
      1344.0         0.27         50.5 
      1345.0         0.35         52.0 
      1346.0         0.37         52.1 
      1347.0         0.27         51.7 
      1348.0         0.27         45.1 
      1349.0         0.33         32.9 
      1350.0         4.67        261.4 
      1351.0         0.50        104.1 
      1352.0         0.50         81.3 
      1353.0         0.27         70.1 
      1354.0         0.33         68.4 
      1355.0         0.30         64.7 
      1356.0         0.27         62.1 
      1357.0         0.23         59.9 
      1358.0         0.30         53.5 
      1359.0         0.25         42.5 
      1360.0         0.23         36.8 
      1361.0         0.20         36.3 
      1362.0         0.23         38.0 
      1363.0         0.20         39.6 
      1364.0         0.33         42.8 
      1365.0         0.20         53.4 
      1366.0         0.30         70.0 
      1367.0         0.53         74.0 
      1368.0         0.40         71.9 
      1369.0         0.27         71.4 
      1370.0         0.27         70.2 
      1371.0         0.25         67.1 
      1372.0         0.23         64.1 
      1373.0         0.23         60.2 
      1374.0         0.23         57.1 
      1375.0         0.20         54.6 
      1376.0         0.20         52.9 
      1377.0         0.17         51.6 
      1378.0         0.17         50.8 
      1379.0         0.17         50.7 
      1380.0         4.25        207.2 
      1381.0         0.33         86.7 
      1382.0         0.42         87.0 
      1383.0         0.33         82.2 
      1384.0         0.30         77.1 
      1385.0         0.23         73.1 
      1386.0         0.37         69.3 
      1387.0         0.30         62.7 
      1388.0         0.27         59.6 
      1389.0         0.23         57.6 
      1390.0         0.23         55.6 
      1391.0         0.23         53.7 
      1392.0         0.37         52.6 
      1393.0         0.42         50.5 
      1394.0         0.27         49.1 
      1395.0         0.43         48.9 
      1396.0         0.43         48.3 
      1397.0         0.23         47.7 
      1398.0         0.27         47.5 
      1399.0         0.23         46.8 
      1400.0         0.27         46.5 
      1401.0         0.30         46.0 
      1402.0         0.37         45.8 
      1403.0         0.55         45.3 
      1404.0         0.40         45.1 
      1405.0         0.30         44.6 
      1406.0         0.23         44.8 
      1407.0         0.27         45.0 
      1408.0         0.33         45.0 
      1409.0         0.30         42.5 
      1410.0         2.42        187.1 
      1411.0         0.47        156.5 
      1412.0         0.33        127.8 
      1413.0         0.50        105.1 
      1414.0         0.37         81.6 
      1415.0         0.35         71.3 
      1416.0         0.27         64.5 
      1417.0         0.27         61.9 
      1418.0         0.30         60.3 
      1419.0         0.27         58.1 
      1420.0         0.27         56.1 
      1421.0         0.23         54.5 
