~Version Information
VERS.                      2.0: CWLS Log ASCII Standard - VERSION 2.0
WRAP.                       NO: One line per depth step
~Well Information Block
STRT.FT                -5.7500: 
STOP.FT              2734.0000: 
STEP.FT                 0.2500: 
NULL.                -999.2500: 
COMP.          Pioneer Natural Resources: COMPANY
WELL.              Loews 41-32: WELL
FLD.           Purgatoire River: FIELD
LOC.           751' FNL & 128' FEL--: LOCATION
CNTY.               Las Animas: COUNTY
SRVC.                         : SERVICE COMPANY
DATE.          Sat Mar 04 08:20:59 2006: LOG DATE
UWI.           05 071 08693 00: UNIQUE WELL ID
STAT.                       CO: STATE
~Curve Information Block
DEPT.FT            0 000 00 00: Depth
GR.GAPI                       : Gamma Ray
CCL.                          : Casing Collar Locator
TT3.usec                      : CBL 3' Travel Time
AMP3.mV                       : CBL 3' Amplitude
~Parameter Information Block
~A  Depth        GR         CCL         TT3         AMP3    
# ...
   731.2500     55.3762      0.0000    710.5223      6.3059
   731.5000     56.3945      0.0000    710.2048      6.4609
   731.7500     56.7777      0.0000    707.1974      6.8180
   732.0000     56.2435      0.0000    701.1791      7.3463
   732.2500     55.2214      0.0000    693.8035      7.8665
   732.5000     54.3316      0.0000    686.7839      8.1378
   732.7500     53.7526      0.0000    680.3836      8.0622
   733.0000     53.2103      0.0000    674.4976      7.7689
   733.2500     52.4945      0.0000    669.7212      7.4720
   733.5000     51.7430      0.0000    666.6811      7.2910
   733.7500     51.2943      0.0000    665.2548      7.2197
   734.0000     51.4575      0.0000    664.8202      7.2029
   734.2500     52.3739      0.0000    664.8331      7.1951
   734.5000     53.9924      0.0000    665.0081      7.1733
   734.7500     56.0484      0.0000    665.2277      7.1325
   735.0000     57.8813      0.0000    665.4534      7.0810
   735.2500     58.5053      0.0000    665.6899      7.0307
   735.5000     57.3994      0.0000    665.9771      6.9880
   735.7500     55.1983      0.0000    666.3406      6.9510
   736.0000     53.1742      0.0000    666.7514      6.9150
   736.2500     52.1245      0.0000    667.1398      6.8778
   736.5000     52.0538      0.0000    667.4868      6.8407
   736.7500     52.6824      0.0000    667.9484      6.8060
   737.0000     53.8342      0.0000    668.9495      6.7759
   737.2500     55.2642      0.0000    671.1432      6.7524
   737.5000     56.3727      0.0000    675.0936      6.7351
   737.7500     56.4432      0.0000    680.7237      6.7139
   738.0000     55.3037      0.0000    687.0244      6.6673
   738.2500     53.5386      0.0000    692.5345      6.5746
   738.5000     51.8999      0.0000    696.2733      6.4326
   738.7500     50.6875      0.0000    698.2122      6.2594
   739.0000     49.7451      0.0000    698.9537      6.0820
   739.2500     48.8150      0.0000    699.1501      5.9216
   739.5000     47.7804      0.0000    699.1977      5.7906
   739.7500     46.7247      0.0000    699.2474      5.6975
   740.0000     45.8592      0.0000    699.3190      5.6493
   740.2500     45.3268      0.0000    699.3783      5.6484
   740.5000     45.0732      0.0000    699.3740      5.6886
   740.7500     45.0296      0.0000    699.2650      5.7543
   741.0000     45.3398      0.0000    699.0244      5.8269
   741.2500     46.1270      0.0000    698.5677      5.8935
   741.5000     47.1139      0.0000    697.6288      5.9508
   741.7500     47.8418      0.0000    695.7700      5.9999
   742.0000     48.2800      0.0000    692.7912      6.0397
   742.2500     48.9364      0.0000    689.3879      6.0663
   742.5000     50.2787      0.0000    687.2850      6.0755
   742.7500     52.1510      0.0000    688.3330      6.0658
   743.0000     53.8338      0.0000    693.5051      6.0409
   743.2500     54.7192      0.0000    702.9252      6.0148
   743.5000     54.8768      0.0000    716.1131      6.0071
   743.7500     54.8174      0.0000    730.8798      6.0280
   744.0000     54.7509      0.0000    742.1149      6.0613
   744.2500     54.3395      0.0000    743.6476      6.0702
   744.5000     53.2998      0.0000    732.9802      6.0270
   744.7500     52.0291      0.0000    714.0275      5.9371
   745.0000     51.3506      0.0000    694.3722      5.8303
   745.2500     51.5624      0.0000    679.8500      5.7323
   745.5000     51.9807      0.0000    671.8648      5.6483
   745.7500     51.7213      0.0000    668.9602      5.5697
   746.0000     50.8747      0.0000    669.7750      5.4893
   746.2500     50.6349      0.0000    674.6830      5.4112
   746.5000     52.3317      0.0000    685.1083      5.3473
   746.7500     56.5542      0.0000    700.5687      5.3074
   747.0000     63.0451      0.0000    716.0781      5.2915
   747.2500     71.0319      0.0000    724.4861      5.2912
   747.5000     79.5781      0.0000    723.5809      5.2958
   747.7500     87.8583      0.0000    719.1242      5.2976
   748.0000     95.3953      0.0000    717.8041      5.2902
   748.2500    102.1354      0.0000    717.9966      5.2690
   748.5000    108.3314      0.0000    711.2817      5.2360
   748.7500    114.3895      0.0000    693.3835      5.2056
   749.0000    120.7128      0.0000    668.9147      5.1971
   749.2500    127.4066      0.0000    643.0793      5.2193
   749.5000    134.0873      0.0000    614.1942      5.2640
   749.7500    140.2070      0.0000    579.3351      5.3183
   750.0000    145.4748      0.0000    543.2092      5.3769
   750.2500    149.6481      0.0000    515.9067      5.4394
   750.5000    152.0699      0.0000    503.6318      5.5026
   750.7500    151.9456      0.0000    505.1505      5.5618
   751.0000    149.3087      0.0000    515.6514      5.6159
   751.2500    145.2524      0.0000    530.7809      5.6640
   751.5000    140.7300      0.0000    547.0911      5.7023
   751.7500    135.4709      0.0000    561.0308      5.7307
   752.0000    128.8671      0.0000    569.2945      5.7586
   752.2500    121.7263      0.0000    570.2634      5.7971
   752.5000    116.1836      0.0000    564.9172      5.8481
   752.7500    113.6729      0.0000    556.2834      5.9031
   753.0000    113.6487      0.0000    547.8254      5.9519
   753.2500    114.4896      0.0000    541.8250      5.9900
   753.5000    115.1276      0.0000    538.8271      6.0213
   753.7500    115.7288      0.0000    538.2176      6.0545
   754.0000    117.2004      0.0000    539.0548      6.0948
   754.2500    120.2037      0.0000    540.4940      6.1367
   754.5000    124.4114      0.0000    541.8433      6.1693
   754.7500    128.5545      0.0000    542.7983      6.1873
   755.0000    131.2891      0.0000    544.2670      6.1940
   755.2500    132.0661      0.0000    549.7007      6.1927
   755.5000    131.2166      0.0000    564.9551      6.1830
   755.7500    129.3798      0.0000    594.0332      6.1680
   756.0000    126.8307      0.0000    633.0573      6.1630
   756.2500    123.1629      0.0000    671.2344      6.1896
   756.5000    117.7446      0.0000    701.5270      6.2604
   756.7500    110.6731      0.0000    728.3555      6.3661
   757.0000    103.1893      0.0000    760.7262      6.4798
   757.2500     97.2556      0.0000    799.5528      6.5689
   757.5000     94.9301      0.0000    836.0125      6.6066
   757.7500     97.6926      0.0000    861.2972      6.5777
   758.0000    105.5407      0.0000    874.0911      6.4873
   758.2500    116.6405      0.0000    877.8795      6.3671
   758.5000    128.3585      0.0000    873.5383      6.2665
   758.7500    138.8121      0.0000    856.8959      6.2255
   759.0000    147.3139      0.0000    824.3940      6.2505
   759.2500    153.7276      0.0000    780.4056      6.3120
   759.5000    158.0498      0.0000    736.9199      6.3642
   759.7500    160.4727      0.0000    705.3608      6.3748
   760.0000    161.1941      0.0000    689.9902      6.3398
   760.2500    160.1331      0.0000    688.4890      6.2659
   760.5000    157.2512      0.0000    695.6750      6.1382
   760.7500    153.1424      0.0000    706.0060      5.9243
   761.0000    148.9130      0.0000    716.4537      5.6328
   761.2500    145.4151      0.0000    729.4736      5.3562
   761.5000    142.6978      0.0000    750.2299      5.2211
   761.7500    140.1031      0.0000    777.7186      5.2772
   762.0000    137.0679      0.0000    801.8890      5.4532
   762.2500    134.1869      0.0000    813.7241      5.6268
   762.5000    133.2708      0.0000    815.3842      5.7215
   762.7500    135.7872      0.0000    815.2440      5.7330
   763.0000    141.2090      2.0000    815.0323      5.6972
   763.2500    147.2505      0.0000    807.6973      5.6687
   763.5000    151.7009      0.0000    788.0477      5.7094
   763.7500    153.8367      0.0000    760.7568      5.8379
   764.0000    154.2751      0.0000    736.0278      5.9801
   764.2500    153.9340      0.0000    719.6769      6.0202
   764.5000    153.2722      0.0000    709.6442      5.9217
