~Version Information
VERS.                      2.0: CWLS Log ASCII Standard - VERSION 2.0
WRAP.                       NO: One line per depth step
~Well Information Block
STRT.FT               892.0000: 
STOP.FT              2094.0000: 
STEP.FT                 0.1000: 
NULL.                -999.2500: 
COMP.          Pioneer Natural Resources: COMPANY
WELL.          Greenwood 43-29 Tr: WELL
FLD.           Purgatoire River: FIELD
LOC.           1478' FSL & 744' FEL: LOCATION
STAT.                 Colorado: State
CNTY.               Las Animas: COUNTY
CTRY. USA : Country
SECT. 29 : Section
TOWN. 32S : Township
RANG. 67W : Range
SRVC.                Patterson: SERVICE COMPANY
DATE.          Wed Aug 31 10:39:20 2005: LOG DATE
API.           05 071 08478 00: UNIQUE WELL ID
~Curve Information Block
DEPT.FT            0 000 00 00: Depth
DCAL.in                       : CDL Caliper
RHOB.g/cc                     : CDL Bulk Density
RHOC.g/cc                     : CDL Density Correction
DPOR.pu                       : CDL Density Porosity
GR.GAPI                       : Gamma Ray
NPOR.pu                       : Neutron Porosity
~Parameter Information Block
~A  Depth       DCAL        RHOB        RHOC        DPOR         GR         NPOR    
# ...
  1055.2000      8.0724      2.6629      0.1736     -0.7824    146.4837     28.2589
  1055.3000      8.0933      2.6502      0.1588     -0.0131    152.1046     28.4046
  1055.4000      8.0933      2.6305      0.1015      1.1844    153.6944     28.3798
  1055.5000      8.0913      2.6045      0.0239      2.7595    147.2496     27.9471
  1055.6000      8.0913      2.5813     -0.0291      4.1655    138.6386     27.3064
  1055.7000      8.0913      2.5662     -0.0186      5.0765    135.1068     26.9443
  1055.8000      8.1142      2.5627     -0.0635      5.2887    134.2868     26.9841
  1055.9000      8.1142      2.5720      0.0245      4.7281    132.1882     27.3648
  1056.0000      8.1504      2.5732      0.0876      4.6536    131.4269     28.0603
  1056.1000      8.1504      2.5562      0.0302      5.6863    134.8307     28.7318
  1056.2000      8.1504      2.5412      0.0221      6.5955    141.5096     29.0283
  1056.3000      8.1888      2.5432      0.0018      6.4705    148.7659     29.1703
  1056.4000      8.1888      2.5623      0.0244      5.3151    150.9613     29.4500
  1056.5000      8.1887      2.5902      0.0212      3.6258    145.0447     29.5438
  1056.6000      8.1887      2.6002      0.1308      3.0187    136.8763     28.9364
  1056.7000      8.1887      2.5693      0.0784      4.8931    132.4122     28.0291
  1056.8000      8.1875      2.5210     -0.0066      7.8209    133.8023     27.8547
  1056.9000      8.1875      2.4969     -0.0377      9.2809    141.3996     28.3414
  1057.0000      8.1941      2.5015      0.0157      9.0026    148.3791     28.4731
  1057.1000      8.1941      2.5125      0.0060      8.3362    150.5232     27.9575
  1057.2000      8.1941      2.5186      0.0137      7.9665    154.5784     27.4112
  1057.3000      8.2321      2.5168      0.0660      8.0732    163.2773     27.3738
  1057.4000      8.2321      2.5033      0.0587      8.8907    173.2244     27.6459
  1057.5000      8.2787      2.4871      0.0345      9.8748    180.9324     27.9605
  1057.6000      8.2787      2.4845      0.0225     10.0288    181.4037     28.5682
  1057.7000      8.2787      2.5007      0.0361      9.0474    175.7428     29.2874
  1057.8000      8.3181      2.5273      0.0467      7.4359    169.2423     29.6014
  1057.9000      8.3181      2.5508      0.0770      6.0140    163.7480     29.5432
  1058.0000      8.3994      2.5655      0.0552      5.1187    162.4141     29.3460
  1058.1000      8.3994      2.5766      0.0723      4.4479    166.2150     29.1067
  1058.2000      8.3994      2.5878      0.0635      3.7670    169.6118     29.0523
  1058.3000      8.4275      2.6013      0.1039      2.9517    168.7995     29.3182
  1058.4000      8.4275      2.6142      0.0851      2.1670    166.1482     29.5207
  1058.5000      8.4195      2.6189      0.0633      1.8869    165.1034     29.4290
  1058.6000      8.4195      2.6053      0.0347      2.7104    167.9259     29.2651
  1058.7000      8.4195      2.5708      0.0205      4.7991    171.1075     29.0722
  1058.8000      8.3947      2.5346     -0.0041      6.9957    168.4978     28.7777
  1058.9000      8.3947      2.5204     -0.0016      7.8523    158.5923     28.6118
  1059.0000      8.4080      2.5333      0.0130      7.0710    149.9356     28.7359
  1059.1000      8.4080      2.5529      0.0843      5.8832    150.8759     29.0282
  1059.2000      8.4080      2.5515      0.0557      5.9710    153.6010     29.2864
  1059.3000      8.4286      2.5327      0.0155      7.1067    146.7206     29.3501
  1059.4000      8.4286      2.5177      0.0447      8.0153    136.6372     29.0768
  1059.5000      8.4466      2.5050      0.0249      8.7899    136.4888     28.5181
  1059.6000      8.4466      2.4856      0.0301      9.9612    145.5638     27.8831
  1059.7000      8.4466      2.4599      0.0436     11.5233    157.5383     27.2705
  1059.8000      8.4472      2.4330      0.0067     13.1488    170.0017     26.7199
  1059.9000      8.4472      2.4213     -0.0048     13.8603    177.6524     26.3501
  1060.0000      8.4429      2.4384      0.0018     12.8228    178.2243     26.2798
  1060.1000      8.4429      2.4676      0.0912     11.0541    175.4712     26.5528
  1060.2000      8.4429      2.4877     -0.0024      9.8351    173.2965     27.1139
  1060.3000      8.4398      2.5088      0.0541      8.5599    174.9559     27.5750
  1060.4000      8.4398      2.5350      0.0897      6.9713    180.2460     27.6720
  1060.5000      8.3867      2.5451      0.0876      6.3566    182.5571     27.5669
  1060.6000      8.3867      2.5253      0.1092      7.5588    179.1603     27.4451
  1060.7000      8.3867      2.4930      0.0232      9.5177    174.7852     27.4268
  1060.8000      8.3454      2.4709      0.0704     10.8564    170.2764     27.5382
  1060.9000      8.3454      2.4569      0.0410     11.7061    164.4559     27.6787
  1061.0000      8.2951      2.4470      0.0541     12.3021    161.1425     27.7013
  1061.1000      8.2951      2.4458      0.0005     12.3780    162.4883     27.4204
  1061.2000      8.2951      2.4455      0.0368     12.3968    167.2915     26.9341
  1061.3000      8.2762      2.4270     -0.0063     13.5151    174.5916     26.2821
  1061.4000      8.2762      2.3801      0.0138     16.3551    178.8979     25.2068
  1061.5000      8.2846      2.3048     -0.0269     20.9193    175.6582     23.8869
  1061.6000      8.2846      2.2111     -0.0994     26.6030    168.1517     22.7174
  1061.7000      8.2846      2.1073     -0.0511     32.8911    158.9928     21.5012
  1061.8000      8.3228      1.9846     -0.1389     40.3248    148.8060     20.0014
  1061.9000      8.3228      1.8408     -0.1204     49.0410    143.2277     18.2477
  1062.0000      8.3802      1.6952     -0.1726     57.8641    142.7059     16.6607
  1062.1000      8.3802      1.5729     -0.1666     65.2760    138.4593     15.7335
  1062.2000      8.3802      1.4845     -0.1592     70.6381    129.8690     15.3204
  1062.3000      8.3759      1.4350     -0.1179     73.6371    122.1560     15.2759
  1062.4000      8.3759      1.4357     -0.0410     73.5927    117.8400     15.6088
  1062.5000      8.3792      1.4866      0.0267     70.5109    118.7672     15.9649
  1062.6000      8.3792      1.5595      0.1799     66.0934    121.8421     16.1098
  1062.7000      8.3792      1.6121      0.2465     62.9005    120.5772     15.9180
  1062.8000      8.4230      1.6301      0.2235     61.8120    113.2519     15.1897
  1062.9000      8.4230      1.6315      0.2140     61.7287    104.9212     14.1299
  1063.0000      8.6897      1.6245      0.2145     62.1518     99.3108     13.2891
  1063.1000      8.6897      1.5956      0.1212     63.9030     91.4629     13.0174
  1063.2000      8.6897      1.5312      0.0951     67.8087     79.9182     13.3146
  1063.3000      8.7271      1.4295      0.0040     73.9703     72.9835     13.9293
  1063.4000      8.7271      1.3204     -0.1086     80.5826     72.3055     14.5037
  1063.5000      8.4707      1.2553     -0.0910     84.5269     72.0115     14.7317
  1063.6000      8.4707      1.2520      0.0203     84.7274     69.5282     14.5701
  1063.7000      8.4707      1.2828      0.0756     82.8590     65.8643     14.3497
  1063.8000      8.3996      1.3159      0.0913     80.8532     63.1142     14.4141
  1063.9000      8.3996      1.3366      0.1087     79.6000     61.4598     14.7327
  1064.0000      8.6568      1.3429      0.0853     79.2184     58.7350     15.0703
  1064.1000      8.6568      1.3429      0.0581     79.2206     55.7921     15.3383
  1064.2000      8.6568      1.3476      0.0891     78.9348     56.0680     15.7566
  1064.3000      8.6283      1.3641      0.0631     77.9324     59.1275     16.4044
  1064.4000      8.6283      1.3920      0.1222     76.2425     62.6919     16.9919
  1064.5000      8.2998      1.4261      0.0936     74.1768     67.2562     17.2371
  1064.6000      8.2998      1.4639      0.1188     71.8852     70.8819     17.1417
  1064.7000      8.2998      1.5002      0.0998     69.6855     70.5342     16.9743
