~Version Information
VERS.                      2.0: CWLS Log ASCII Standard - VERSION 2.0
WRAP.                       NO: One line per depth step
~Well Information Block
STRT.FT               530.7500: 
STOP.FT              1325.2500: 
STEP.FT                 0.2500: 
NULL.                -999.2500: 
COMP.          Pioneer Natural Resources: COMPANY
WELL.            Erin 21-15 Tr: WELL
FLD.           Purgatoire River: FIELD
LOC.           1217' FNL & 2284' FWL--: LOCATION
CNTY.               Las Animas: COUNTY
SRVC.                Patterson: SERVICE COMPANY
DATE.          Fri Mar 03 23:07:06 2006: LOG DATE
UWI.           05 071 08712 00: UNIQUE WELL ID
STAT.                 Colorado: STATE
~Curve Information Block
DEPT.FT            0 000 00 00: Depth
SN.Ohm-m                      : IEL Short Normal
SP.mV                         : IEL Spontaneous Potential
DIR.Ohm-m                     : IEL Induction Resistivity
GR.GAPI                       : Gamma Ray
~Parameter Information Block
~A  Depth        SN          SP         DIR          GR     
# ...
  1100.2500     19.3998    169.8439     17.4106    126.0424
  1100.5000     19.6372    169.4948     17.6983    122.7314
  1100.7500     19.8428    169.0640     18.0004    117.3865
  1101.0000     20.1259    168.6156     18.3227    108.1132
  1101.2500     20.6296    168.2176     18.7022    102.6309
  1101.5000     21.4633    167.9290     19.1963     96.2116
  1101.7500     22.6352    167.7881     19.8614     93.0023
  1102.0000     24.0279    167.8058     20.7270     89.9899
  1102.2500     25.4355    167.9683     21.7692     89.5938
  1102.5000     26.6292    168.2457     22.8890     91.5112
  1102.7500     27.4115    168.6060     23.9107     93.7640
  1103.0000     27.6477    169.0277     24.6206     96.6930
  1103.2500     27.2894    169.5060     24.8430     97.4889
  1103.5000     26.3846    170.0521     24.5117     96.7324
  1103.7500     25.0639    170.6845     23.6854     95.5177
  1104.0000     23.5025    171.4176     22.5016     94.2721
  1104.2500     21.8746    172.2524     21.1126     94.7635
  1104.5000     20.3170    173.1720     19.6423     98.5707
  1104.7500     18.9076    174.1434     18.1742    103.2751
  1105.0000     17.6656    175.1241     16.7592    112.5782
  1105.2500     16.5728    176.0698     15.4258    119.1796
  1105.5000     15.6043    176.9418     14.1884    128.0862
  1105.7500     14.7453    177.7120     13.0553    133.0255
  1106.0000     13.9880    178.3645     12.0356    138.9373
  1106.2500     13.3206    178.8955     11.1418    141.8253
  1106.5000     12.7247    179.3118     10.3866    144.6242
  1106.7500     12.1828    179.6287      9.7771    145.9166
  1107.0000     11.6851    179.8678      9.3107    148.0490
  1107.2500     11.2273    180.0540      8.9748    149.7405
  1107.5000     10.7999    180.2130      8.7491    151.8882
  1107.7500     10.3783    180.3688      8.6089    152.5476
  1108.0000      9.9252    180.5423      8.5286    152.1980
  1108.2500      9.4136    180.7496      8.4856    151.1499
  1108.5000      8.8582    181.0024      8.4629    148.0811
  1108.7500      8.3276    181.3081      8.4500    144.8015
  1109.0000      7.9201    181.6698      8.4421    138.6817
  1109.2500      7.7165    182.0868      8.4380    134.9866
  1109.5000      7.7421    182.5533      8.4369    131.9236
  1109.7500      7.9563    183.0587      8.4367    131.6559
  1110.0000      8.2712    183.5864      8.4322    132.7677
  1110.2500      8.5912    184.1153      8.4173    133.9252
  1110.5000      8.8517    184.6214      8.3883    135.9614
  1110.7500      9.0405    185.0798      8.3489    137.4303
  1111.0000      9.1922    185.4684      8.3116    139.6307
  1111.2500      9.3677    185.7703      8.2959    141.1072
  1111.5000      9.6257    185.9759      8.3229    143.2728
  1111.7500      9.9964    186.0842      8.4107    144.3501
  1112.0000     10.4671    186.1021      8.5704    144.5992
  1112.2500     10.9877    186.0430      8.8065    143.6443
  1112.5000     11.4933    185.9248      9.1175    140.7872
  1112.7500     11.9313    185.7674      9.4979    138.2090
  1113.0000     12.2750    185.5901      9.9384    133.8203
  1113.2500     12.5207    185.4100     10.4243    130.8766
  1113.5000     12.6770    185.2404     10.9337    126.8099
  1113.7500     12.7561    185.0905     11.4392    124.2941
  1114.0000     12.7750    184.9651     11.9145    120.6648
  1114.2500     12.7602    184.8649     12.3427    118.5370
  1114.5000     12.7481    184.7869     12.7190    116.6465
  1114.7500     12.7790    184.7257     13.0455    116.7512
  1115.0000     12.8861    184.6737     13.3243    119.1518
  1115.2500     13.0815    184.6227     13.5520    121.8302
  1115.5000     13.3450    184.5647     13.7217    126.0843
  1115.7500     13.6288    184.4935     13.8278    128.2812
  1116.0000     13.8788    184.4052     13.8708    130.0455
  1116.2500     14.0578    184.2995     13.8599    130.4121
  1116.5000     14.1570    184.1798     13.8104    130.3584
  1116.7500     14.1916    184.0522     13.7408    130.0071
  1117.0000     14.1866    183.9247     13.6663    128.8434
  1117.2500     14.1576    183.8050     13.5932    127.7771
  1117.5000     14.0984    183.6994     13.5120    126.5113
  1117.7500     13.9838    183.6109     13.3980    126.2670
  1118.0000     13.7884    183.5388     13.2181    126.7780
  1118.2500     13.5065    183.4785     12.9452    127.4469
  1118.5000     13.1584    183.4218     12.5696    128.6445
  1118.7500     12.7770    183.3579     12.1031    129.5616
  1119.0000     12.3892    183.2732     11.5747    131.2273
  1119.2500     12.0084    183.1521     11.0229    132.5857
  1119.5000     11.6405    182.9773     10.4887    134.7572
  1119.7500     11.2917    182.7307     10.0096    135.7697
  1120.0000     10.9705    182.3954      9.6152    135.3860
  1120.2500     10.6840    181.9598      9.3236    133.4584
  1120.5000     10.4313    181.4232      9.1405    128.3939
  1120.7500     10.1954    180.8030      9.0607    124.0505
  1121.0000      9.9426    180.1412      9.0699    116.7204
  1121.2500      9.6385    179.5059      9.1477    111.5525
  1121.5000      9.2765    178.9858      9.2704    104.0860
  1121.7500      8.9004    178.6774      9.4146     99.9785
  1122.0000      8.6020    178.6649      9.5624     96.5524
  1122.2500      8.4878    179.0001      9.7039     96.8409
  1122.5000      8.6305    179.6873      9.8363    101.6655
  1122.7500      9.0306    180.6805      9.9579    107.3404
  1123.0000      9.6098    181.8920     10.0622    117.3293
  1123.2500     10.2377    183.2121     10.1340    123.4473
  1123.5000     10.7774    184.5323     10.1523    130.3721
  1123.7500     11.1317    185.7643     10.0994    133.6471
  1124.0000     11.2694    186.8519      9.9702    137.5680
  1124.2500     11.2213    187.7724      9.7780    139.8020
  1124.5000     11.0521    188.5300      9.5512    142.1261
  1124.7500     10.8288    189.1456      9.3239    142.5881
  1125.0000     10.6021    189.6460      9.1255    141.7728
  1125.2500     10.4074    190.0562      8.9763    140.9322
  1125.5000     10.2731    190.3944      8.8865    140.8342
  1125.7500     10.2232    190.6705      8.8588    142.1278
  1126.0000     10.2691    190.8870      8.8895    145.8957
  1126.2500     10.4020    191.0407      8.9697    148.9531
  1126.5000     10.5958    191.1252      9.0870    153.2244
  1126.7500     10.8222    191.1324      9.2315    155.6554
  1127.0000     11.0667    191.0542      9.4009    158.9532
  1127.2500     11.3355    190.8841      9.6035    160.9569
  1127.5000     11.6488    190.6173      9.8562    162.9643
  1127.7500     12.0228    190.2527     10.1784    162.9403
  1128.0000     12.4577    189.7938     10.5870    159.9712
  1128.2500     12.9409    189.2506     11.0937    155.9821
  1128.5000     13.4598    188.6407     11.7051    147.6565
  1128.7500     14.0141    187.9900     12.4222    141.2423
  1129.0000     14.6154    187.3323     13.2368    131.5624
  1129.2500     15.2752    186.7076     14.1245    125.3971
  1129.5000     15.9839    186.1588     15.0375    116.2495
  1129.7500     16.6960    185.7272     15.9032    110.1148
  1130.0000     17.3374    185.4467     16.6339    101.9933
  1130.2500     17.8323    185.3389     17.1489     98.4749
  1130.5000     18.1282    185.4081     17.3993     97.3781
  1130.7500     18.2016    185.6402     17.3814     99.3875
  1131.0000     18.0522    186.0044     17.1338    105.5380
  1131.2500     17.7046    186.4581     16.7197    111.0585
  1131.5000     17.2126    186.9534     16.2055    120.2977
  1131.7500     16.6460    187.4434     15.6442    126.2675
  1132.0000     16.0608    187.8867     15.0679    133.3902
  1132.2500     15.4789    188.2498     14.4939    136.3013
  1132.5000     14.9006    188.5074     13.9372    137.9441
  1132.7500     14.3349    188.6422     13.4211    137.7814
  1133.0000     13.8181    188.6452     12.9777    136.7758
  1133.2500     13.4023    188.5168     12.6378    136.1360
  1133.5000     13.1235    188.2686     12.4191    136.1342
