~Version Information
VERS.                      2.0: CWLS Log ASCII Standard - VERSION 2.0
WRAP.                       NO: One line per depth step
~Well Information Block
STRT.FT                 7.7500: 
STOP.FT              2101.0000: 
STEP.FT                 0.2500: 
NULL.                -999.2500: 
COMP.          Pioneer Natural Resources: COMPANY
WELL.          Gunslinger 13-24: WELL
FLD.           Purgatoire River: FIELD
LOC.           1968' FSL & 633' FWL: LOCATION
PROV.                 Colorado: PROVINCE
CNTY.               Las Animas: COUNTRY
SRVC.                Patterson: SERVICE COMPANY
DATE.          Mon Aug 15 11:00:02 2005: LOG DATE
UWI.           05 071 08442 00: UNIQUE WELL ID
~Curve Information Block
DEPT.FT            0 000 00 00: Depth
GR.GAPI                       : Gamma Ray
CCL.                          : Casing Collar Locator
TT3.usec                      : CBL 3' Travel Time
AMP3.mV                       : CBL 3' Amplitude
~Parameter Information Block
~A  Depth        GR         CCL         TT3         AMP3    
# ...
   543.7500     87.0651      0.0000    253.8859     58.3423
   544.0000     87.9843      0.0000    253.8861     58.3588
   544.2500     87.4717      0.0000    253.8723     58.4375
   544.5000     85.7017      0.0000    253.8434     58.5726
   544.7500     83.4042      0.0000    253.8040     58.7338
   545.0000     81.7536      0.0000    253.7615     58.8828
   545.2500     81.8118      0.0000    253.7224     58.9936
   545.5000     83.7034      0.0000    253.6900     59.0637
   545.7500     86.3115      0.0000    253.6644     59.1094
   546.0000     88.0483      0.0000    253.6437     59.1520
   546.2500     88.0889      0.0000    253.6259     59.2044
   546.5000     86.9040      0.0000    253.6094     59.2649
   546.7500     85.7285      0.0000    253.5933     59.3192
   547.0000     85.6459      0.0000    253.5788     59.3484
   547.2500     86.9527      0.0000    253.5687     59.3387
   547.5000     89.1165      0.0000    253.5654     59.2872
   547.7500     91.3882      0.0000    253.5688     59.1997
   548.0000     93.4625      0.0000    253.5760     59.0830
   548.2500     95.3102      0.0000    253.5834     58.9430
   548.5000     96.5367      0.0000    253.5892     58.7871
   548.7500     96.5982      0.0000    253.5938     58.6261
   549.0000     95.8726      0.0000    253.5989     58.4716
   549.2500     95.9422      0.0000    253.6071     58.3334
   549.5000     98.2123      0.0000    253.6212     58.2179
   549.7500    102.2391      0.0000    253.6422     58.1295
   550.0000    105.6749      0.0000    253.6665     58.0693
   550.2500    105.9570      0.0000    253.6861     58.0284
   550.5000    102.1576      0.0000    253.6922     57.9867
   550.7500     95.6061      0.0000    253.6813     57.9236
   551.0000     89.0620      0.0000    253.6572     57.8351
   551.2500     84.9960      0.0000    253.6274     57.7379
   551.5000     84.0269      0.0000    253.5986     57.6535
   551.7500     84.6714      0.0000    253.5745     57.5906
   552.0000     84.7215      0.0000    253.5560     57.5420
   552.2500     83.1125      0.0000    253.5426     57.4956
   552.5000     80.5857      0.0000    253.5335     57.4438
   552.7500     78.7050      0.0000    253.5265     57.3864
   553.0000     78.3246      0.0000    253.5193     57.3271
   553.2500     78.9001      0.0000    253.5096     57.2691
   553.5000     79.2134      0.0000    253.4973     57.2123
   553.7500     78.7094      0.0000    253.4853     57.1541
   554.0000     77.9768      0.0000    253.4773     57.0917
   554.2500     77.9918      0.0000    253.4748     57.0235
   554.5000     79.1192      0.0000    253.4798     56.9461
   554.7500     80.7779      0.0000    253.5016     56.8377
   555.0000     81.8059      0.0000    253.5929     56.6150
   555.2500     81.2640      0.0000    253.9192     56.0827
   555.5000     79.2834      0.0000    254.8617     54.9210
   555.7500     77.1409      0.0000    257.0093     52.8237
   556.0000     76.1191      0.0000    260.8851     49.7836
   556.2500     76.1723      0.0000    266.5299     46.2489
   556.5000     76.0773      0.0000    273.3682     42.8740
   556.7500     75.0211      0.0000    280.4778     40.1339
   557.0000     73.5082      0.0000    286.9022     38.2567
   557.2500     72.4259      0.0000    291.8615     37.3276
   557.5000     71.8486      0.0000    295.0215     37.2223
   557.7500     71.2967      0.0000    296.6685     37.5537
   558.0000     70.7843      0.0000    297.4973     37.8786
   558.2500     70.9274      0.0000    298.2042     37.9322
   558.5000     71.9564      0.0000    299.1338     37.7240
   558.7500     73.0569      0.0000    299.9798     37.5987
   559.0000     72.9478      0.0000    299.7589     38.1714
   559.2500     70.9699      0.0000    297.4043     39.8996
   559.5000     67.4914      0.0000    292.5701     42.6075
   559.7500     63.4727      0.0000    285.7222     45.6402
   560.0000     59.8759      0.0000    277.7036     48.4566
   560.2500     57.3501      0.0000    269.6123     50.8433
   560.5000     56.1636      0.0000    262.7471     52.6890
   560.7500     56.2774      0.0000    258.0258     53.8999
   561.0000     57.5753      0.0000    255.4535     54.5214
   561.2500     60.0910      0.0000    254.3501     54.7436
   561.5000     63.8372      0.0000    253.9720     54.7721
   561.7500     68.2482      0.0000    253.8624     54.7399
   562.0000     72.0484      0.0000    253.8273     54.7116
   562.2500     74.0274      0.0000    253.8108     54.7067
   562.5000     74.0375      0.0000    253.7997     54.7256
   562.7500     73.1123      0.0000    253.7890     54.7628
   563.0000     72.5490      0.0000    253.7763     54.8068
   563.2500     72.9475      0.0000    253.7615     54.8402
   563.5000     74.1809      0.0000    253.7468     54.8524
   563.7500     76.0337      0.0000    253.7347     54.8506
   564.0000     78.3890      0.0000    253.7268     54.8517
   564.2500     80.7336      0.0000    253.7226     54.8635
   564.5000     81.9836      0.0000    253.7195     54.8817
   564.7500     81.2354      0.0000    253.7152     54.9009
   565.0000     78.6660      0.0000    253.7105     54.9171
   565.2500     75.5164      0.0000    253.7091     54.9176
   565.5000     73.2030      0.0000    253.7137     54.8728
   565.7500     72.4872      0.0000    253.7235     54.7519
   566.0000     73.2345      0.0000    253.7362     54.5504
   566.2500     74.5770      0.0000    253.7502     54.3004
   566.5000     75.4132      0.0000    253.7644     54.0538
   566.7500     75.1899      0.0000    253.7765     53.8563
   567.0000     74.3486      0.0000    253.7832     53.7308
   567.2500     73.8674      0.0000    253.7829     53.6760
   567.5000     74.3465      0.0000    253.7771     53.6750
   567.7500     75.5165      0.0000    253.7704     53.7079
   568.0000     76.4492      0.0000    253.7675     53.7542
   568.2500     76.2666      0.0000    253.7693     53.7900
   568.5000     74.8382      0.0000    253.7718     53.7970
   568.7500     72.7397      0.0000    253.7692     53.7841
   569.0000     70.4606      0.0000    253.7574     53.7892
   569.2500     67.9680      0.0000    253.7365     53.8458
   569.5000     65.2813      0.0000    253.7092     53.9511
   569.7500     63.1328      0.0000    253.6792     54.0755
   570.0000     62.4908      0.0000    253.6500     54.2006
   570.2500     63.4169      0.0000    253.6235     54.3369
   570.5000     64.8788      0.0000    253.6003     54.5072
   570.7500     65.9911      0.0000    253.5807     54.7225
   571.0000     67.1169      0.0000    253.5643     54.9708
   571.2500     69.1628      0.0000    253.5512     55.2188
   571.5000     71.8451      0.0000    253.5410     55.4222
   571.7500     73.4606      0.0000    253.5334     55.5453
   572.0000     72.7307      0.0000    253.5268     55.5806
   572.2500     70.2191      0.0000    253.5191     55.5556
   572.5000     67.5326      0.0000    253.5090     55.5187
   572.7500     65.8343      0.0000    253.4958     55.5156
   573.0000     65.6531      0.0000    253.4778     55.5709
   573.2500     67.4106      0.0000    253.4515     55.6807
   573.5000     71.2874      0.0000    253.4154     55.8186
   573.7500     76.8121      0.0000    253.3728     55.9575
   574.0000     83.0307      0.0000    253.3303     56.0892
   574.2500     88.9415      0.0000    253.2955     56.2167
   574.5000     93.7164      0.0000    253.2721     56.3331
   574.7500     96.9298      0.0000    253.2591     56.4192
   575.0000     98.7130      0.0000    253.2525     56.4626
   575.2500     99.4682      0.0000    253.2488     56.4644
   575.5000     99.4637      0.0000    253.2477     56.4274
   575.7500     98.9216      0.0000    253.2499     56.3530
   576.0000     98.3214      0.0000    253.2560     56.2468
   576.2500     98.1908      0.0000    253.2673     56.1156
   576.5000     98.5411      0.0000    253.2869     55.9595
   576.7500     98.7582      0.0000    253.3171     55.7801
   577.0000     98.0965      0.0000    253.3553     55.5956
