~Version Information
VERS.                      2.0: CWLS Log ASCII Standard - VERSION 2.0
WRAP.                       NO: One line per depth step
~Well Information Block
STRT.FT                 0.0000: 
STOP.FT               878.7500: 
STEP.FT                 0.2500: 
NULL.                -999.2500: 
COMP.          Pioneer Natural Resources: COMPANY
WELL.          Screamin 12-29 Tr: WELL
FLD.           Purgatoire River: FIELD
LOC.           1979' FNL & 532' FWL--: LOCATION
CNTY.               Las Animas: COUNTY
SRVC.                Patterson: SERVICE COMPANY
DATE.          Thu Apr 13 22:21:38 2006: LOG DATE
UWI.           05 071 08660 00: UNIQUE WELL ID
STAT.                 Colorado: STATE
~Curve Information Block
DEPT.FT            0 000 00 00: Depth
GR.GAPI                       : Gamma Ray
CCL.                          : Casing Collar Locator
TT3.usec                      : CBL 3' Travel Time
AMP3.mV                       : CBL 3' Amplitude
~Parameter Information Block
~A  Depth        GR         CCL         TT3         AMP3    
# ...
    67.0000     83.8288      0.0000    713.4310      6.2319
    67.2500     87.8950      0.0000    707.9717      6.3087
    67.5000     95.8864      0.0000    700.3326      6.4428
    67.7500    101.0865      0.0000    695.9981      6.5262
    68.0000    106.8423      0.0000    690.5693      6.6088
    68.2500    108.8066      0.0000    688.0846      6.6256
    68.5000    108.8512      0.0000    687.7060      6.6029
    68.7500    107.1768      0.0000    690.1268      6.5706
    69.0000    102.9859      0.0000    695.7799      6.5117
    69.2500     99.9249      0.0000    698.5001      6.4643
    69.5000     96.3518      0.0000    697.7220      6.3775
    69.7500     94.9376      0.0000    693.7457      6.3139
    70.0000     94.0366      0.0000    684.8609      6.2289
    70.2500     94.3176      0.0000    678.9204      6.1896
    70.5000     96.5394      0.0000    672.8420      6.1616
    70.7500     98.9509      0.0000    671.7079      6.1554
    71.0000    102.1041      0.0000    674.9344      6.1394
    71.2500    102.8299      0.0000    680.0333      6.1127
    71.5000    101.8291      0.0000    690.5261      6.0469
    71.7500    100.8360      0.0000    698.1746      5.9945
    72.0000    100.8342      0.0000    708.8332      5.9241
    72.2500    102.0252      0.0000    714.9366      5.8911
    72.5000    104.1746      0.0000    722.7219      5.8615
    72.7500    104.9793      0.0000    727.2797      5.8473
    73.0000    105.2577      0.0000    733.6679      5.8237
    73.2500    105.3888      0.0000    737.9621      5.8063
    73.5000    105.8709      0.0000    744.7717      5.7802
    73.7500    106.0611      0.0000    749.2382      5.7591
    74.0000    105.6767      0.0000    754.5732      5.7124
    74.2500    105.2144      0.0000    756.6716      5.6732
    74.5000    105.3945      0.0000    757.8100      5.6194
    74.7500    106.6021      0.0000    757.8468      5.5960
    75.0000    109.1669      0.0000    757.9155      5.5806
    75.2500    109.9554      0.0000    758.2570      5.5799
    75.5000    108.1135      0.0000    759.0466      5.5902
    75.7500    105.3888      0.0000    759.5267      5.6060
    76.0000    101.2803      0.0000    759.9991      5.6445
    76.2500     99.2486      0.0000    760.1836      5.6778
    76.5000     97.0036      0.0000    760.3670      5.7295
    76.7500     95.7131      0.0000    760.4449      5.7582
    77.0000     93.8651      0.0000    760.4803      5.7857
    77.2500     92.5767      0.0000    760.4399      5.7940
    77.5000     90.4208      0.0000    760.2709      5.7979
    77.7500     89.1180      0.0000    760.0338      5.7994
    78.0000     88.5533      0.0000    759.1449      5.8076
    78.2500     89.7520      0.0000    757.7603      5.8171
    78.5000     93.9804      0.0000    753.6396      5.8258
    78.7500     97.7447      0.0000    749.5593      5.8182
    79.0000    103.1789      0.0000    743.4371      5.7777
    79.2500    106.0286      0.0000    741.1785      5.7342
    79.5000    109.0842      0.0000    741.8022      5.6599
    79.7500    110.6547      0.0000    743.4686      5.6161
    80.0000    113.0101      0.0000    743.4546      5.5761
    80.2500    115.0049      0.0000    740.1605      5.5703
    80.5000    119.0599      0.0000    731.0298      5.5876
    80.7500    122.0245      0.0000    723.9149      5.6126
    81.0000    124.5682      0.0000    714.8367      5.6657
    81.2500    123.6446      0.0000    711.2853      5.7066
    81.5000    118.2696      0.0000    711.6375      5.7589
    81.7500    113.4093      0.0000    716.2095      5.7801
    82.0000    106.8197      0.0000    728.3166      5.7951
    82.2500    103.4459      0.0000    737.7585      5.8038
    82.5000     99.2178      0.0000    749.7932      5.8279
    82.7500     96.4488      0.0000    754.9041      5.8524
    83.0000     92.7083      0.0000    757.7629      5.8949
    83.2500     91.2789      0.0000    756.8123      5.9213
    83.5000     91.5755      0.0000    751.9418      5.9532
    83.7500     93.0586      0.0000    747.3238      5.9729
    84.0000     95.9156      0.0000    741.2640      6.0100
    84.2500     97.8018      0.0000    739.7520      6.0391
    84.5000    100.4987      0.0000    742.7126      6.0751
    84.7500    101.9445      0.0000    747.1453      6.0857
    85.0000    102.5028      0.0000    753.7827      6.0772
    85.2500    101.4320      0.0000    756.3358      6.0574
    85.5000     98.3743      0.0000    756.1198      6.0155
    85.7500     96.2164      0.0000    753.4991      5.9883
    86.0000     93.9816      0.0000    746.7147      5.9625
    86.2500     93.5357      0.0000    740.5901      5.9571
    86.5000     94.6170      0.0000    729.2714      5.9588
    86.7500     96.2489      0.0000    720.9014      5.9610
    87.0000     98.8741      0.0000    709.4129      5.9614
    87.2500     99.8117      0.0000    703.9090      5.9620
    87.5000     98.8542      0.0000    699.9468      5.9778
    87.7500     96.7003      0.0000    699.8480      6.0065
    88.0000     92.5836      0.0000    702.1322      6.0681
    88.2500     90.3621      0.0000    704.2291      6.1020
    88.5000     89.2572      0.0000    706.2433      6.1160
    88.7500     90.1925      0.0000    706.0370      6.1041
    89.0000     93.0359      0.0000    703.8857      6.0804
    89.2500     94.8697      0.0000    702.6450      6.0706
    89.5000     96.6101      0.0000    704.1197      6.0602
    89.7500     97.4036      0.0000    708.4702      6.0456
    90.0000     98.8132      0.0000    719.4921      5.9995
    90.2500     99.7861      0.0000    727.8843      5.9566
    90.5000    100.5295      0.0000    737.6353      5.8954
    90.7500    100.5616      0.0000    740.6782      5.8669
    91.0000    101.1420      0.0000    740.4506      5.8429
    91.2500    102.5219      0.0000    738.4846      5.8355
    91.5000    105.3239      0.0000    735.6693      5.8387
    91.7500    106.2771      0.0000    735.5040      5.8545
    92.0000    104.3872      0.0000    739.4330      5.9003
    92.2500    100.9791      0.0000    744.2532      5.9404
    92.5000     94.6659      0.0000    751.4230      5.9995
    92.7500     91.1568      0.0000    754.1029      6.0286
    93.0000     88.4318      0.0000    753.3792      6.0486
    93.2500     88.0936      0.0000    750.1660      6.0472
    93.5000     88.2178      0.0000    743.5653      6.0298
    93.7500     87.8752      0.0000    739.5703      6.0098
    94.0000     86.1288      0.0000    736.1231      5.9702
    94.2500     84.1370      0.0000    735.8420      5.9416
    94.5000     80.3863      0.0000    737.5613      5.8990
    94.7500     78.1102      0.0000    738.9270      5.8652
    95.0000     76.7489      0.0000    739.0276      5.7877
    95.2500     77.7586      0.0000    737.4069      5.7104
    95.5000     81.3869      0.0000    734.5339      5.5550
    95.7500     84.1878      0.0000    734.2671      5.4317
    96.0000     87.8125      0.0000    737.9608      5.2459
    96.2500     89.7665      0.0000    742.7765      5.1440
    96.5000     91.8563      0.0000    753.2487      5.0454
    96.7500     92.2578     -1.4148    763.3917      5.0093
    97.0000     91.0083     -1.5088    783.7763      4.9774
    97.2500     89.5937      0.0000    797.1334      4.9671
    97.5000     88.7369      0.0000    803.9191      4.9814
    97.7500     89.7884      0.0000    793.6588      5.0261
    98.0000     93.1727      0.0000    759.2650      5.1825
    98.2500     95.6941      0.0000    732.8505      5.3616
    98.5000     99.0805      0.0000    704.2900      5.7190
    98.7500    101.2798      0.0000    696.5477      5.9694
    99.0000    104.9247      0.0000    698.2808      6.2710
    99.2500    107.4614      0.0000    703.8605      6.3916
    99.5000    110.6607      0.0000    713.2685      6.4537
    99.7500    111.7834      0.0000    718.9810      6.4418
   100.0000    110.9163      0.0000    726.5069      6.4044
   100.2500    108.3537      0.0000    731.1123      6.3950
