~Version Information
VERS.                      2.0: CWLS Log ASCII Standard - VERSION 2.0
WRAP.                       NO: One line per depth step
~Well Information Block
STRT.FT                -8.0000: 
STOP.FT              1323.7500: 
STEP.FT                 0.2500: 
NULL.                -999.2500: 
COMP.          Pioneer Natural Resources: COMPANY
WELL.              Geyser 41-2: WELL
FLD.           Purgatorie River: FIELD
LOC.           506' FNL & 1127' FEL--: LOCATION
PROV.                       CO: PROVINCE
CNTY.               Las Animas: COUNTRY
SRVC.          Patterson Wireline: SERVICE COMPANY
DATE.          Tue Dec 06 09:28:14 2005: LOG DATE
UWI.           08 071 08598 00: UNIQUE WELL ID
~Curve Information Block
DEPT.FT            0 000 00 00: Depth
CCL.                          : Casing Collar Locator
TT3.usec                      : CBL 3' Travel Time
AMP3.mV                       : CBL 3' Amplitude
GR.GAPI                       : Gamma Ray
~Parameter Information Block
~A  Depth       CCL         TT3         AMP3         GR     
# ...
    92.5000      0.0000    795.7918     10.9296     90.6481
    92.7500      0.0000    791.5053     10.9012     88.6694
    93.0000      0.0000    787.1410     10.9568     88.3917
    93.2500      0.0000    782.7159     11.0682     89.7175
    93.5000      0.0000    782.5299     11.1606     91.4542
    93.7500      0.0000    793.2664     11.1337     92.5412
    94.0000      0.0000    818.1736     10.9290     92.3749
    94.2500      0.0000    853.1202     10.5861     90.8162
    94.5000      0.0000    889.6095     10.2138     88.3845
    94.7500      0.0000    921.5919      9.9118     86.1353
    95.0000      0.0000    947.8984      9.7349     85.0486
    95.2500      0.0000    968.8862      9.6994     85.5469
    95.5000      2.0000    983.7541      9.7738     87.5884
    95.7500      0.0000    991.1625      9.8704     90.8769
    96.0000      0.0000    989.8494      9.9066     94.6832
    96.2500      0.0000    978.6645      9.9131     97.8225
    96.5000      0.0000    958.0580     10.0601     99.3180
    96.7500      0.0000    931.5633     10.5293     99.0059
    97.0000      0.0000    904.5239     11.3504     97.3343
    97.2500      0.0000    881.5168     12.3652     94.8539
    97.5000      0.0000    864.9748     13.3430     92.1857
    97.7500      0.0000    855.2382     14.1384     90.2149
    98.0000      0.0000    851.1727     14.7567     89.8189
    98.2500      0.0000    850.8152     15.2759     91.2083
    98.5000      0.0000    851.7557     15.7315     93.6490
    98.7500      0.0000    851.1899     16.1102     95.9636
    99.0000      0.0000    845.6226     16.4294     97.4030
    99.2500      0.0000    829.5084     16.7716     98.1722
    99.5000      0.0000    794.4995     17.2214     99.0741
    99.7500      0.0000    733.7629     17.7883    100.5735
   100.0000      0.0000    651.9211     18.3977    102.3246
   100.2500      0.0000    569.4345     18.9497    103.6224
   100.5000      0.0000    509.6213     19.3871    104.1018
   100.7500      0.0000    477.6863     19.7193    103.8489
   101.0000      0.0000    457.3420     19.9950    102.9130
   101.2500      0.0000    431.2745     20.2486    100.9829
   101.5000      0.0000    400.4559     20.4694     97.7724
   101.7500      0.0000    382.1209     20.6143     93.7415
   102.0000      0.0000    395.5091     20.6406     90.1540
   102.2500      0.0000    451.1732     20.5248     88.1425
   102.5000      0.0000    545.0577     20.2528     87.6083
   102.7500      0.0000    656.5792     19.8072     87.2124
   103.0000      0.0000    756.7440     19.1826     85.6866
   103.2500      0.0000    824.1906     18.4262     83.3285
   103.5000      0.0000    855.8936     17.6534     82.1549
   103.7500      0.0000    864.1459     16.9955     84.1692
   104.0000      0.0000    864.3527     16.5098     88.9531
   104.2500      0.0000    863.3796     16.1323     93.1488
   104.5000      0.0000    857.9506     15.7237     92.9732
   104.7500      0.0000    843.9399     15.1719     87.3749
   105.0000      0.0000    824.1337     14.4703     78.5689
   105.2500      0.0000    804.6595     13.7206     69.7829
   105.5000      0.0000    787.8540     13.0670     62.9041
   105.7500      0.0000    772.6287     12.6139     58.1220
   106.0000      0.0000    759.1785     12.3873     55.0368
   106.2500      0.0000    749.7541     12.3491     53.4295
   106.5000      0.0000    745.6273     12.4335     53.0634
   106.7500      0.0000    745.5198     12.5723     53.3965
   107.0000      0.0000    747.0338     12.7012     53.7567
   107.2500      0.0000    748.5197     12.7602     53.6300
   107.5000      0.0000    749.5244     12.6968     52.7530
   107.7500      0.0000    750.1444     12.4799     51.0805
   108.0000      0.0000    750.4990     12.1199     48.6882
   108.2500      0.0000    750.6529     11.6809     45.8461
   108.5000      0.0000    750.7010     11.2640     43.3193
   108.7500      0.0000    750.7418     10.9685     42.3155
   109.0000      0.0000    750.8110     10.8470     43.7042
   109.2500      0.0000    750.8900     10.8736     47.1869
   109.5000      0.0000    750.9814     10.9495     51.2797
   109.7500      0.0000    751.1227     10.9586     54.1105
   110.0000      0.0000    751.3191     10.8450     54.4491
   110.2500      0.0000    751.4979     10.6476     52.4145
   110.5000      0.0000    751.5682     10.4585     49.3457
   110.7500      0.0000    751.5248     10.3467     46.8067
   111.0000      0.0000    751.6484     10.3186     45.6271
   111.2500      0.0000    752.7999     10.3413     45.7544
   111.5000      0.0000    756.7557     10.3870     46.5883
   111.7500      0.0000    765.7787     10.4512     47.3369
   112.0000      0.0000    780.6097     10.5404     47.4539
   112.2500      0.0000    797.9966     10.6602     47.0428
   112.5000      0.0000    811.0934     10.8171     46.7388
   112.7500      0.0000    813.8871     11.0213     47.1302
   113.0000      0.0000    805.7828     11.2747     48.3744
   113.2500      0.0000    792.2753     11.5566     50.3351
   113.5000      0.0000    782.1522     11.8267     52.8596
   113.7500      0.0000    783.8083     12.0463     55.7874
   114.0000      0.0000    801.4278     12.2005     58.7534
   114.2500      0.0000    831.2201     12.3011     61.2355
   114.5000      0.0000    861.4843     12.3664     62.9159
   114.7500      0.0000    880.0487     12.3951     63.8207
   115.0000      0.0000    882.9784     12.3700     64.0053
   115.2500      0.0000    873.8201     12.2929     63.3992
   115.5000      0.0000    856.3524     12.2054     62.2130
   115.7500      0.0000    833.4742     12.1604     61.1830
   116.0000      0.0000    811.3445     12.1831     61.0494
   116.2500      0.0000    797.2531     12.2711     61.9254
   116.5000      0.0000    792.4431     12.4221     63.3700
   116.7500      0.0000    791.5270     12.6452     64.9531
   117.0000      0.0000    790.1093     12.9444     66.6457
   117.2500      0.0000    790.0270     13.3025     68.6795
   117.5000      0.0000    795.6722     13.6691     71.0257
   117.7500      0.0000    807.0988     13.9561     73.2491
   118.0000      0.0000    818.7539     14.0745     75.1268
   118.2500      0.0000    824.7284     14.0112     77.1042
   118.5000      0.0000    823.8383     13.8690     79.6344
   118.7500      0.0000    819.0316     13.8025     82.2993
   119.0000      0.0000    813.1813     13.9022     84.1987
   119.2500      0.0000    807.0340     14.1375     85.0286
   119.5000      0.0000    800.7056     14.4005     85.0688
   119.7500      0.0000    795.2095     14.5945     84.2886
   120.0000      0.0000    792.4380     14.6945     82.3681
   120.2500      0.0000    795.2971     14.7479     79.6707
   120.5000      0.0000    807.3899     14.8165     77.5370
   120.7500      0.0000    830.0752     14.9098     77.4319
   121.0000      0.0000    859.2809     14.9816     80.0102
   121.2500      0.0000    886.9778     14.9945     84.7916
   121.5000      0.0000    906.5640     14.9651     90.4363
   121.7500      0.0000    916.0572     14.9349     95.5628
   122.0000      0.0000    916.6436     14.9187     99.5693
   122.2500      0.0000    910.1506     14.8941    102.5704
   122.5000      0.0000    898.6257     14.8200    104.5041
   122.7500      0.0000    885.1928     14.6488    104.6600
   123.0000      0.0000    874.0593     14.3454    102.4016
   123.2500      0.0000    869.0225     13.9246     98.2697
   123.5000      0.0000    871.0826     13.4747     94.1207
   123.7500      0.0000    876.8630     13.1129     91.8450
   124.0000      0.0000    880.3740     12.8992     91.8453
   124.2500      0.0000    877.6647     12.7971     92.9903
   124.5000      0.0000    869.7503     12.7223     94.0051
   124.7500      0.0000    860.6825     12.6160     94.5748
   125.0000      0.0000    853.4693     12.4672     95.2064
   125.2500      0.0000    848.4429     12.2800     96.4389
   125.5000      0.0000    844.8138     12.0374     98.1337
   125.7500      0.0000    842.5194     11.7058     99.1897
