~Version Information
VERS.                      2.0: CWLS Log ASCII Standard - VERSION 2.0
WRAP.                       NO: One line per depth step
~Well Information Block
STRT.FT                -8.5000: 
STOP.FT              2030.0000: 
STEP.FT                 0.2500: 
NULL.                -999.2500: 
COMP.          Pioneer Natural Resources: COMPANY
WELL.           Alabaster 11-8: WELL
FLD.           Purgatorie River: FIELD
LOC.           1249' FNL & 215' FWL--: LOCATION
PROV.                       CO: PROVINCE
CNTY.               Las Animas: COUNTRY
SRVC.          Patterson Wireline: SERVICE COMPANY
DATE.          Mon Jan 30 11:59:01 2006: LOG DATE
UWI.           05 071 08642 00: UNIQUE WELL ID
~Curve Information Block
DEPT.FT            0 000 00 00: Depth
CCL.                          : Casing Collar Locator
TT3.usec                      : CBL 3' Travel Time
AMP3.mV                       : CBL 3' Amplitude
GR.GAPI                       : Gamma Ray
~Parameter Information Block
~A  Depth       CCL         TT3         AMP3         GR     
# ...
   527.5000      0.0000    725.8992      2.9536     72.4763
   527.7500      0.0000    729.5441      2.9387     67.5760
   528.0000      0.0000    731.5378      2.9284     63.1029
   528.2500      0.0000    731.0065      2.9220     60.7947
   528.5000      0.0000    726.5068      2.9192     61.1218
   528.7500      0.0000    715.5165      2.9197     63.3859
   529.0000      0.0000    696.2727      2.9239     66.2480
   529.2500      0.0000    671.1349      2.9313     68.5657
   529.5000      0.0000    647.5468      2.9392     70.1467
   529.7500      0.0000    633.2172      2.9424     71.7223
   530.0000      0.0000    628.6826      2.9373     73.9875
   530.2500      0.0000    625.5190      2.9249     76.7011
   530.5000      0.0000    613.8350      2.9083     78.9449
   530.7500      0.0000    591.7423      2.8888     80.0926
   531.0000      0.0000    566.2926      2.8664     80.1948
   531.2500      0.0000    545.7493      2.8440     79.5895
   531.5000      0.0000    532.8378      2.8277     78.4842
   531.7500      0.0000    524.8886      2.8201     76.8983
   532.0000      0.0000    517.8965      2.8167     74.9348
   532.2500      0.0000    509.7583      2.8110     73.1828
   532.5000      0.0000    501.0697      2.8011     72.6093
   532.7500      0.0000    494.1022      2.7894     73.6498
   533.0000      0.0000    491.0525      2.7772     75.3814
   533.2500      0.0000    492.7099      2.7630     75.9659
   533.5000      0.0000    498.1411      2.7469     74.1734
   533.7500      0.0000    505.6227      2.7344     70.4695
   534.0000      0.0000    515.0130      2.7343     66.4969
   534.2500      0.0000    529.8738      2.7538     63.6503
   534.5000      0.0000    555.7412      2.7931     62.4222
   534.7500      0.0000    594.0403      2.8439     62.8539
   535.0000      0.0000    637.9641      2.8948     64.8267
   535.2500      0.0000    676.4262      2.9375     67.6143
   535.5000      0.0000    702.2013      2.9691     69.7391
   535.7500      0.0000    715.2597      2.9901     69.8124
   536.0000      0.0000    719.8033      3.0049     67.4671
   536.2500      0.0000    720.4386      3.0210     63.3759
   536.5000      0.0000    720.3973      3.0457     58.6217
   536.7500      0.0000    720.8817      3.0812     54.2590
   537.0000      0.0000    721.1855      3.1227     51.1614
   537.2500      0.0000    720.0618      3.1591     49.7272
   537.5000      0.0000    717.3549      3.1753     49.5737
   537.7500      0.0000    714.1898      3.1580     49.8038
   538.0000      0.0000    711.8150      3.1037     49.7378
   538.2500      0.0000    710.6367      3.0224     49.3472
   538.5000      0.0000    710.3132      2.9330     49.0078
   538.7500      0.0000    710.3345      2.8550     48.8954
   539.0000      0.0000    710.3577      2.8020     48.6704
   539.2500      0.0000    710.2269      2.7789     47.8904
   539.5000      0.0000    709.9221      2.7819     46.6786
   539.7500      0.0000    709.5411      2.8012     45.6590
   540.0000      0.0000    709.2847      2.8260     45.1711
   540.2500      0.0000    709.4308      2.8475     44.8615
   540.5000      0.0000    710.2965      2.8608     44.1999
   540.7500      0.0000    712.1500      2.8657     43.1814
   541.0000      0.0000    714.9586      2.8655     42.3421
   541.2500      0.0000    718.1788      2.8650     42.1176
   541.5000      0.0000    721.1710      2.8694     42.3442
   541.7500      0.0000    724.2527      2.8828     42.4824
   542.0000      0.0000    729.0786      2.9066     42.2679
   542.2500      0.0000    737.2300      2.9378     42.0467
   542.5000      0.0000    748.1996      2.9718     42.4681
   542.7500      0.0000    758.9438      3.0059     43.7964
   543.0000      0.0000    765.3748      3.0410     45.4954
   543.2500      0.0000    764.5298      3.0794     46.6596
   543.5000      0.0000    756.3159      3.1232     46.9480
   543.7500      0.0000    744.0243      3.1725     46.9164
   544.0000      0.0000    732.8098      3.2242     47.4038
   544.2500      0.0000    726.7498      3.2710     48.8437
   544.5000      0.0000    726.6401      3.3062     51.1672
   544.7500      0.0000    729.9545      3.3281     54.0569
   545.0000      0.0000    732.6108      3.3405     57.0976
   545.2500      0.0000    731.5037      3.3492     59.6600
   545.5000      0.0000    726.3851      3.3576     60.8060
   545.7500      0.0000    719.6184      3.3657     59.6527
   546.0000      0.0000    713.9929      3.3712     56.0425
   546.2500      0.0000    710.7950      3.3727     50.8482
   546.5000      0.0000    709.7014      3.3710     45.6387
   546.7500      0.0000    709.7760      3.3684     42.0349
   547.0000      0.0000    710.2816      3.3660     41.1852
   547.2500      0.0000    710.9875      3.3607     43.5173
   547.5000      0.0000    712.2452      3.3448     48.6557
   547.7500      0.0000    714.7703      3.3099     55.4644
   548.0000      0.0000    718.8774      3.2519     62.4779
   548.2500      0.0000    723.7508      3.1742     68.7197
   548.5000      0.0000    727.7986      3.0852     74.1119
   548.7500      0.0000    729.8692      2.9962     78.9686
   549.0000      0.0000    729.6969      2.9183     83.3484
   549.2500      0.0000    727.3350      2.8599     87.1492
   549.5000      0.0000    723.1566      2.8239     90.5194
   549.7500      0.0000    718.4677      2.8058     93.6514
   550.0000      0.0000    715.1658      2.7965     96.0374
   550.2500      0.0000    714.3248      2.7879     96.3373
   550.5000      0.0000    715.0584      2.7752     93.5383
   550.7500      0.0000    714.5709      2.7579     88.4051
   551.0000      0.0000    709.7145      2.7378     83.4665
   551.2500      0.0000    699.3335      2.7186     81.1532
   551.5000      0.0000    685.4064      2.7032     81.8703
   551.7500      0.0000    671.7531      2.6930     84.1471
   552.0000      0.0000    661.4415      2.6884     86.5745
   552.2500      0.0000    654.9072      2.6885     88.8430
   552.5000      0.0000    650.2589      2.6912     90.7779
   552.7500      0.0000    645.7485      2.6958     91.5656
   553.0000      0.0000    641.9674      2.7047     90.6502
   553.2500      0.0000    641.2764      2.7210     88.5561
   553.5000      0.0000    645.1730      2.7431     86.1065
   553.7500      0.0000    652.4184      2.7638     83.3265
   554.0000      0.0000    659.7651      2.7759     79.6062
   554.2500      0.0000    664.5995      2.7774     74.6940
   554.5000      0.0000    666.6794      2.7707     69.2410
   554.7500      0.0000    667.1746      2.7600     64.4663
   555.0000      0.0000    666.9109      2.7506     61.4313
   555.2500      0.0000    666.2928      2.7479     60.4959
   555.5000      0.0000    665.8391      2.7544     61.2286
   555.7500      0.0000    665.1416      2.7681     62.7565
   556.0000      0.0000    661.0013      2.7872     64.3263
   556.2500      0.0000    647.3989      2.8130     65.6044
   556.5000      0.0000    618.8461      2.8464     66.5411
   556.7500      0.0000    575.9559      2.8842     67.0467
   557.0000      0.0000    528.6460      2.9204     66.7852
   557.2500      0.0000    492.3517      2.9495     65.3047
   557.5000      0.0000    479.1633      2.9688     62.5442
   557.7500      0.0000    491.3484      2.9781     59.1926
   558.0000      0.0000    521.4126      2.9795     56.2573
   558.2500      0.0000    556.9780      2.9755     54.2062
   558.5000      0.0000    587.3864      2.9678     52.7523
   558.7500      0.0000    608.6448      2.9571     51.4427
   559.0000      0.0000    623.4857      2.9432     50.1749
   559.2500      0.0000    637.0417      2.9249     49.1440
   559.5000      0.0000    652.6008      2.9007     48.4978
   559.7500      0.0000    669.8546      2.8717     48.1399
   560.0000      0.0000    685.0001      2.8431     47.8754
   560.2500      0.0000    692.6167      2.8248     47.6293
   560.5000      0.0000    689.0504      2.8270     47.5458
   560.7500      0.0000    674.4841      2.8565     47.9411
