~Version Information
VERS.                      2.0: CWLS Log ASCII Standard - VERSION 2.0
WRAP.                       NO: One line per depth step
~Well Information Block
STRT.FT               -12.0000: 
STOP.FT              1266.5000: 
STEP.FT                 0.2500: 
NULL.                -999.2500: 
COMP.          Pioneer Natural Resources: COMPANY
WELL.          Hot Tomatoes 22-20: WELL
FLD.           Purgatorie River: FIELD
LOC.           2120' FNL & 2585' FWL: LOCATION
CNTY.               Las Animas: COUNTY
SRVC.                Patterson: SERVICE COMPANY
DATE.          Thu Mar 02 13:59:39 2006: LOG DATE
UWI.           05 071 08701 00: UNIQUE WELL ID
STAT.                       CO: STATE
~Curve Information Block
DEPT.FT            0 000 00 00: Depth
GR.GAPI                       : Gamma Ray
CCL.                          : Casing Collar Locator
TT3.usec                      : CBL 3' Travel Time
AMP3.mV                       : CBL 3' Amplitude
~Parameter Information Block
~A  Depth        GR         CCL         TT3         AMP3    
# ...
   155.5000     80.2760      0.0000    650.8148     11.6936
   155.7500     81.1628      0.0000    614.8220     11.9208
   156.0000     82.7606      0.0000    616.5273     11.9400
   156.2500     85.8045      0.0000    640.8842     11.8782
   156.5000     89.8066      0.0000    670.6039     11.7851
   156.7500     93.4764      0.0000    698.0134     11.6257
   157.0000     95.7518      0.0000    720.6204     11.3771
   157.2500     96.2938      0.0000    735.3713     11.0827
   157.5000     95.2113      0.0000    738.6589     10.8194
   157.7500     92.8659      0.0000    727.8740     10.6421
   158.0000     90.0665      0.0000    703.6312     10.5581
   158.2500     87.8861      0.0000    673.3825     10.5387
   158.5000     86.8153      0.0000    651.0147     10.5477
   158.7500     86.3181      0.0000    647.3297     10.5586
   159.0000     85.5619      0.0000    659.8845     10.5559
   159.2500     84.4192      0.0000    676.1667     10.5309
   159.5000     83.4684      0.0000    687.5649     10.4868
   159.7500     83.1801      0.0000    696.3801     10.4463
   160.0000     83.4498      0.0000    708.5135     10.4418
   160.2500     83.8723      0.0000    724.2312     10.4821
   160.5000     84.1913      0.0000    738.6818     10.5252
   160.7500     84.3904      0.0000    748.1110     10.4984
   161.0000     84.4758      0.0000    752.5785     10.3549
   161.2500     84.2988      0.0000    754.0471     10.1090
   161.5000     83.7414      0.0000    753.9993      9.8177
   161.7500     83.0837      0.0000    752.7269      9.5370
   162.0000     82.9638      0.0000    749.8792      9.2993
   162.2500     83.7867      0.0000    745.4826      9.1231
   162.5000     85.2869      0.0000    740.7188      9.0317
   162.7500     86.7289      0.0000    737.2956      9.0464
   163.0000     87.3723      0.0000    735.7632      9.1556
   163.2500     86.7897      0.0000    735.0385      9.2924
   163.5000     85.0532      0.0000    734.0640      9.3681
   163.7500     82.6630      0.0000    732.8873      9.3521
   164.0000     80.1142      0.0000    731.2952      9.3145
   164.2500     77.5778      0.0000    727.7239      9.3719
   164.5000     75.0398      0.0000    721.2430      9.5879
   164.7500     72.6488      0.0000    714.1754      9.9290
   165.0000     70.8805      0.0000    711.0523     10.2965
   165.2500     70.3241      0.0000    714.4554     10.5759
   165.5000     71.2606      0.0000    722.6810     10.6654
   165.7500     73.4507      0.0000    731.7928     10.5021
   166.0000     76.3041      0.0000    739.1310     10.0913
   166.2500     79.1855      0.0000    744.2476      9.5104
   166.5000     81.5863      0.0000    747.3411      8.8764
   166.7500     83.1933      0.0000    747.9139      8.3011
   167.0000     83.9734      0.0000    744.9824      7.8538
   167.2500     84.1675      0.0000    738.3397      7.5408
   167.5000     84.0686      0.0000    729.9247      7.3171
   167.7500     83.6685      0.0000    723.7062      7.1228
   168.0000     82.5438      0.0000    723.0768      6.9161
   168.2500     80.3820      0.0000    727.8159      6.6888
   168.5000     77.6666      0.0000    734.2344      6.4644
   168.7500     75.4469      0.0000    738.5435      6.2804
   169.0000     74.3242      0.0000    739.5952      6.1639
   169.2500     73.9789      0.0000    738.4724      6.1203
   169.5000     73.6432      0.0000    736.5109      6.1406
   169.7500     72.7378      0.0000    734.5366      6.2141
   170.0000     71.1345      0.0000    733.4092      6.3279
   170.2500     69.1729      0.0000    733.8033      6.4591
   170.5000     67.5442      0.0000    734.9757      6.5755
   170.7500     66.9470      0.0000    734.7459      6.6531
   171.0000     67.6457      0.0000    731.4609      6.6976
   171.2500     69.2801      0.0000    725.6647      6.7443
   171.5000     71.0611      0.0000    719.5049      6.8301
   171.7500     72.1852      0.0000    714.8498      6.9646
   172.0000     72.1933      0.0000    712.2789      7.1288
   172.2500     71.0613      0.0000    711.4880      7.2942
   172.5000     69.0561      0.0000    712.1249      7.4396
   172.7500     66.5518      0.0000    714.1595      7.5580
   173.0000     63.9587      0.0000    717.6556      7.6602
   173.2500     61.7668      0.0000    722.3223      7.7618
   173.5000     60.5724      0.0000    727.3414      7.8572
   173.7500     60.8358      0.0000    731.6627      7.9177
   174.0000     62.4444      0.0000    734.4894      7.9230
   174.2500     64.6618      0.0000    735.6800      7.8840
   174.5000     66.6506      0.0000    735.8600      7.8276
   174.7500     67.8965      0.0000    735.9212      7.7786
   175.0000     68.1881      0.0000    736.1252      7.7610
   175.2500     67.6103      0.0000    735.8596      7.7945
   175.5000     66.7945      0.0000    734.5613      7.8787
   175.7500     66.9097      0.0000    732.7527      7.9951
   176.0000     69.0410      0.0000    731.7316      8.1309
   176.2500     73.4274      0.0000    732.1893      8.2820
   176.5000     79.2760      0.0000    733.4787      8.4331
   176.7500     85.3402      0.0000    734.3491      8.5657
   177.0000     90.7291      0.0000    734.3813      8.6957
   177.2500     95.0867      0.0000    734.6797      8.8736
   177.5000     98.0618      0.0000    736.8164      9.1359
   177.7500     99.0976      0.0000    740.9487      9.4753
   178.0000     98.1101      0.0000    745.2882      9.8645
   178.2500     96.0313      0.0000    747.5390     10.2895
   178.5000     94.1810      0.0000    746.6080     10.7436
   178.7500     93.1456      0.0000    743.0880     11.2038
   179.0000     92.5581      0.0000    738.6467     11.6289
   179.2500     91.9382      0.0000    735.2076     11.9703
   179.5000     91.3960      0.0000    734.3282     12.1804
   179.7500     91.1759      0.0000    736.5070     12.2410
   180.0000     90.7781      0.0000    740.4553     12.2030
   180.2500     89.1743      0.0000    743.3913     12.1707
   180.5000     85.9793      0.0000    742.8240     12.2159
   180.7500     82.0151      0.0000    738.4860     12.3061
   181.0000     78.7324      0.0000    732.5524     12.3244
   181.2500     77.3294      0.0000    727.7961     12.1604
   181.5000     78.1331      0.0000    725.3528     11.7961
   181.7500     80.2432      0.0000    724.3802     11.3300
   182.0000     81.9081      0.0000    723.7084     10.9279
   182.2500     81.8962      0.0000    723.0848     10.7364
   182.5000     80.5567      0.0000    722.5525     10.8101
   182.7500     79.0145      0.0000    721.6113     11.0856
   183.0000     77.3918      0.0000    719.8471     11.4212
   183.2500     74.4541      0.0000    717.9387     11.6790
   183.5000     69.1672      0.0000    717.2410     11.7862
   183.7500     62.1989      0.0000    718.3322     11.7352
   184.0000     55.7099      0.0000    720.2498     11.5453
   184.2500     51.8065      0.0000    721.3024     11.2354
   184.5000     51.2654      0.0000    720.5718     10.8247
   184.7500     53.4592      0.0000    718.3054     10.3446
   185.0000     57.0442      0.0000    714.4333      9.8485
   185.2500     60.6054      0.0000    707.4090      9.4102
   185.5000     63.0932      0.0000    696.1708      9.0973
   185.7500     64.1459      0.0000    683.7174      8.9280
   186.0000     64.1763      0.0000    676.6287      8.8588
   186.2500     64.1489      0.0000    679.1525      8.8307
   186.5000     65.2058      0.0000    688.9063      8.8133
   186.7500     68.1659      0.0000    699.8151      8.7966
   187.0000     72.9522      0.0000    708.0272      8.7684
   187.2500     78.4415      0.0000    713.9017      8.7165
   187.5000     83.1528      0.0000    719.5975      8.6338
   187.7500     86.2946      0.0000    726.0061      8.5160
   188.0000     88.1606      0.0000    731.6332      8.3714
   188.2500     89.5390      0.0000    733.8789      8.2294
   188.5000     90.8449      0.0000    731.5009      8.1291
   188.7500     91.9031      0.0000    725.9859      8.1048
