~Version Information
VERS.                      2.0: CWLS Log ASCII Standard - VERSION 2.0
WRAP.                       NO: One line per depth step
~Well Information Block
STRT.FT               555.0000: 
STOP.FT              2283.0000: 
STEP.FT                 0.2500: 
NULL.                -999.2500: 
COMP.          Pioneer Natural Resources: COMPANY
WELL.          Roadster 41-33 Kv: WELL
FLD.           Purgatoire River: FIELD
LOC.           903' FNL & 248' FEL: LOCATION
PROV.                 Colorado: PROVINCE
CNTY.               Las Animas: COUNTRY
SRVC.                Patterson: SERVICE COMPANY
DATE.          Wed Dec 14 23:52:42 2005: LOG DATE
UWI.           05 071 08615 00: UNIQUE WELL ID
~Curve Information Block
DEPT.FT            0 000 00 00: Depth
SN.Ohm-m                      : IEL Short Normal
SP.mV                         : IEL Spontaneous Potential
DIR.Ohm-m                     : IEL Induction Resistivity
GR.GAPI                       : Gamma Ray
~Parameter Information Block
~A  Depth        SN          SP         DIR          GR     
# ...
  1359.0000     13.3996     10.7585     11.5835    159.0136
  1359.2500     13.8889     10.8016     11.9465    155.3698
  1359.5000     14.5098     10.8923     12.3435    147.6945
  1359.7500     15.2355     11.0308     12.7626    141.3559
  1360.0000     16.0308     11.1982     13.2037    130.7982
  1360.2500     16.8896     11.3627     13.6798    123.4556
  1360.5000     17.8104     11.4921     14.2107    112.5702
  1360.7500     18.7752     11.5654     14.8127    105.9221
  1361.0000     19.7934     11.5789     15.4908     98.3374
  1361.2500     20.9426     11.5459     16.2375     95.8052
  1361.5000     22.2559     11.4909     17.0369     96.4770
  1361.7500     23.5533     11.4398     17.8699     99.4562
  1362.0000     24.5224     11.4090     18.7142    105.9278
  1362.2500     25.0055     11.3999     19.5407    110.4249
  1362.5000     25.1160     11.4026     20.3078    115.7694
  1362.7500     25.0653     11.4036     20.9639    117.6472
  1363.0000     24.9873     11.3943     21.4642    117.4360
  1363.2500     24.9516     11.3737     21.7960    115.8150
  1363.5000     25.0394     11.3463     21.9924    113.4465
  1363.7500     25.3233     11.3157     22.1181    113.2153
  1364.0000     25.7863     11.2777     22.2397    115.2001
  1364.2500     26.3188     11.2206     22.4032    116.8916
  1364.5000     26.7903     11.1316     22.6272    117.3042
  1364.7500     27.1333     11.0069     22.9069    115.5216
  1365.0000     27.4255     10.8585     23.2167    111.0069
  1365.2500     27.8691     10.7135     23.5141    108.0048
  1365.5000     28.6088     10.6029     23.7488    104.2798
  1365.7500     29.5814     10.5475     23.8747    101.6220
  1366.0000     30.5680     10.5491     23.8587     95.7695
  1366.2500     31.3291     10.5915     23.6826     90.5412
  1366.5000     31.6999     10.6477     23.3445     82.4827
  1366.7500     31.6622     10.6916     22.8621     78.4361
  1367.0000     31.3048     10.7081     22.2704     76.1576
  1367.2500     30.6992     10.6969     21.6071     77.4706
  1367.5000     29.8641     10.6705     20.8975     83.0886
  1367.7500     28.7811     10.6461     20.1476     88.5613
  1368.0000     27.3988     10.6371     19.3511     98.0239
  1368.2500     25.7060     10.6465     18.5032    104.4153
  1368.5000     23.8136     10.6667     17.6098    113.1723
  1368.7500     21.9224     10.6833     16.6889    118.3695
  1369.0000     20.2160     10.6811     15.7662    125.7533
  1369.2500     18.7603     10.6474     14.8689    130.5005
  1369.5000     17.4960     10.5750     14.0205    136.2050
  1369.7500     16.3338     10.4644     13.2366    137.9904
  1370.0000     15.2316     10.3248     12.5241    137.0810
  1370.2500     14.1951     10.1716     11.8819    135.1216
  1370.5000     13.2573     10.0215     11.3052    133.1308
  1370.7500     12.4631      9.8868     10.7886    133.5774
  1371.0000     11.8432      9.7722     10.3282    136.6119
  1371.2500     11.3866      9.6759      9.9201    139.2406
  1371.5000     11.0434      9.5912      9.5581    142.8609
  1371.7500     10.7505      9.5082      9.2338    145.0166
  1372.0000     10.4510      9.4166      8.9391    148.3172
  1372.2500     10.1207      9.3080      8.6701    150.7666
  1372.5000      9.7915      9.1764      8.4288    155.1275
  1372.7500      9.5237      9.0186      8.2211    158.6877
  1373.0000      9.3558      8.8352      8.0521    164.5911
  1373.2500      9.2836      8.6322      7.9227    167.9042
  1373.5000      9.2749      8.4199      7.8299    169.7689
  1373.7500      9.3006      8.2113      7.7674    168.3269
  1374.0000      9.3488      8.0211      7.7286    163.1438
  1374.2500      9.4179      7.8633      7.7070    159.1518
  1374.5000      9.5025      7.7464      7.6976    154.7690
  1374.7500      9.5800      7.6691      7.6984    153.4195
  1375.0000      9.6165      7.6237      7.7114    152.8734
  1375.2500      9.6122      7.6055      7.7437    152.6694
  1375.5000      9.6160      7.6141      7.8057    152.0354
  1375.7500      9.6612      7.6426      7.9099    151.6179
  1376.0000      9.7310      7.6710      8.0692    151.4365
  1376.2500      9.8070      7.6808      8.2946    151.5257
  1376.5000      9.9267      7.6764      8.5946    151.3156
  1376.7500     10.1652      7.6881      8.9738    150.4352
  1377.0000     10.5607      7.7528      9.4317    147.1692
  1377.2500     11.0957      7.8932      9.9623    143.3544
  1377.5000     11.7507      8.1089     10.5549    134.9339
  1377.7500     12.5640      8.3801     11.1972    127.4763
  1378.0000     13.6828      8.6773     11.8806    113.6344
  1378.2500     15.3824      8.9761     12.6045    103.0507
  1378.5000     18.0212      9.2715     13.3779     86.6656
  1378.7500     21.9174      9.5817     14.2177     76.6153
  1379.0000     27.0209      9.9366     15.1476     65.0672
  1379.2500     32.5052     10.3595     16.1970     60.8224
  1379.5000     36.9752     10.8569     17.3945     60.5137
  1379.7500     39.4048     11.4177     18.7479     64.0322
  1380.0000     39.7629     12.0170     20.2123     73.1931
  1380.2500     38.7501     12.6210     21.6639     80.6722
  1380.5000     37.1684     13.1927     22.9194     92.3739
  1380.7500     35.5100     13.6979     23.8106    100.0762
  1381.0000     33.9401     14.1086     24.2644    111.1476
  1381.2500     32.5030     14.4075     24.3076    117.8344
  1381.5000     31.2388     14.5938     24.0121    125.7383
  1381.7500     30.1392     14.6822     23.4537    129.0515
  1382.0000     29.1244     14.6968     22.7156    131.0596
  1382.2500     28.1269     14.6618     21.8996    130.9932
  1382.5000     27.1571     14.5972     21.1090    130.4175
  1382.7500     26.2721     14.5192     20.4202    130.7971
  1383.0000     25.4936     14.4418     19.8656    133.8325
  1383.2500     24.7588     14.3803     19.4401    137.4346
  1383.5000     24.0072     14.3482     19.1195    143.4320
  1383.7500     23.2835     14.3468     18.8776    146.4271
  1384.0000     22.6608     14.3611     18.6937    147.8831
  1384.2500     22.1510     14.3668     18.5512    146.7938
  1384.5000     21.7510     14.3439     18.4335    143.1576
  1384.7500     21.4903     14.2867     18.3245    140.2799
  1385.0000     21.3863     14.2073     18.2128    136.3655
  1385.2500     21.3847     14.1309     18.0967    134.1203
  1385.5000     21.4012     14.0859     17.9843    130.8507
  1385.7500     21.4133     14.0924     17.8870    128.6229
  1386.0000     21.4559     14.1550     17.8122    125.6375
  1386.2500     21.5408     14.2619     17.7584    124.0686
  1386.5000     21.6237     14.3908     17.7178    121.8059
  1386.7500     21.6435     14.5162     17.6826    119.9568
  1387.0000     21.5705     14.6160     17.6490    117.3101
  1387.2500     21.4155     14.6770     17.6160    116.7216
  1387.5000     21.2175     14.6974     17.5825    118.6683
  1387.7500     21.0231     14.6867     17.5463    121.2548
  1388.0000     20.8628     14.6617     17.5072    125.0586
  1388.2500     20.7386     14.6389     17.4691    126.8099
  1388.5000     20.6320     14.6288     17.4396    128.0483
  1388.7500     20.5124     14.6325     17.4268    127.9811
  1389.0000     20.3676     14.6442     17.4362    126.3759
  1389.2500     20.2378     14.6552     17.4693    124.0723
  1389.5000     20.1835     14.6568     17.5249    118.3627
  1389.7500     20.2299     14.6392     17.6017    113.1467
  1390.0000     20.3648     14.5914     17.7007    104.4399
  1390.2500     20.5534     14.5050     17.8229     99.1411
  1390.5000     20.7462     14.3776     17.9659     93.4199
  1390.7500     20.9121     14.2140     18.1216     91.3964
  1391.0000     21.0652     14.0240     18.2812     90.7250
  1391.2500     21.2350     13.8202     18.4416     91.2927
  1391.5000     21.4260     13.6174     18.6091     92.1530
  1391.7500     21.6205     13.4320     18.7917     91.7338
  1392.0000     21.8027     13.2821     18.9886     88.6934
  1392.2500     21.9725     13.1857     19.1823     85.3829
