~Version Information
VERS.                      2.0: CWLS Log ASCII Standard - VERSION 2.0
WRAP.                       NO: One line per depth step
~Well Information Block
STRT.FT               410.0000: 
STOP.FT              1252.0000: 
STEP.FT                 0.2500: 
NULL.                -999.2500: 
COMP.          Petrogulf Corporation: COMPANY
WELL.           Parsons 15-23R: WELL
FLD.           Purgatorie River: FIELD
LOC.           2244' FSL & 1932' FWL: LOCATION
PROV.                 Colorado: PROVINCE
CNTY.               Las Animas: COUNTRY
SRVC.                Patterson: SERVICE COMPANY
DATE.          Mon Sep 12 10:30:11 2005: LOG DATE
UWI.                          : UNIQUE WELL ID
~Curve Information Block
DEPT.FT            0 000 00 00: Depth
SP.mV                         : DIL Spontaneous Potential
RILD.Ohm-m                    : DIL Deep Resistivity
RILM.Ohm-m                    : DIL Medium Resistivity
RLL3.Ohm-m                    : DIL Shallow Resistivity
GR.GAPI                       : Gamma Ray
~Parameter Information Block
~A  Depth        SP         RILD        RILM        RLL3         GR     
# ...
   802.0000    197.8793      8.9408      9.2621     10.3054    175.4302
   802.2500    198.5137      8.7614      9.0489      9.8504    178.2388
   802.5000    198.8033      8.5191      8.8021     10.0303    176.5414
   802.7500    199.4617      8.2416      8.4379     10.4997    165.8099
   803.0000    200.0980      8.1763      8.0482      9.9802    184.2525
   803.2500    200.8195      8.1610      7.7729      8.8232    206.5568
   803.5000    201.2593      8.3907      7.6147      9.0338    191.6699
   803.7500    201.5758      8.4740      7.5869      8.8124    169.8833
   804.0000    202.3992      8.5468      7.7937      8.3320    150.3379
   804.2500    203.9270      8.6627      8.1503      8.2231    141.1007
   804.5000    205.1776      8.7976      8.7448      9.3392    129.3797
   804.7500    206.6531      9.1412      9.4055     14.0646    129.3172
   805.0000    209.2741      9.2031     10.0862     24.1669    109.2459
   805.2500    211.8179      9.6914     10.6800     24.0451     92.4771
   805.5000    213.4382      9.9721     11.1879     18.7957     75.1789
   805.7500    214.5279     10.0407     11.1956     17.4269     80.0784
   806.0000    214.9224     10.3230     11.4106     16.2738     89.0742
   806.2500    215.2523     11.0054     11.7597     15.8663     96.4095
   806.5000    215.1709     11.5108     12.2506     15.9917     91.6890
   806.7500    215.1906     12.1922     12.5052     17.9077    101.7369
   807.0000    214.7732     12.8487     12.9927     17.4546    115.2012
   807.2500    214.5580     13.3080     13.3199     14.5771    133.5567
   807.5000    214.3938     13.3389     14.2724     13.2906    125.0468
   807.7500    214.1113     13.6289     15.3192     15.7938    128.5650
   808.0000    213.6636     13.5777     16.5472     19.8805    121.0270
   808.2500    213.2557     13.7040     17.4237     22.5409    120.3650
   808.5000    212.9833     13.5338     17.1940     22.8995    111.9076
   808.7500    213.0315     13.0539     17.9359     24.1166    117.8864
   809.0000    212.7044     12.5971     17.2079     26.3340    107.2825
   809.2500    212.2897     12.0854     16.5792     27.8198    118.6758
   809.5000    211.6575     11.6429     15.8289     24.9003    149.5433
   809.7500    211.0246     11.4795     14.6271     20.0847    152.4644
   810.0000    210.2918     11.1844     13.0856     15.7544    142.7548
   810.2500    209.4839     10.7986     12.1365     12.6124    139.6002
   810.5000    208.4585     10.3088     11.1320     10.5115    169.1852
   810.7500    207.2167      9.9739     10.2931      9.4485    189.9924
   811.0000    205.9400      9.5073      9.6385      9.2345    189.7382
   811.2500    204.7597      9.2012      9.1434      8.9353    191.2952
   811.5000    203.3020      8.9162      8.6907      8.3515    185.9636
   811.7500    202.0198      8.5977      8.3466      8.2383    160.1317
   812.0000    200.8788      8.3259      8.0092      8.6546    176.2021
   812.2500    199.6713      8.0265      7.8231      8.2169    174.9271
   812.5000    198.6798      7.8420      7.7216      8.4447    170.7629
   812.7500    197.7462      7.6492      7.6297      8.8143    178.9494
   813.0000    196.9676      7.8145      7.6286      8.6832    174.0680
   813.2500    196.3572      7.8950      7.6610      8.6882    177.3751
   813.5000    196.2319      7.9167      7.6505      8.9042    159.3770
   813.7500    195.4583      7.9994      7.8254      8.9530    167.4064
   814.0000    194.3674      8.3558      8.1417      9.1313    152.9709
   814.2500    193.4237      8.3335      8.5999      9.4375    169.9355
   814.5000    192.3056      8.4392      9.0679      9.9293    142.0663
   814.7500    191.1638      8.5484      9.5873     11.8565    121.7316
   815.0000    190.0806      8.6653     10.0840     15.1180    125.6537
   815.2500    188.8328      8.7462     10.1941     17.2269    121.1397
   815.5000    187.3107      8.9530     10.0760     16.3620    104.9466
   815.7500    185.5402      9.1917      9.8968     13.6351    104.6580
   816.0000    183.4661      9.4517      9.7146     11.4152    126.3812
   816.2500    181.4325      9.9407      9.6242     10.3676    141.2856
   816.5000    180.2617     10.1404      9.8346      9.5698    146.3960
   816.7500    179.0597     10.7086     10.0495      8.8779    137.9204
   817.0000    177.9862     11.2423     10.5038      9.2004    149.4016
   817.2500    176.6238     11.6608     11.2615     10.3497    150.6661
   817.5000    175.9767     12.0012     12.5395     12.3869    122.4406
   817.7500    175.6073     12.4514     13.1360     15.9128    121.5143
   818.0000    174.9603     12.8418     14.4437     21.4516     97.3964
   818.2500    174.5277     13.2235     15.6961     27.7633     90.3512
   818.5000    174.3853     13.6640     17.4715     36.8720     74.9625
   818.7500    174.1742     14.3591     18.3277     45.1551     74.7837
   819.0000    173.8834     15.0599     19.9286     45.9164     63.4962
   819.2500    173.3897     15.7084     21.0532     44.7151     66.4721
   819.5000    173.0209     16.7692     22.7679     46.3301     80.3773
   819.7500    172.4475     17.3835     25.1527     48.8604     70.0895
   820.0000    171.9261     17.8486     26.5904     50.4309     71.2753
   820.2500    171.6488     18.0385     28.0669     50.8811     85.4854
   820.5000    171.7338     18.0465     26.7528     50.0186    112.2964
   820.7500    172.0426     18.0763     25.5251     48.9978    113.5963
   821.0000    172.3281     18.0507     24.0582     46.0280    120.1265
   821.2500    172.9171     17.5468     21.6718     37.0522    142.2370
   821.5000    173.4670     17.3218     19.2402     23.6419    155.5065
   821.7500    173.7838     16.7514     17.5562     14.4980    153.9781
   822.0000    173.7633     15.9901     16.6755     11.4416    152.6846
   822.2500    173.5094     15.9246     16.3956     11.6101    169.4596
   822.5000    173.4876     15.7281     16.6203     13.9040    124.3317
   822.7500    173.5997     15.1227     16.7426     16.2344    119.0930
   823.0000    174.2294     15.2783     16.9091     17.8668    124.7114
   823.2500    174.8932     14.8509     16.6664     18.2515    124.9745
   823.5000    175.5153     14.3133     16.3815     19.2710    110.5846
   823.7500    175.8754     13.9882     16.4587     19.9326    112.9113
   824.0000    176.2752     13.9950     16.2552     19.8386     90.5964
   824.2500    176.6527     13.8934     16.4656     18.9455    110.3601
   824.5000    177.3150     14.0402     16.1184     19.8158    107.6044
   824.7500    178.1161     14.1672     16.0284     22.7535     91.7113
   825.0000    178.9620     14.1276     15.9298     22.5632    107.2760
   825.2500    180.0005     13.9262     15.8464     19.2751    123.3633
   825.5000    180.7950     13.8316     15.6150     16.4446    135.7595
   825.7500    181.5695     13.7619     15.5745     15.3074    137.8482
   826.0000    182.1626     13.8323     14.8842     15.9104    117.7672
   826.2500    182.7488     13.9260     14.4945     15.1901    123.8595
   826.5000    183.4494     13.9504     14.5641     14.3330    142.3293
   826.7500    184.0174     13.9442     13.8546     14.7146    131.5877
   827.0000    184.6613     14.0410     13.7162     14.5592    108.1314
   827.2500    185.2294     14.0030     13.9656     13.3165    116.7047
   827.5000    185.6801     13.9392     14.1408     12.3360    133.8450
   827.7500    186.3204     13.9705     14.4341     12.7006    115.3450
   828.0000    186.9109     14.0559     14.9563     14.7635    136.0619
   828.2500    187.3303     14.0233     15.4044     17.6968    138.1210
   828.5000    187.6563     13.7513     15.8411     19.8648    117.6801
   828.7500    187.7527     13.8701     16.1772     22.1795    100.5369
   829.0000    188.1032     13.8533     16.5022     26.6313    112.7334
   829.2500    188.3564     13.8059     16.4402     28.5441    120.9735
   829.5000    188.5997     13.3403     15.9106     26.8071    127.6233
   829.7500    188.6125     13.7697     15.2382     21.4316    133.4182
