~Version Information
VERS.                      2.0: CWLS Log ASCII Standard - VERSION 2.0
WRAP.                       NO: One line per depth step
~Well Information Block
STRT.FT                -8.7500: 
STOP.FT              1727.2500: 
STEP.FT                 0.2500: 
NULL.                -999.2500: 
COMP.          XTO Energy Inc.: COMPANY
WELL.          Apache Canyon 34-08: WELL
FLD.              Vermejo Coal: FIELD
LOC.           1668' FNL & 275' FEL: LOCATION
STAT.                       CO: State
CNTY.               Las Animas: COUNTY
CTRY. USA : Country
SECT. 34 : Section
TOWN. 33S : Township
RANG. 67W : Range
SRVC.          Patterson Wireline: SERVICE COMPANY
DATE.          Mon Jan 09 09:34:21 2006: LOG DATE
API.           05 071 08541 00: UNIQUE WELL ID
~Curve Information Block
DEPT.FT            0 000 00 00: Depth
CCL.                          : Casing Collar Locator
TT3.usec                      : CBL 3' Travel Time
AMP3.mV                       : CBL 3' Amplitude
GR.GAPI                       : Gamma Ray
~Parameter Information Block
~A  Depth       CCL         TT3         AMP3         GR     
# ...
   326.2500      0.0000    634.2162      4.6756    123.9430
   326.5000      0.0000    665.3501      4.6710    128.9424
   326.7500      0.0000    691.7145      4.6709    135.8534
   327.0000      0.0000    707.8268      4.7061    142.3610
   327.2500      0.0000    716.1803      4.7999    146.6577
   327.5000      0.0000    721.5591      4.9538    147.4343
   327.7500      0.0000    726.7042      5.1407    144.7334
   328.0000      0.0000    730.8767      5.3149    140.5918
   328.2500      0.0000    730.5103      5.4366    137.7092
   328.5000      0.0000    721.0023      5.4927    136.9949
   328.7500      0.0000    698.6333      5.4980    136.7968
   329.0000      0.0000    662.9405      5.4785    134.8784
   329.2500      0.0000    619.9267      5.4548    130.8553
   329.5000      0.0000    582.0392      5.4351    126.1146
   329.7500      0.0000    560.8674      5.4184    121.6100
   330.0000      0.0000    558.0425      5.3984    116.7373
   330.2500      0.0000    564.3162      5.3643    110.6774
   330.5000      0.0000    566.6786      5.3008    104.1252
   330.7500      0.0000    555.7635      5.1960     99.0623
   331.0000      0.0000    530.5339      5.0558     96.8525
   331.2500      0.0000    499.9994      4.9072     96.7870
   331.5000      0.0000    478.0954      4.7815     96.5228
   331.7500      0.0000    472.4247      4.6950     94.0207
   332.0000      0.0000    477.4354      4.6453     89.2496
   332.2500      0.0000    480.8470      4.6234     84.1196
   332.5000      0.0000    477.9297      4.6219     80.7936
   332.7500      0.0000    478.2083      4.6367     80.0312
   333.0000      0.0000    496.7093      4.6627     80.8034
   333.2500      0.0000    538.9726      4.6896     81.0965
   333.5000      0.0000    595.1055      4.7048     79.2410
   333.7500      0.0000    647.7598      4.7019     75.1675
   334.0000      0.0000    684.8167      4.6836     70.8147
   334.2500      0.0000    704.8477      4.6563     69.1082
   334.5000      0.0000    713.2511      4.6244     72.0013
   334.7500      0.0000    716.0134      4.5902     79.1590
   335.0000      0.0000    716.7562      4.5573     88.5559
   335.2500      0.0000    717.0073      4.5321     98.4108
   335.5000      0.0000    717.2386      4.5250    108.3484
   335.7500      0.0000    717.5184      4.5475    118.6335
   336.0000      0.0000    717.7984      4.6048    128.6097
   336.2500      0.0000    718.0236      4.6872    136.3586
   336.5000      0.0000    718.1812      4.7717    140.0692
   336.7500      0.0000    718.2827      4.8339    139.6194
   337.0000      0.0000    718.3387      4.8620    136.6800
   337.2500      0.0000    718.3522      4.8594    133.4998
   337.5000      0.0000    718.3218      4.8395    131.6061
   337.7500      0.0000    718.2460      4.8182    131.1953
   338.0000      0.0000    718.1382      4.8066    131.5304
   338.2500      0.0000    718.0421      4.8073    131.9995
   338.5000      0.0000    718.0182      4.8177    132.6696
   338.7500      0.0000    718.1013      4.8380    133.7630
   339.0000      0.0000    718.2759      4.8723    134.9705
   339.2500      0.0000    718.4965      4.9212    135.6093
   339.5000      0.0000    718.7153      4.9767    135.2980
   339.7500      0.0000    718.9000      5.0273    134.2056
   340.0000      0.0000    719.0613      5.0655    132.7696
   340.2500      0.0000    719.2741      5.0897    131.4859
   340.5000      0.0000    719.6166      5.0984    130.9919
   340.7500      0.0000    720.0427      5.0881    131.8841
   341.0000      0.0000    720.2502      5.0562    134.0847
   341.2500      0.0000    719.5181      5.0067    136.7326
   341.5000      0.0000    716.3865      4.9490    138.8303
   341.7500      0.0000    708.3779      4.8924    139.5361
   342.0000      0.0000    692.4894      4.8427    137.7632
   342.2500      0.0000    666.6229      4.8019    132.2047
   342.5000      0.0000    630.7932      4.7689    122.3424
   342.7500      0.0000    587.2629      4.7404    109.3781
   343.0000      0.0000    540.3790      4.7132     95.7218
   343.2500      0.0000    496.2127      4.6866     83.4286
   343.5000      0.0000    460.5176      4.6630     73.3934
   343.7500      0.0000    435.8065      4.6461     65.8275
   344.0000      0.0000    420.8927      4.6368     60.7275
   344.2500      0.0000    413.1469      4.6311     57.6272
   344.5000      0.0000    410.2033      4.6231     55.4622
   344.7500      0.0000    409.8835      4.6102     53.1523
   345.0000      0.0000    410.1513      4.5958     50.3704
   345.2500      0.0000    410.0507      4.5857     47.6949
   345.5000      0.0000    410.4267      4.5833     45.8819
   345.7500      0.0000    413.5703      4.5885     44.9108
   346.0000      0.0000    422.9218      4.6002     43.8824
   346.2500      0.0000    443.2904      4.6174     41.9659
   346.5000      0.0000    479.2127      4.6389     39.3536
   346.7500      0.0000    529.7749      4.6621     37.2979
   347.0000      0.0000    584.7508      4.6832     37.2665
   347.2500      0.0000    629.2079      4.6992     39.8616
   347.5000      0.0000    653.6138      4.7089     44.3390
   347.7500      0.0000    658.3564      4.7125     49.3905
   348.0000      0.0000    649.8434      4.7111     54.6011
   348.2500      0.0000    636.3601      4.7070     60.9562
   348.5000      0.0000    627.2504      4.7043     69.8635
   348.7500      0.0000    630.2806      4.7084     81.9394
   349.0000      0.0000    646.5708      4.7224     96.5729
   349.2500      0.0000    669.7189      4.7440    112.1016
   349.5000      0.0000    691.1307      4.7658    126.3189
   349.7500      0.0000    705.7636      4.7805    137.3456
   350.0000      0.0000    713.4487      4.7854    144.5101
   350.2500      0.0000    716.5837      4.7826    148.4277
   350.5000      0.0000    717.5834      4.7766    150.0002
   350.7500      0.0000    717.8401      4.7727    149.2649
   351.0000      0.0000    717.8751      4.7760    145.4668
   351.2500      0.0000    717.8011      4.7895    138.5468
   351.5000      0.0000    717.6136      4.8114    130.3071
   351.7500      0.0000    717.3449      4.8361    123.5255
   352.0000      0.0000    717.0774      4.8577    119.8287
   352.2500      0.0000    716.9025      4.8694    118.8692
   352.5000      0.0000    716.8792      4.8619    119.6366
   352.7500      0.0000    717.0211      4.8257    121.8875
   353.0000      0.0000    717.2979      4.7618    125.7623
   353.2500      0.0000    717.6495      4.6896    130.5658
   353.5000      0.0000    718.0229      4.6413    134.9060
   353.7500      0.0000    718.3931      4.6419    138.0089
   354.0000      0.0000    718.7315      4.6892    140.1080
   354.2500      0.0000    718.9742      4.7538    141.2971
   354.5000      0.0000    719.0618      4.8023    140.6443
   354.7500      0.0000    719.0718      4.8205    137.1146
   355.0000      0.0000    719.2891      4.8164    131.4206
   355.2500      0.0000    720.0961      4.8027    126.5632
   355.5000      0.0000    721.5354      4.7796    126.0291
   355.7500      0.0000    722.6611      4.7334    130.9467
   356.0000      0.0000    721.6835      4.6558    138.6311
   356.2500      0.0000    718.0270      4.5672    144.1724
   356.5000      0.0000    715.0072      4.5139    144.0695
   356.7500      0.0000    719.3644      4.5286    138.5320
   357.0000      0.0000    736.1654      4.5979    130.4793
   357.2500      0.0000    763.4146      4.6791    122.8677
   357.5000      0.0000    792.7441      4.7411    117.0243
   357.7500      0.0000    816.3849      4.7789    112.8075
   358.0000      2.0000    832.4078      4.7977    109.9102
   358.2500      0.0000    841.9271      4.7980    109.0134
   358.5000     -2.0000    843.8325      4.7747    111.4673
   358.7500      0.0000    835.8202      4.7270    117.5898
   359.0000      0.0000    819.3402      4.6730    125.4496
   359.2500      0.0000    799.8853      4.6471    131.7411
   359.5000      0.0000    782.1767      4.6695    134.3201
