~Version Information
VERS.                      2.0: CWLS Log ASCII Standard - VERSION 2.0
WRAP.                       NO: One line per depth step
~Well Information Block
STRT.FT               440.0000: 
STOP.FT              1702.7000: 
STEP.FT                 0.1000: 
NULL.                -999.2500: 
COMP.          Pioneer Natural Resources: COMPANY
WELL.          Culver 14-12 Tr: WELL
FLD.           Purgatoire River: FIELD
LOC.           915' FSL & 1048' FWL--: LOCATION
STAT.                 Colorado: State
CNTY.               Las Animas: COUNTY
CTRY. USA : Country
SECT. 12 : Section
TOWN. 32S : Township
RANG. 66W : Range
SRVC.                Patterson: SERVICE COMPANY
DATE.          Wed Sep 28 10:00:59 2005: LOG DATE
API.           05 071 08520 00: UNIQUE WELL ID
~Curve Information Block
DEPT.FT            0 000 00 00: Depth
DCAL.in                       : CDL Caliper
RHOB.g/cc                     : CDL Bulk Density
RHOC.g/cc                     : CDL Density Correction
DPOR.pu                       : CDL Density Porosity
NPOR.pu                       : Neutron Porosity
GR.GAPI                       : Gamma Ray
~Parameter Information Block
~A  Depth       DCAL        RHOB        RHOC        DPOR        NPOR         GR     
# ...
  1582.4000      8.0582      2.5223      0.1133      7.7378     28.6432    163.2240
  1582.5000      8.0833      2.5500      0.1281      6.0584     28.8763    157.2626
  1582.6000      8.0833      2.5623      0.0917      5.3130     29.2904    146.1981
  1582.7000      8.0833      2.5558      0.1062      5.7077     28.8974    136.6662
  1582.8000      8.1117      2.5377      0.0744      6.8076     28.0881    136.3368
  1582.9000      8.1117      2.5204      0.0822      7.8559     28.0187    143.4535
  1583.0000      8.1201      2.5066      0.0766      8.6935     28.4016    151.1294
  1583.1000      8.1201      2.4900      0.0794      9.6976     28.5556    155.7649
  1583.2000      8.1201      2.4710      0.0237     10.8469     29.0540    157.0587
  1583.3000      8.1116      2.4614      0.0309     11.4286     30.1193    157.3431
  1583.4000      8.1116      2.4558      0.0500     11.7717     30.9279    157.6750
  1583.5000      8.1041      2.4302      0.0426     13.3211     31.1865    155.7921
  1583.6000      8.1041      2.3840     -0.0011     16.1185     31.3984    148.2988
  1583.7000      8.1041      2.3374     -0.0069     18.9485     31.9274    135.6112
  1583.8000      8.1136      2.2985     -0.0006     21.3012     32.6811    127.7693
  1583.9000      8.1136      2.2622      0.0116     23.5026     33.2161    132.3545
  1584.0000      8.1392      2.2212     -0.0317     25.9882     33.3391    140.0757
  1584.1000      8.1392      2.1666      0.0317     29.2958     33.5517    138.6115
  1584.2000      8.1392      2.0892     -0.0063     33.9887     34.2517    131.3945
  1584.3000      8.1660      2.0007     -0.0156     39.3536     35.0927    125.9509
  1584.4000      8.1660      1.9288     -0.0067     43.7076     35.5671    121.9454
  1584.5000      8.1747      1.8878      0.0012     46.1913     35.6077    119.1219
  1584.6000      8.1747      1.8681      0.0364     47.3882     35.5308    119.2169
  1584.7000      8.1747      1.8476      0.0348     48.6333     35.4109    121.0992
  1584.8000      8.1472      1.8202     -0.0405     50.2898     35.0017    120.9865
  1584.9000      8.1472      1.8066      0.0023     51.1131     34.1882    117.2605
  1585.0000      8.0885      1.8284      0.0533     49.7958     33.1137    111.3752
  1585.1000      8.0885      1.8907      0.1001     46.0157     32.0624    110.0088
  1585.2000      8.0885      1.9859      0.1415     40.2495     31.3835    117.6444
  1585.3000      8.0342      2.1021      0.1747     33.2076     31.2669    127.9328
  1585.4000      8.0342      2.2273      0.2239     25.6190     31.3442    133.5987
  1585.5000      8.0157      2.3445      0.2360     18.5157     31.0096    134.9681
  1585.6000      8.0157      2.4336      0.2317     13.1132     30.2367    133.7476
  1585.7000      8.0157      2.4836      0.2191     10.0852     29.2637    133.4001
  1585.8000      8.0312      2.5060      0.1997      8.7278     28.3601    137.9541
  1585.9000      8.0312      2.5233      0.1967      7.6787     27.7614    144.5711
  1586.0000      8.0592      2.5362      0.2547      6.8976     27.4925    148.4883
  1586.1000      8.0592      2.5361      0.1831      6.9020     27.5558    147.4511
  1586.2000      8.0592      2.5392      0.1407      6.7162     27.6724    140.3446
  1586.3000      8.0535      2.5628      0.1237      5.2824     27.5990    133.0149
  1586.4000      8.0535      2.5935      0.1541      3.4244     27.6734    133.0942
  1586.5000      7.9934      2.6036      0.1316      2.8117     28.0385    138.1121
  1586.6000      7.9934      2.5944      0.0660      3.3717     28.1004    141.9603
  1586.7000      7.9934      2.5863      0.0943      3.8623     27.7529    142.0345
  1586.8000      7.9369      2.5780      0.0729      4.3622     27.6148    139.6094
  1586.9000      7.9369      2.5666      0.0409      5.0557     27.6123    138.7376
  1587.0000      7.9168      2.5624      0.0361      5.3066     27.4611    141.2225
  1587.1000      7.9168      2.5652      0.0798      5.1383     27.5312    145.6682
  1587.2000      7.9168      2.5623      0.0913      5.3127     27.7765    151.3158
  1587.3000      7.9191      2.5532      0.0450      5.8672     27.6192    156.7161
  1587.4000      7.9191      2.5489      0.0518      6.1284     27.2042    159.6368
  1587.5000      7.9262      2.5528      0.0683      5.8936     27.3640    159.2146
  1587.6000      7.9262      2.5585      0.0798      5.5438     28.1057    157.2296
  1587.7000      7.9262      2.5603      0.0707      5.4376     28.7730    156.8584
  1587.8000      7.9243      2.5636      0.0131      5.2363     29.2006    154.8367
  1587.9000      7.9243      2.5748      0.0715      4.5606     29.5565    147.8299
  1588.0000      7.9084      2.5953      0.0094      3.3181     29.6317    140.8531
  1588.1000      7.9084      2.6237      0.0746      1.5923     29.2117    139.3362
  1588.2000      7.9084      2.6379      0.1048      0.7357     28.7205    144.9218
  1588.3000      7.8898      2.6227      0.0749      1.6547     28.4280    153.2695
  1588.4000      7.8898      2.5992      0.0581      3.0779     28.0972    156.5516
  1588.5000      7.8812      2.5903      0.0287      3.6177     27.6288    152.4247
  1588.6000      7.8812      2.5921      0.0820      3.5117     27.0690    147.3598
  1588.7000      7.8812      2.5850      0.0982      3.9371     26.6940    145.8075
  1588.8000      7.8791      2.5703      0.0582      4.8323     26.8478    143.1751
  1588.9000      7.8791      2.5657      0.0677      5.1102     26.9394    136.8388
  1589.0000      7.8793      2.5699      0.0831      4.8544     26.1664    129.6113
  1589.1000      7.8793      2.5731      0.0594      4.6625     24.9108    123.4465
  1589.2000      7.8793      2.5792      0.0368      4.2885     23.8926    119.8316
  1589.3000      7.8788      2.5948      0.0529      3.3449     23.4100    121.1835
  1589.4000      7.8788      2.6181      0.0800      1.9348     23.2197    125.5237
  1589.5000      7.8691      2.6401      0.0904      0.6021     22.9321    127.0492
  1589.6000      7.8691      2.6480      0.0807      0.1191     22.5872    121.8201
  1589.7000      7.8691      2.6450      0.0403      0.3054     22.1708    112.1948
  1589.8000      7.8496      2.6526      0.0169     -0.1580     21.3648    104.6802
  1589.9000      7.8496      2.6706      0.0661     -1.2484     20.1719    100.3114
  1590.0000      7.8405      2.6733      0.0588     -1.4137     19.1703     98.6956
  1590.1000      7.8405      2.6576      0.0210     -0.4609     19.0497    102.3097
  1590.2000      7.8405      2.6464      0.0137      0.2210     19.8619    105.6924
  1590.3000      7.8430      2.6529      0.0479     -0.1759     20.9897    104.1139
  1590.4000      7.8430      2.6695      0.0494     -1.1809     21.7999    104.3504
  1590.5000      7.8479      2.6806      0.0648     -1.8568     22.0995    108.4982
  1590.6000      7.8479      2.6737      0.0619     -1.4390     22.4990    109.9775
  1590.7000      7.8479      2.6498      0.0134      0.0140     23.3682    108.7126
  1590.8000      7.8603      2.6247      0.0069      1.5304     24.0483    108.1743
  1590.9000      7.8603      2.6085      0.0206      2.5142     24.1920    107.2419
  1591.0000      7.8739      2.5944      0.0378      3.3724     24.0758    103.5223
  1591.1000      7.8739      2.5760     -0.0064      4.4869     23.8341    100.3168
  1591.2000      7.8739      2.5631     -0.0568      5.2666     23.5614    102.3418
  1591.3000      7.8791      2.5654      0.0046      5.1262     23.3427    105.4447
  1591.4000      7.8791      2.5752      0.0120      4.5351     23.2734    104.4307
  1591.5000      7.8748      2.5871      0.0168      3.8135     23.5188    103.9515
  1591.6000      7.8748      2.6049      0.0514      2.7341     23.9138    109.9017
  1591.7000      7.8748      2.6230      0.0757      1.6381     23.9927    119.3427
  1591.8000      7.8574      2.6308      0.0802      1.1614     23.6454    126.6048
  1591.9000      7.8574      2.6304      0.0692      1.1901     23.3278    134.4041
