~Version Information
VERS.                      2.0: CWLS Log ASCII Standard - VERSION 2.0
WRAP.                       NO: One line per depth step
~Well Information Block
STRT.FT               370.0000: 
STOP.FT              1282.5000: 
STEP.FT                 0.1000: 
NULL.                -999.2500: 
COMP.          Pioneer Natural Resources: COMPANY
WELL.          Irish Eyes 33-21: WELL
FLD.           Purgatoire River: FIELD
LOC.           1379' FSL & 2544' FEL: LOCATION
PROV.                 Colorado: PROVINCE
CNTY.               Las Animas: COUNTRY
SRVC.                Patterson: SERVICE COMPANY
DATE.          Mon Jan 16 13:31:01 2006: LOG DATE
UWI.           05 071 08658 00: UNIQUE WELL ID
~Curve Information Block
DEPT.FT            0 000 00 00: Depth
DCAL.in                       : CDL Caliper
RHOB.g/cc                     : CDL Bulk Density
RHOC.g/cc                     : CDL Density Correction
DPOR.pu                       : CDL Density Porosity
GR.GAPI                       : Gamma Ray
NPOR.pu                       : Neutron Porosity
~Parameter Information Block
~A  Depth       DCAL        RHOB        RHOC        DPOR         GR         NPOR    
# ...
   494.8000      8.1238      2.5871      0.1509      3.8106    122.6979     23.6778
   494.9000      8.1238      2.5898      0.1796      3.6490    127.4265     23.8210
   495.0000      8.1188      2.5828      0.2068      4.0739    128.7391     23.6578
   495.1000      8.1188      2.5751      0.1272      4.5371    127.9310     23.6356
   495.2000      8.1188      2.5783      0.0901      4.3476    121.7871     24.0582
   495.3000      8.0446      2.5981      0.0848      3.1430    111.7409     24.5717
   495.4000      8.0446      2.6303      0.1365      1.1910    107.3068     24.8291
   495.5000      8.0307      2.6544      0.1771     -0.2681    113.2245     24.9007
   495.6000      8.0307      2.6487      0.1474      0.0758    119.6257     24.9410
   495.7000      8.0307      2.6251      0.0314      1.5068    118.2149     24.8304
   495.8000      8.0324      2.6113      0.0415      2.3466    114.7698     24.3475
   495.9000      8.0324      2.6041      0.1200      2.7841    116.3427     23.6504
   496.0000      8.0379      2.5952      0.0148      3.3234    120.7521     23.2241
   496.1000      8.0379      2.5999      0.0748      3.0360    125.3390     23.3251
   496.2000      8.0379      2.6136      0.0912      2.2076    132.1873     23.6403
   496.3000      8.0265      2.6079      0.0968      2.5504    139.2864     23.9340
   496.4000      8.0265      2.5804      0.0163      4.2157    141.0193     24.3231
   496.5000      8.0318      2.5586      0.0059      5.5401    141.0863     24.8133
   496.6000      8.0318      2.5547      0.0488      5.7740    144.4623     25.2815
   496.7000      8.0318      2.5575      0.0291      5.6076    148.1772     25.7080
   496.8000      8.0327      2.5563      0.0178      5.6795    146.8020     26.2347
   496.9000      8.0327      2.5515     -0.0286      5.9699    138.3345     26.8307
   497.0000      8.0417      2.5448      0.0506      6.3761    129.1193     27.1734
   497.1000      8.0417      2.5376     -0.0121      6.8118    125.9243     27.0596
   497.2000      8.0417      2.5415      0.0149      6.5755    124.1059     26.5487
   497.3000      8.1088      2.5602      0.0218      5.4405    117.3798     25.9200
   497.4000      8.1088      2.5852      0.0002      3.9249    110.7500     25.4393
   497.5000      8.0943      2.6098      0.0358      2.4364    109.2237     24.9438
   497.6000      8.0943      2.6314      0.0633      1.1263    108.2800     24.3447
   497.7000      8.0943      2.6501      0.0949     -0.0058    104.6824     23.9544
   497.8000      8.0650      2.6568      0.1440     -0.4148    102.1365     24.0295
   497.9000      8.0650      2.6476      0.0636      0.1427    106.1347     24.3585
   498.0000      8.0397      2.6368      0.0910      0.7991    114.9303     24.4925
   498.1000      8.0397      2.6240      0.1128      1.5770    117.7268     24.2954
   498.2000      8.0397      2.5984      0.0583      3.1246    112.1322     24.1240
   498.3000      8.0398      2.5739      0.0482      4.6102    109.0305     24.0854
   498.4000      8.0398      2.5693      0.0164      4.8939    111.5860     23.8767
   498.5000      8.0425      2.5715      0.0618      4.7580    113.1478     23.5630
   498.6000      8.0425      2.5567      0.0040      5.6564    111.9747     23.6187
   498.7000      8.0425      2.5244      0.0027      7.6125    112.8776     23.9881
   498.8000      8.0862      2.4898     -0.0333      9.7082    119.7752     24.1547
   498.9000      8.0862      2.4687     -0.0313     10.9858    130.8537     23.9992
   499.0000      8.1300      2.4636     -0.0119     11.2995    139.9029     23.8045
   499.1000      8.1300      2.4716     -0.0299     10.8112    144.2683     23.8664
   499.2000      8.1300      2.5024     -0.0486      8.9474    144.7313     24.1378
   499.3000      8.1600      2.5539      0.0309      5.8216    143.0176     24.3654
   499.4000      8.1600      2.6041      0.0446      2.7790    142.1584     24.5784
   499.5000      8.1971      2.6373      0.1145      0.7724    141.5902     24.8876
   499.6000      8.1971      2.6408      0.1412      0.5581    140.1868     25.2774
   499.7000      8.1971      2.6131      0.1360      2.2365    138.5248     25.5899
   499.8000      8.2959      2.5780      0.0445      4.3628    135.8140     25.7190
   499.9000      8.2959      2.5609      0.0965      5.4006    130.3038     25.7454
   500.0000      8.1882      2.5670      0.0408      5.0307    121.1533     25.6556
   500.1000      8.1882      2.5931      0.0785      3.4456    110.3541     25.3539
   500.2000      8.1882      2.6295      0.0937      1.2417    103.6963     24.9596
   500.3000      8.0516      2.6643      0.1276     -0.8643    103.5290     24.7544
   500.4000      8.0516      2.6935      0.1351     -2.6338    104.2031     24.8027
   500.5000      8.0277      2.7115      0.1582     -3.7267    101.2380     24.9937
   500.6000      8.0277      2.7054      0.1478     -3.3581     95.9272     25.1311
   500.7000      8.0277      2.6788      0.1136     -1.7480     93.2390     24.9971
   500.8000      7.9991      2.6579      0.0519     -0.4817     96.4634     24.7586
   500.9000      7.9991      2.6538      0.0671     -0.2309     99.9108     24.6253
   501.0000      8.0011      2.6468      0.1551      0.1947     98.5233     24.5320
   501.1000      8.0011      2.6216      0.0617      1.7198     98.5731     24.2946
   501.2000      8.0011      2.5880      0.0149      3.7573    102.7911     23.8873
   501.3000      8.0075      2.5598      0.0111      5.4676    102.4362     23.5114
   501.4000      8.0075      2.5462     -0.0142      6.2897     94.6420     23.2693
   501.5000      8.0214      2.5547     -0.0395      5.7783     88.1133     23.2494
   501.6000      8.0214      2.5712      0.0566      4.7760     88.9674     23.2438
   501.7000      8.0214      2.5755     -0.0004      4.5129     94.4700     23.0612
   501.8000      8.0539      2.5789     -0.0055      4.3069     98.6840     22.9740
   501.9000      8.0539      2.5914      0.0082      3.5545     98.8390     22.9497
   502.0000      8.0758      2.6000      0.0315      3.0302     96.8388     22.7540
   502.1000      8.0758      2.5927      0.0084      3.4719     95.1282     22.2556
   502.2000      8.0758      2.5707      0.0313      4.8068     94.1154     21.5596
   502.3000      8.0905      2.5533     -0.0273      5.8621     94.0678     21.3223
   502.4000      8.0905      2.5585      0.0172      5.5449     98.0526     21.7846
   502.5000      8.0306      2.5731      0.0554      4.6577    106.4969     22.2195
   502.6000      8.0306      2.5742      0.0360      4.5939    115.4698     22.2052
   502.7000      8.0306      2.5653     -0.0085      5.1339    120.5209     22.1199
   502.8000      8.0565      2.5629      0.0202      5.2770    119.1104     22.2315
   502.9000      8.0565      2.5769      0.0083      4.4330    114.1971     22.3833
   503.0000      8.0920      2.6043      0.0201      2.7675    110.9913     22.2275
   503.1000      8.0920      2.6200      0.0382      1.8210    110.8438     21.8848
   503.2000      8.0920      2.6001     -0.0133      3.0232    108.8075     21.9618
   503.3000      8.0176      2.5670     -0.0458      5.0309    101.6504     22.4861
   503.4000      8.0176      2.5564     -0.0649      5.6698     94.1896     23.0353
   503.5000      8.0114      2.5614      0.0273      5.3727     90.2934     23.5232
   503.6000      8.0114      2.5584     -0.0379      5.5530     88.7796     23.8153
   503.7000      8.0114      2.5469      0.0438      6.2509     89.7502     23.6772
   503.8000      8.0016      2.5313     -0.0006      7.1955     94.0344     23.3645
   503.9000      8.0016      2.5144      0.0254      8.2206     98.3793     23.3332
   504.0000      8.0279      2.5073     -0.0313      8.6467     99.8269     23.4097
   504.1000      8.0279      2.5247      0.0338      7.5930    102.4116     23.0718
   504.2000      8.0279      2.5634      0.0584      5.2514    106.9557     22.3624
   504.3000      8.0482      2.6022      0.1538      2.8955    108.1063     22.1086
