~Version Information
VERS.                      2.0: CWLS Log ASCII Standard - VERSION 2.0
WRAP.                       NO: One line per depth step
~Well Information Block
STRT.FT                 0.5000: 
STOP.FT              2166.0000: 
STEP.FT                 0.2500: 
NULL.                -999.2500: 
COMP.          Pioneer Natural Resources: COMPANY
WELL.          Bear Cub Federal 11-23: WELL
FLD.           Purgatoire River: FIELD
LOC.           1225' FNL & 1268 ' FWL--: LOCATION
CNTY.               Las Animas: COUNTY
SRVC.                Patterson: SERVICE COMPANY
DATE.          Mon Jul 17 10:21:31 2006: LOG DATE
UWI.           05 071 08509 00: UNIQUE WELL ID
STAT.                 Colorado: STATE
~Curve Information Block
DEPT.FT            0 000 00 00: Depth
CCL.                          : Casing Collar Locator
TT3.usec                      : CBL 3' Travel Time
AMP3.mV                       : CBL 3' Amplitude
GR.GAPI                       : Gamma Ray
~Parameter Information Block
~A  Depth       CCL         TT3         AMP3         GR     
# ...
  1139.5000      0.0000    610.7211      3.0864     95.6729
  1139.7500      0.0000    616.0450      3.1282     98.1382
  1140.0000      0.0000    622.5825      3.2155     97.4929
  1140.2500      0.0000    625.1247      3.2796     94.8030
  1140.5000      0.0000    625.2021      3.3649     90.8363
  1140.7500      0.0000    621.9680      3.4082     89.6750
  1141.0000      0.0000    609.7286      3.4425     89.5317
  1141.2500      0.0000    595.5679      3.4372     89.1898
  1141.5000      0.0000    568.2546      3.3827     87.3772
  1141.7500      0.0000    551.0630      3.3255     85.9813
  1142.0000      0.0000    534.3702      3.2381     85.2407
  1142.2500      0.0000    528.3031      3.1910     85.9132
  1142.5000      0.0000    517.1650      3.1414     87.9764
  1142.7500      0.0000    504.2606      3.1214     89.5364
  1143.0000      0.0000    479.4048      3.1112     91.2800
  1143.2500      0.0000    464.2206      3.1164     91.3879
  1143.5000      0.0000    449.7333      3.1322     89.0864
  1143.7500      0.0000    445.6986      3.1397     86.0947
  1144.0000      0.0000    444.1749      3.1431     81.1104
  1144.2500      0.0000    443.7936      3.1489     78.7918
  1144.5000      0.0000    442.6218      3.1816     78.5817
  1144.7500      0.0000    441.8848      3.2176     80.7640
  1145.0000      0.0000    442.1981      3.2608     86.0005
  1145.2500      0.0000    444.0292      3.2610     89.5204
  1145.5000      0.0000    450.7435      3.2101     93.5310
  1145.7500      0.0000    459.3776      3.1560     95.2121
  1146.0000      0.0000    481.1859      3.0757     96.1385
  1146.2500      0.0000    501.4339      3.0317     95.6346
  1146.5000      0.0000    534.1217      2.9832     93.6664
  1146.7500      0.0000    551.1987      2.9656     92.0590
  1147.0000      0.0000    561.7294      2.9681     89.6788
  1147.2500      0.0000    559.4584      2.9850     88.2291
  1147.5000      0.0000    552.0312      3.0092     86.9016
  1147.7500      0.0000    550.8170      3.0128     86.9998
  1148.0000      0.0000    559.8846      3.0021     88.4206
  1148.2500      0.0000    572.7309      2.9950     89.6597
  1148.5000      0.0000    598.0880      2.9964     91.3547
  1148.7500      0.0000    615.8259      3.0027     92.3306
  1149.0000      0.0000    638.7818      3.0077     93.1328
  1149.2500      0.0000    650.3403      3.0024     92.5984
  1149.5000      0.0000    662.8555      2.9764     89.3415
  1149.7500      0.0000    669.2620      2.9490     85.6565
  1150.0000      0.0000    677.8516      2.9102     79.0541
  1150.2500      0.0000    683.6176      2.9011     74.8580
  1150.5000      0.0000    692.9456      2.9283     70.3559
  1150.7500      0.0000    699.3283      2.9687     69.1366
  1151.0000      0.0000    707.1593      3.0346     69.9223
  1151.2500      0.0000    709.5457      3.0647     71.4725
  1151.5000      0.0000    706.7311      3.0733     73.7811
  1151.7500      0.0000    700.6326      3.0558     74.7178
  1152.0000      0.0000    688.0306      3.0086     74.9340
  1152.2500      0.0000    680.0114      2.9754     74.5258
  1152.5000      0.0000    672.2661      2.9438     74.0883
  1152.7500      0.0000    670.3595      2.9422     74.5246
  1153.0000      0.0000    669.5247      2.9614     76.4965
  1153.2500      0.0000    667.4766      2.9737     78.1889
  1153.5000      0.0000    658.4045      2.9657     79.9280
  1153.7500      0.0000    648.2420      2.9385     79.9918
  1154.0000      0.0000    630.1352      2.8812     78.4354
  1154.2500      0.0000    618.5544      2.8469     76.6643
  1154.5000      0.0000    603.5163      2.8165     73.7202
  1154.7500      0.0000    593.8345      2.8079     72.0995
  1155.0000      0.0000    575.7726      2.7996     70.7374
  1155.2500      0.0000    559.9164      2.7944     70.2048
  1155.5000      0.0000    532.5532      2.7942     68.7277
  1155.7500      0.0000    515.4366      2.8020     67.1409
  1156.0000      0.0000    496.9035      2.8138     65.0821
  1156.2500      0.0000    490.0336      2.8095     64.6343
  1156.5000      0.0000    485.0466      2.7753     65.3116
  1156.7500      0.0000    482.8954      2.7405     66.2163
  1157.0000      0.0000    479.1400      2.6916     67.7756
  1157.2500      0.0000    476.2422      2.6699     68.9277
  1157.5000      0.0000    472.2867      2.6518     70.9512
  1157.7500      0.0000    470.6725      2.6399     72.5122
  1158.0000      0.0000    471.5994      2.6072     74.6658
  1158.2500      0.0000    475.7451      2.5753     75.2984
  1158.5000      0.0000    488.9756      2.5277     74.0586
  1158.7500      0.0000    502.7873      2.5047     71.9850
  1159.0000      0.0000    530.3278      2.4865     69.0690
  1159.2500      0.0000    552.2165      2.4847     68.9173
  1159.5000      0.0000    587.2434      2.5002     73.5304
  1159.7500      0.0000    609.4295      2.5204     80.2165
  1160.0000      0.0000    636.0525      2.5458     95.1698
  1160.2500      0.0000    646.7756      2.5446    107.9212
  1160.5000      0.0000    648.0031      2.5080    129.8870
  1160.7500      0.0000    637.0345      2.4707    144.6920
  1161.0000      0.0000    606.4892      2.4245    162.4790
  1161.2500      0.0000    585.4717      2.4106    169.0876
  1161.5000      0.0000    573.0670      2.4085    170.8716
  1161.7500      0.0000    583.7017      2.4051    168.7025
  1162.0000      0.0000    619.7231      2.3788    164.9804
  1162.2500      0.0000    645.4635      2.3510    163.9569
  1162.5000      0.0000    671.3405      2.3210    165.2773
  1162.7500      0.0000    678.7589      2.3250    167.3986
  1163.0000      0.0000    681.9758      2.3751    170.3948
  1163.2500      0.0000    683.2858      2.4292    171.1529
  1163.5000      0.0000    687.4047      2.5146    169.7865
  1163.7500      0.0000    691.4733      2.5592    167.7435
  1164.0000      0.0000    698.2617      2.5945    164.6341
  1164.2500      0.0000    702.6401      2.6012    163.3113
  1164.5000      0.0000    708.4604      2.6123    162.7291
  1164.7500      0.0000    711.7902      2.6361    162.6855
  1165.0000      0.0000    715.8888      2.7006    161.0063
  1165.2500      0.0000    717.5562      2.7498    157.3904
  1165.5000      0.0000    716.9911      2.8076    146.9854
  1165.7500      0.0000    714.2659      2.8326    137.3326
  1166.0000      0.0000    708.6427      2.8659    122.0353
  1166.2500      0.0000    706.0201      2.8952    113.9134
  1166.5000      0.0000    706.6460      2.9506    108.7797
  1166.7500      0.0000    710.4816      2.9882    110.7945
  1167.0000      0.0000    719.6945      3.0349    119.2493
  1167.2500      0.0000    725.7528      3.0557    125.2120
  1167.5000      0.0000    728.3730      3.0642    129.0919
  1167.7500      0.0000    721.7585      3.0519    126.6753
  1168.0000      0.0000    694.7700      3.0123    116.6585
  1168.2500      0.0000    665.4487      2.9835    108.0545
  1168.5000      0.0000    609.7126      2.9602     96.7335
  1168.7500      0.0000    570.0104      2.9644     92.0810
  1169.0000      0.0000    516.4259      2.9919     90.8601
  1169.2500      0.0000    489.0759      3.0137     93.9490
  1169.5000      0.0000    464.6494      3.0410    103.3744
  1169.7500      0.0000    460.0739      3.0572    111.4336
  1170.0000      0.0000    469.6872      3.0872    122.8023
  1170.2500      0.0000    485.3120      3.1129    128.2608
  1170.5000      0.0000    518.0178      3.1521    132.7472
  1170.7500      0.0000    542.6400      3.1691    134.2899
  1171.0000      0.0000    577.0772      3.1614    136.6646
  1171.2500      0.0000    594.0014      3.1278    138.8659
  1171.5000      0.0000    603.0420      3.0455    142.2775
  1171.7500      0.0000    595.4943      2.9876    143.4498
  1172.0000      0.0000    565.3534      2.9273    141.5405
  1172.2500      0.0000    537.5366      2.9101    137.3268
  1172.5000      0.0000    495.3733      2.8996    127.6355
  1172.7500      0.0000    472.3187      2.8833    120.3530
