~Version Information
VERS.                      2.0: CWLS Log ASCII Standard - VERSION 2.0
WRAP.                       NO: One line per depth step
~Well Information Block
STRT.FT               460.0000: 
STOP.FT              2824.0000: 
STEP.FT                 0.2500: 
NULL.                -999.2500: 
COMP.          Pioneer Natural Resources: COMPANY
WELL.           Dolzanie 34-12: WELL
FLD.           Purgatoire River: FIELD
LOC.           1001' FSL & 1750' FEL--: LOCATION
PROV.                 Colorado: PROVINCE
CNTY.               Las Animas: COUNTRY
SRVC.                Patterson: SERVICE COMPANY
DATE.          Wed Jul 20 07:51:58 2005: LOG DATE
UWI.           05 071 08439 00: UNIQUE WELL ID
~Curve Information Block
DEPT.FT            0 000 00 00: Depth
DIR.Ohm-m                     : IEL Induction Resistivity
SN.Ohm-m                      : IEL Short Normal
SP.mV                         : IEL Spontaneous Potential
GR.GAPI                       : Gamma Ray
~Parameter Information Block
~A  Depth       DIR          SN          SP          GR     
# ...
   761.5000     18.9114   2000.0000   2000.0000    127.7540
   761.7500     18.8508   2000.0000   2000.0000    124.1058
   762.0000     18.9516   2000.0000   2000.0000    118.1851
   762.2500     19.2033   2000.0000   2000.0000    114.6463
   762.5000     19.5822   2000.0000   2000.0000    110.4956
   762.7500     20.0554   2000.0000   2000.0000    108.3167
   763.0000     20.5849   2000.0000   2000.0000    105.3676
   763.2500     21.1317   2000.0000   2000.0000    103.5126
   763.5000     21.6600   2000.0000   2000.0000    101.2030
   763.7500     22.1417   2000.0000   2000.0000    100.2460
   764.0000     22.5641   2000.0000   2000.0000     99.8602
   764.2500     22.9357   2000.0000   2000.0000    100.0549
   764.5000     23.2858   2000.0000   2000.0000    100.0113
   764.7500     23.6513   2000.0000   2000.0000     99.1500
   765.0000     24.0553   2000.0000   2000.0000     96.3500
   765.2500     24.4922   2000.0000   2000.0000     93.9219
   765.5000     24.9313   2000.0000   2000.0000     90.6213
   765.7500     25.3386   2000.0000   2000.0000     89.0652
   766.0000     25.6987   2000.0000   2000.0000     87.6127
   766.2500     26.0204   2000.0000   2000.0000     87.0181
   766.5000     26.3231   2000.0000   2000.0000     86.6010
   766.7500     26.6194   2000.0000   2000.0000     86.6132
   767.0000     26.9082   2000.0000   2000.0000     86.5519
   767.2500     27.1789   2000.0000   2000.0000     86.0576
   767.5000     27.4199   2000.0000   2000.0000     84.7093
   767.7500     27.6229   2000.0000   2000.0000     84.0128
   768.0000     27.7809   2000.0000   2000.0000     84.2721
   768.2500     27.8855   2000.0000   2000.0000     85.2867
   768.5000     27.9315   2000.0000   2000.0000     87.0419
   768.7500     27.9310   2000.0000   2000.0000     87.6852
   769.0000     27.9222   2000.0000   2000.0000     87.2185
   769.2500     27.9605   2000.0000   2000.0000     85.9310
   769.5000     28.0921   2000.0000   2000.0000     83.0216
   769.7500     28.3269   2000.0000   2000.0000     80.9452
   770.0000     28.6309   2000.0000   2000.0000     78.4763
   770.2500     28.9452   2000.0000   2000.0000     77.4587
   770.5000     29.2204   2000.0000   2000.0000     76.6287
   770.7500     29.4417   2000.0000   2000.0000     76.2317
   771.0000     29.6280   2000.0000   2000.0000     75.3265
   771.2500     29.8114   2000.0000   2000.0000     74.2633
   771.5000     30.0162   2000.0000   2000.0000     71.8777
   771.7500     30.2521   2000.0000   2000.0000     69.9799
   772.0000     30.5252   2000.0000   2000.0000     67.3903
   772.2500     30.8552   2000.0000   2000.0000     66.2508
   772.5000     31.2834   2000.0000   2000.0000     65.6580
   772.7500     31.8652   2000.0000   2000.0000     65.6895
   773.0000     32.6503   2000.0000   2000.0000     65.3045
   773.2500     33.6649   2000.0000   2000.0000     64.3149
   773.5000     34.9008   2000.0000   2000.0000     61.9834
   773.7500     36.3050   2000.0000   2000.0000     60.4463
   774.0000     37.7729   2000.0000   2000.0000     58.9568
   774.2500     39.1577   2000.0000   2000.0000     58.5723
   774.5000     40.3155   2000.0000   2000.0000     58.6625
   774.7500     41.1659   2000.0000   2000.0000     59.1469
   775.0000     41.7125   2000.0000   2000.0000     60.7750
   775.2500     41.9900   2000.0000   2000.0000     62.4727
   775.5000     41.9875   2000.0000   2000.0000     65.2393
   775.7500     41.6255   2000.0000   2000.0000     66.6295
   776.0000     40.8199   2000.0000   2000.0000     67.5912
   776.2500     39.5803   2000.0000   2000.0000     67.7202
   776.5000     38.0484   2000.0000   2000.0000     67.8466
   776.7500     36.4434   2000.0000   2000.0000     68.1333
   777.0000     34.9678   2000.0000   2000.0000     68.8144
   777.2500     33.7446   2000.0000   2000.0000     69.2127
   777.5000     32.8063   2000.0000   2000.0000     69.3639
   777.7500     32.1157   2000.0000   2000.0000     69.1371
   778.0000     31.6007   2000.0000   2000.0000     68.6167
   778.2500     31.1903   2000.0000   2000.0000     68.4104
   778.5000     30.8430   2000.0000   2000.0000     68.5613
   778.7500     30.5564   2000.0000   2000.0000     68.8884
   779.0000     30.3534   2000.0000   2000.0000     69.4007
   779.2500     30.2528   2000.0000   2000.0000     69.6942
   779.5000     30.2429   2000.0000   2000.0000     70.2462
   779.7500     30.2759   2000.0000   2000.0000     70.7522
   780.0000     30.2915   2000.0000   2000.0000     71.4445
   780.2500     30.2538   2000.0000   2000.0000     71.6392
   780.5000     30.1747   2000.0000   2000.0000     71.6787
   780.7500     30.1016   2000.0000   2000.0000     71.9969
   781.0000     30.0833   2000.0000   2000.0000     73.5905
   781.2500     30.1394   2000.0000   2000.0000     75.2505
   781.5000     30.2507   2000.0000   2000.0000     77.5020
   781.7500     30.3676   2000.0000   2000.0000     78.1460
   782.0000     30.4308   2000.0000   2000.0000     77.3629
   782.2500     30.3952   2000.0000   2000.0000     75.8959
   782.5000     30.2494   2000.0000   2000.0000     73.0871
   782.7500     30.0216   2000.0000   2000.0000     71.2805
   783.0000     29.7678   2000.0000   2000.0000     69.2627
   783.2500     29.5489   2000.0000   2000.0000     68.6110
   783.5000     29.4104   2000.0000   2000.0000     68.9038
   783.7500     29.3757   2000.0000   2000.0000     69.9586
   784.0000     29.4492   2000.0000   2000.0000     72.5850
   784.2500     29.6229   2000.0000   2000.0000     74.7007
   784.5000     29.8789   2000.0000   2000.0000     77.5583
   784.7500     30.1883   2000.0000   2000.0000     78.7789
   785.0000     30.5113   2000.0000   2000.0000     79.4571
   785.2500     30.7991   2000.0000   2000.0000     79.5552
   785.5000     30.9956   2000.0000   2000.0000     80.0266
   785.7500     31.0433   2000.0000   2000.0000     80.7912
   786.0000     30.8955   2000.0000   2000.0000     82.7651
   786.2500     30.5318   2000.0000   2000.0000     84.8644
   786.5000     29.9635   2000.0000   2000.0000     89.8583
   786.7500     29.2283   2000.0000   2000.0000     94.6476
   787.0000     28.3804   2000.0000   2000.0000    103.3966
   787.2500     27.4815   2000.0000   2000.0000    109.2119
   787.5000     26.5898   2000.0000   2000.0000    115.8885
   787.7500     25.7482   2000.0000   2000.0000    118.5311
   788.0000     24.9810   2000.0000   2000.0000    120.6742
   788.2500     24.3009   2000.0000   2000.0000    121.5832
   788.5000     23.7223   2000.0000   2000.0000    122.0688
   788.7500     23.2659   2000.0000   2000.0000    121.1909
   789.0000     22.9531   2000.0000   2000.0000    117.7782
   789.2500     22.7920   2000.0000   2000.0000    114.7536
   789.5000     22.7670   2000.0000   2000.0000    110.5393
   789.7500     22.8386   2000.0000   2000.0000    108.3400
   790.0000     22.9518   2000.0000   2000.0000    105.8181
   790.2500     23.0498   2000.0000   2000.0000    104.4737
   790.5000     23.0847   2000.0000   2000.0000    103.1760
   790.7500     23.0249   2000.0000   2000.0000    103.3196
   791.0000     22.8583   2000.0000   2000.0000    106.0935
   791.2500     22.5937   2000.0000   2000.0000    109.8256
   791.5000     22.2570   2000.0000   2000.0000    117.2663
   791.7500     21.8848   2000.0000   2000.0000    122.3382
   792.0000     21.5131   2000.0000   2000.0000    128.4488
   792.2500     21.1664   2000.0000   2000.0000    131.2577
   792.5000     20.8546   2000.0000   2000.0000    134.1021
   792.7500     20.5807   2000.0000   2000.0000    135.2994
   793.0000     20.3518   2000.0000   2000.0000    135.4869
   793.2500     20.1833   2000.0000   2000.0000    133.9960
   793.5000     20.0905   2000.0000   2000.0000    129.2939
   793.7500     20.0777   2000.0000   2000.0000    125.3453
   794.0000     20.1357   2000.0000   2000.0000    120.3824
   794.2500     20.2471   2000.0000   2000.0000    118.6211
   794.5000     20.3937   2000.0000   2000.0000    118.3454
   794.7500     20.5581   2000.0000   2000.0000    119.1507
