~Version Information
VERS.                      2.0: CWLS Log ASCII Standard - VERSION 2.0
WRAP.                       NO: One line per depth step
~Well Information Block
STRT.FT                 0.0000: 
STOP.FT              1877.2500: 
STEP.FT                 0.2500: 
NULL.                -999.2500: 
COMP.          Pioneer Natural Resources: COMPANY
WELL.            Corazon 13-10: WELL
FLD.           Purgatoire River: FIELD
LOC.           2510' FSL & 439' FWL--------: LOCATION
PROV.                 Colorado: PROVINCE
CNTY.               Las Animas: COUNTRY
SRVC.                         : SERVICE COMPANY
DATE.          Mon Dec 19 14:34:49 2005: LOG DATE
UWI.                          : UNIQUE WELL ID
~Curve Information Block
DEPT.FT            0 000 00 00: Depth
CCL.                          : Casing Collar Locator
TT3.usec                      : CBL 3' Travel Time
AMP3.mV                       : CBL 3' Amplitude
AMP5.mV                       : CBL 5' Amplitude
GR.GAPI                       : Gamma Ray
~Parameter Information Block
~A  Depth       CCL         TT3         AMP3        AMP5         GR     
# ...
  1848.0000      0.0000    663.3729     10.1472      1.0349     69.2921
  1848.2500      0.0000    641.3837     10.1658      1.1129     67.6359
  1848.5000      0.0000    621.6414     10.2971      1.1680     65.2911
  1848.7500      0.0000    603.2633     10.5472      1.1980     62.2295
  1849.0000      0.0000    589.5266     10.8717      1.2083     59.3903
  1849.2500      0.0000    587.6563     11.1860      1.2018     57.8164
  1849.5000      0.0000    601.7916     11.3868      1.1824     57.6936
  1849.7500      0.0000    626.9322     11.3923      1.1499     58.4147
  1850.0000      0.0000    650.7330     11.1864      1.0958     59.4967
  1850.2500      0.0000    662.3749     10.8314      1.0229     61.3294
  1850.5000      0.0000    661.1627     10.4343      0.9582     65.0008
  1850.7500      0.0000    656.6093     10.0903      0.9307     71.2737
  1851.0000      0.0000    658.4604      9.8409      0.9442     79.5467
  1851.2500      0.0000    665.5678      9.6654      0.9788     87.8243
  1851.5000      0.0000    665.4089      9.5082      1.0105     93.8320
  1851.7500      0.0000    645.0975      9.3280      1.0229     96.3850
  1852.0000      0.0000    602.9178      9.1290      1.0110     96.0284
  1852.2500      0.0000    550.1138      8.9449      0.9773     94.4431
  1852.5000      0.0000    502.5156      8.8025      0.9240     92.9883
  1852.7500      0.0000    470.1561      8.7052      0.8505     91.8473
  1853.0000      0.0000    453.5186      8.6426      0.7601     90.7441
  1853.2500      0.0000    447.3628      8.6071      0.6717     90.1041
  1853.5000      0.0000    446.3620      8.6028      0.6167     90.9214
  1853.7500      0.0000    447.9453      8.6403      0.6182     93.4544
  1854.0000      0.0000    452.5451      8.7185      0.6746     96.5201
  1854.2500      0.0000    462.6660      8.8174      0.7644     98.2530
  1854.5000      0.0000    480.8032      8.9123      0.8614     97.3312
  1854.7500      0.0000    506.4691      8.9917      0.9483     93.5962
  1855.0000      0.0000    535.4119      9.0576      1.0174     88.0294
  1855.2500      0.0000    563.5587      9.1179      1.0593     82.3842
  1855.5000      0.0000    591.8088      9.1830      1.0622     78.4716
  1855.7500      0.0000    624.3641      9.2628      1.0318     77.3471
  1856.0000      0.0000    661.5280      9.3607      0.9991     78.8163
  1856.2500      0.0000    696.7493      9.4740      0.9935     81.4207
  1856.5000      0.0000    721.7706      9.5917      1.0088     83.0420
  1856.7500      0.0000    732.2744      9.6875      1.0091     82.2013
  1857.0000      0.0000    727.8670      9.7258      0.9676     79.0549
  1857.2500      0.0000    710.4015      9.6864      0.8901     74.8086
  1857.5000      0.0000    685.6371      9.5820      0.8047     70.3169
  1857.7500      0.0000    664.5804      9.4474      0.7399     65.8869
  1858.0000      0.0000    657.7166      9.3146      0.7132     62.2844
  1858.2500      0.0000    665.4140      9.1994      0.7251     60.8573
  1858.5000      0.0000    676.3926      9.1033      0.7597     62.1918
  1858.7500      0.0000    676.9337      9.0200      0.7956     65.2366
  1859.0000      0.0000    659.8505      8.9422      0.8178     68.2167
  1859.2500      0.0000    625.8013      8.8676      0.8210     70.1469
  1859.5000      0.0000    581.4752      8.8037      0.8102     71.2071
  1859.7500      0.0000    538.6215      8.7642      0.8053     72.1139
  1860.0000      0.0000    510.9333      8.7634      0.8315     73.6261
  1860.2500      0.0000    507.8798      8.8106      0.8943     76.3067
  1860.5000      0.0000    529.8666      8.9017      0.9620     80.0075
  1860.7500      0.0000    567.5931      9.0123      0.9867     83.5729
  1861.0000      0.0000    604.8681      9.1054      0.9512     85.5873
  1861.2500      0.0000    624.3692      9.1513      0.8887     85.5932
  1861.5000      0.0000    615.7865      9.1431      0.8514     84.3495
  1861.7500      0.0000    582.4743      9.0924      0.8659     82.8642
  1862.0000      0.0000    540.5277      9.0137      0.9238     81.3883
  1862.2500      0.0000    509.9779      8.9168      0.9978     79.3399
  1862.5000      0.0000    505.2270      8.8165      1.0528     75.7215
  1862.7500      0.0000    530.4190      8.7414      1.0597     69.2512
  1863.0000      0.0000    578.9995      8.7248      1.0247     58.7438
  1863.2500      0.0000    636.3694      8.7881      0.9990     44.4454
  1863.5000      0.0000    686.6600      8.9354      1.0344     28.9252
  1863.7500      0.0000    720.7050      9.1528      1.1276     15.7478
  1864.0000      0.0000    738.6570      9.4046      1.2223      7.0347
  1864.2500      0.0000    745.9945      9.6359      1.2616      2.5446
  1864.5000      0.0000    748.2236      9.7912      1.2255      0.7382
  1864.7500      0.0000    748.5733      9.8341      1.1258      0.1706
  1865.0000      0.0000    748.3214      9.7581      0.9878      0.0308
  1865.2500      0.0000    747.5409      9.5890      0.8410      0.0037
  1865.5000      0.0000    745.1057      9.3772      0.7116      0.0000
  1865.7500      0.0000    738.0275      9.1771      0.6158   -999.2500
  1866.0000      0.0000    721.5174      9.0258      0.5607   -999.2500
  1866.2500      0.0000    691.7727      8.9373      0.5501   -999.2500
  1866.5000      0.0000    651.3472      8.9121      0.5784   -999.2500
  1866.7500      0.0000    611.7374      8.9497      0.6138   -999.2500
  1867.0000      0.0000    587.6329      9.0491      0.5993   -999.2500
  1867.2500      0.0000    586.0685      9.1874      0.4878   -999.2500
  1867.5000      0.0000    600.5483      9.2860      0.2859   -999.2500
  1867.7500      0.0000    613.1619      9.1767      0.0550   -999.2500
  1868.0000      0.0000    599.9485      8.6011     -0.1355   -999.2500
  1868.2500      0.0000    539.8320      7.3161     -0.2542   -999.2500
  1868.5000      0.0000    429.4259      5.3174     -0.3113   -999.2500
  1868.7500      0.0000    292.0545      2.9794     -0.3326   -999.2500
  1869.0000      0.0000    165.5109      0.8797     -0.3389   -999.2500
  1869.2500      0.0000     76.7151     -0.5789     -0.3403   -999.2500
  1869.5000      0.0000     28.6993     -1.3649     -0.3406   -999.2500
  1869.7500      0.0000      8.5808     -1.6940   -999.2500   -999.2500
  1870.0000      0.0000      2.0359     -1.8012   -999.2500   -999.2500
  1870.2500      0.0000      0.3768     -1.8283   -999.2500   -999.2500
  1870.5000      0.0000      0.0501     -1.8337   -999.2500   -999.2500
  1870.7500      0.0000   -999.2500   -999.2500   -999.2500   -999.2500
  1871.0000      0.0000   -999.2500   -999.2500   -999.2500   -999.2500
  1871.2500      0.0000   -999.2500   -999.2500   -999.2500   -999.2500
  1871.5000      0.0000   -999.2500   -999.2500   -999.2500   -999.2500
  1871.7500      0.0000   -999.2500   -999.2500   -999.2500   -999.2500
  1872.0000      0.0000   -999.2500   -999.2500   -999.2500   -999.2500
  1872.2500      0.0000   -999.2500   -999.2500   -999.2500   -999.2500
  1872.5000      0.0000   -999.2500   -999.2500   -999.2500   -999.2500
  1872.7500      0.0000   -999.2500   -999.2500   -999.2500   -999.2500
  1873.0000      0.0000   -999.2500   -999.2500   -999.2500   -999.2500
  1873.2500      0.0000   -999.2500   -999.2500   -999.2500   -999.2500
  1873.5000      0.0000   -999.2500   -999.2500   -999.2500   -999.2500
  1873.7500      0.0000   -999.2500   -999.2500   -999.2500   -999.2500
  1874.0000      0.0000   -999.2500   -999.2500   -999.2500   -999.2500
  1874.2500      0.0000   -999.2500   -999.2500   -999.2500   -999.2500
  1874.5000      0.0000   -999.2500   -999.2500   -999.2500   -999.2500
  1874.7500      0.0000   -999.2500   -999.2500   -999.2500   -999.2500
  1875.0000      0.0000   -999.2500   -999.2500   -999.2500   -999.2500
  1875.2500      0.0000   -999.2500   -999.2500   -999.2500   -999.2500
  1875.5000      0.0000   -999.2500   -999.2500   -999.2500   -999.2500
  1875.7500      0.0000   -999.2500   -999.2500   -999.2500   -999.2500
