~Version Information
VERS.                      2.0: CWLS Log ASCII Standard - VERSION 2.0
WRAP.                       NO: One line per depth step
~Well Information Block
STRT.FT               529.2000: 
STOP.FT              1325.2000: 
STEP.FT                 0.1000: 
NULL.                -999.2500: 
COMP.          Pioneer Natural Resources: COMPANY
WELL.            Erin 21-15 Tr: WELL
FLD.           Purgatoire River: FIELD
LOC.           1217' FNL & 2284' FWL--: LOCATION
CNTY.               Las Animas: COUNTY
SRVC.                Patterson: SERVICE COMPANY
DATE.          Mon Mar 06 14:26:48 2006: LOG DATE
UWI.           05 071 08712 00: UNIQUE WELL ID
STAT.                 Colorado: STATE
~Curve Information Block
DEPT.FT            0 000 00 00: Depth
DCAL.in                       : CDL Caliper
RHOB.g/cc                     : CDL Bulk Density
RHOC.g/cc                     : CDL Density Correction
DPOR.pu                       : CDL Density Porosity
GR.GAPI                       : Gamma Ray
~Parameter Information Block
~A  Depth       DCAL        RHOB        RHOC        DPOR         GR     
# ...
  1145.2000      7.9157      2.5101      0.0579      8.4783     71.8326
  1145.3000      7.9193      2.5053      0.0548      8.7711     69.1109
  1145.4000      7.9193      2.5028      0.0930      8.9195     66.3921
  1145.5000      7.9199      2.4887      0.0352      9.7768     65.4204
  1145.6000      7.9199      2.4680      0.0143     11.0330     66.0160
  1145.7000      7.9199      2.4558     -0.0016     11.7707     65.3747
  1145.8000      7.9184      2.4589      0.0071     11.5794     62.8874
  1145.9000      7.9184      2.4751      0.0361     10.5970     60.4704
  1146.0000      7.9177      2.4996      0.0402      9.1154     58.7169
  1146.1000      7.9177      2.5230      0.0696      7.6954     57.1860
  1146.2000      7.9177      2.5296      0.1052      7.2967     55.9033
  1146.3000      7.9169      2.5131      0.0926      8.2957     56.1076
  1146.4000      7.9169      2.4885      0.0290      9.7856     58.8133
  1146.5000      7.9158      2.4733      0.0677     10.7094     62.8283
  1146.6000      7.9158      2.4749      0.0280     10.6132     64.3372
  1146.7000      7.9158      2.4934      0.0523      9.4932     62.1721
  1146.8000      7.9168      2.5092      0.1185      8.5335     60.6390
  1146.9000      7.9168      2.5039      0.0733      8.8570     62.3532
  1147.0000      7.9247      2.4877      0.0588      9.8389     65.2128
  1147.1000      7.9247      2.4755      0.0706     10.5782     66.8129
  1147.2000      7.9247      2.4682      0.0646     11.0190     65.7873
  1147.3000      7.9356      2.4698      0.0202     10.9192     64.0136
  1147.4000      7.9356      2.4816      0.0819     10.2035     64.4713
  1147.5000      7.9423      2.4868      0.0653      9.8889     67.0804
  1147.6000      7.9423      2.4812      0.0284     10.2281     68.9414
  1147.7000      7.9423      2.4820      0.0440     10.1812     66.6030
  1147.8000      7.9446      2.4958      0.0744      9.3447     61.5689
  1147.9000      7.9446      2.5108      0.0892      8.4354     59.3596
  1148.0000      7.9411      2.5124      0.1021      8.3365     61.4911
  1148.1000      7.9411      2.4961      0.0587      9.3293     64.1704
  1148.2000      7.9411      2.4704      0.0247     10.8847     63.8221
  1148.3000      7.9305      2.4502      0.0413     12.1085     62.8348
  1148.4000      7.9305      2.4506     -0.0090     12.0845     66.5180
  1148.5000      7.9199      2.4777      0.0575     10.4402     71.9897
  1148.6000      7.9199      2.5121      0.1142      8.3602     72.0026
  1148.7000      7.9199      2.5272      0.0603      7.4419     67.9917
  1148.8000      7.9159      2.5230      0.0461      7.6948     64.9169
  1148.9000      7.9159      2.5134      0.0399      8.2796     63.1415
  1149.0000      7.9165      2.5062      0.0560      8.7144     61.2636
  1149.1000      7.9165      2.5017      0.0330      8.9865     59.2018
  1149.2000      7.9165      2.4947      0.0378      9.4128     56.9974
  1149.3000      7.9174      2.4852      0.0254      9.9869     55.6031
  1149.4000      7.9174      2.4788      0.0428     10.3760     55.9285
  1149.5000      7.9167      2.4764      0.0312     10.5214     57.9627
  1149.6000      7.9167      2.4792      0.0277     10.3517     62.0077
  1149.7000      7.9167      2.4889      0.0316      9.7610     65.3439
  1149.8000      7.9145      2.4970      0.0472      9.2757     64.9118
  1149.9000      7.9145      2.4980      0.0070      9.2128     62.7951
  1150.0000      7.9145      2.4954      0.0599      9.3672     60.5543
  1150.1000      7.9145      2.4928      0.0037      9.5250     58.1638
  1150.2000      7.9145      2.4987      0.0178      9.1695     58.4709
  1150.3000      7.9154      2.5090      0.0855      8.5466     60.0536
  1150.4000      7.9154      2.5138      0.0421      8.2529     58.9781
  1150.5000      7.9150      2.5218      0.0417      7.7674     58.9590
  1150.6000      7.9150      2.5347      0.0550      6.9902     62.3787
  1150.7000      7.9150      2.5336      0.0815      7.0563     63.8035
  1150.8000      7.9141      2.5113      0.0602      8.4039     62.3135
  1150.9000      7.9141      2.4837      0.0349     10.0799     60.5704
  1151.0000      7.9142      2.4655      0.0296     11.1797     57.7044
  1151.1000      7.9142      2.4618      0.0099     11.4060     55.8266
  1151.2000      7.9142      2.4693      0.0678     10.9505     58.0521
  1151.3000      7.9156      2.4823      0.0119     10.1639     62.8869
  1151.4000      7.9156      2.4973      0.0600      9.2530     65.2787
  1151.5000      7.9175      2.5006      0.0717      9.0557     63.0090
  1151.6000      7.9175      2.4857      0.0659      9.9554     58.3763
  1151.7000      7.9175      2.4723      0.0268     10.7710     53.8569
  1151.8000      7.9180      2.4707      0.0669     10.8674     51.5584
  1151.9000      7.9180      2.4705      0.0488     10.8783     53.3139
  1152.0000      7.9172      2.4745      0.0289     10.6342     57.9783
  1152.1000      7.9172      2.4925      0.0285      9.5454     62.7307
  1152.2000      7.9172      2.5140      0.0557      8.2431     65.2341
  1152.3000      7.9172      2.5179      0.1020      8.0064     65.5018
  1152.4000      7.9172      2.5021      0.0576      8.9616     64.6903
  1152.5000      7.9172      2.4867      0.0396      9.8996     62.9648
  1152.6000      7.9172      2.4864      0.0352      9.9127     62.0842
  1152.7000      7.9172      2.4991      0.0658      9.1462     62.1300
  1152.8000      7.9158      2.5121      0.1110      8.3553     62.4275
  1152.9000      7.9158      2.5129      0.0767      8.3108     65.1654
  1153.0000      7.9129      2.5016      0.0611      8.9950     69.2430
  1153.1000      7.9129      2.4893      0.0482      9.7379     70.7743
  1153.2000      7.9129      2.4824      0.0631     10.1550     70.4149
  1153.3000      7.9114      2.4839      0.0266     10.0692     69.6957
  1153.4000      7.9114      2.4977      0.0515      9.2308     67.9458
  1153.5000      7.9118      2.5170      0.0486      8.0584     64.9167
  1153.6000      7.9118      2.5286      0.0671      7.3566     60.8552
  1153.7000      7.9118      2.5359      0.0776      6.9166     57.8648
  1153.8000      7.9119      2.5539      0.0459      5.8228     58.3929
  1153.9000      7.9119      2.5723      0.1008      4.7076     62.0221
  1154.0000      7.9132      2.5641      0.0780      5.2035     66.1760
  1154.1000      7.9132      2.5380      0.0107      6.7855     69.0575
  1154.2000      7.9132      2.5224      0.0158      7.7306     68.6424
  1154.3000      7.9144      2.5173      0.0666      8.0444     63.5061
  1154.4000      7.9144      2.5104      0.0142      8.4627     57.1314
  1154.5000      7.9087      2.5062      0.0586      8.7158     54.8837
  1154.6000      7.9087      2.5110      0.0209      8.4266     57.3918
  1154.7000      7.9087      2.5205      0.0489      7.8468     61.6506
  1154.8000      7.8982      2.5264      0.0469      7.4883     65.0429
  1154.9000      7.8982      2.5309      0.0181      7.2152     65.9680
  1155.0000      7.8925      2.5423      0.0533      6.5280     64.4173
  1155.1000      7.8925      2.5552      0.0700      5.7447     62.5926
  1155.2000      7.8925      2.5575      0.0827      5.6052     62.2424
  1155.3000      7.8935      2.5533      0.0602      5.8628     63.2986
  1155.4000      7.8935      2.5560      0.0644      5.6943     64.5673
  1155.5000      7.8987      2.5620      0.1188      5.3306     65.9052
  1155.6000      7.8987      2.5603      0.0608      5.4379     69.5737
  1155.7000      7.8987      2.5568      0.0501      5.6510     72.3496
  1155.8000      7.9052      2.5632      0.0260      5.2588     69.9167
  1155.9000      7.9052      2.5825      0.0488      4.0920     66.2865
  1156.0000      7.9088      2.6043      0.0957      2.7692     65.8781
  1156.1000      7.9088      2.6181      0.0821      1.9309     67.5605
  1156.2000      7.9088      2.6243      0.1096      1.5571     69.4159
  1156.3000      7.9105      2.6156      0.1265      2.0833     71.0129
