~Version Information
VERS.                      2.0: CWLS Log ASCII Standard - VERSION 2.0
WRAP.                       NO: One line per depth step
~Well Information Block
STRT.FT               240.0000: 
STOP.FT              1338.7000: 
STEP.FT                 0.1000: 
NULL.                -999.2500: 
COMP.          Pioneer Natural Resources: COMPANY
WELL.            Hamburg 43-35: WELL
FLD.           Purgatoire River: FIELD
LOC.           2444' FSL & 950' FEL--: LOCATION
PROV.                 Colorado: PROVINCE
CNTY.               Las Animas: COUNTRY
SRVC.                Patterson: SERVICE COMPANY
DATE.          Sun Dec 04 11:50:58 2005: LOG DATE
UWI.           05 071 08607 00: UNIQUE WELL ID
~Curve Information Block
DEPT.FT            0 000 00 00: Depth
DCAL.in                       : CDL Caliper
RHOB.g/cc                     : CDL Bulk Density
RHOC.g/cc                     : CDL Density Correction
DPOR.pu                       : CDL Density Porosity
NPOR.pu                       : Neutron Porosity
GR.GAPI                       : Gamma Ray
~Parameter Information Block
~A  Depth       DCAL        RHOB        RHOC        DPOR        NPOR         GR     
# ...
   307.2000      8.1633      2.5784      0.0021      4.3403     18.4348    109.8750
   307.3000      8.1579      2.6083      0.0625      2.5245     19.7216    105.9311
   307.4000      8.1579      2.6309      0.0778      1.1554     20.8152    104.4477
   307.5000      8.1431      2.6366      0.0417      0.8103     21.3411    102.2238
   307.6000      8.1431      2.6366      0.0343      0.8137     21.5824    101.5012
   307.7000      8.1431      2.6300      0.0874      1.2141     22.3134    103.8555
   307.8000      8.1325      2.6069      0.0160      2.6113     23.6614    105.9751
   307.9000      8.1325      2.5819     -0.0317      4.1248     25.1066    107.3074
   308.0000      8.1303      2.5728      0.0097      4.6784     26.3815    110.9283
   308.1000      8.1303      2.5749      0.0021      4.5486     27.1807    113.7165
   308.2000      8.1303      2.5751      0.0324      4.5414     27.1219    109.4075
   308.3000      8.1296      2.5681      0.0077      4.9629     26.7528    100.7771
   308.4000      8.1296      2.5634      0.0258      5.2461     26.6552     95.1713
   308.5000      8.1275      2.5745      0.0299      4.5756     26.4015     96.0719
   308.6000      8.1275      2.6010      0.1155      2.9706     25.4023    101.1946
   308.7000      8.1275      2.6246      0.1327      1.5417     23.8736    105.5405
   308.8000      8.1231      2.6307      0.1180      1.1684     22.4341    108.8297
   308.9000      8.1231      2.6142      0.0974      2.1725     21.4589    111.0124
   309.0000      8.1143      2.5792      0.0519      4.2900     21.0935    109.5094
   309.1000      8.1143      2.5467      0.0386      6.2618     21.1010    106.2455
   309.2000      8.1143      2.5428      0.0156      6.4955     20.8225    105.5984
   309.3000      8.1032      2.5693      0.0495      4.8907     20.2878    107.4188
   309.4000      8.1032      2.5942      0.0859      3.3803     20.1994    109.8605
   309.5000      8.0975      2.5942      0.0460      3.3812     20.6230    112.6532
   309.6000      8.0975      2.5793      0.0306      4.2833     21.1946    115.7213
   309.7000      8.0975      2.5746     -0.0459      4.5709     21.7560    119.4305
   309.8000      8.0968      2.5889      0.0556      3.7005     22.1417    122.0993
   309.9000      8.0968      2.6051      0.0494      2.7211     22.1808    121.0679
   310.0000      8.0985      2.6102      0.0367      2.4151     22.0328    117.7222
   310.1000      8.0985      2.6091      0.0475      2.4788     22.1445    115.7540
   310.2000      8.0985      2.6180      0.0196      1.9419     22.8627    114.6430
   310.3000      8.1018      2.6483      0.0276      0.1015     23.8469    111.2130
   310.4000      8.1018      2.6892      0.0730     -2.3781     24.3826    106.5640
   310.5000      8.1032      2.7223      0.0989     -4.3794     24.5576    105.4336
   310.6000      8.1032      2.7379      0.0933     -5.3271     24.9526    108.4808
   310.7000      8.1032      2.7241      0.0931     -4.4924     25.7019    111.6189
   310.8000      8.1026      2.6782      0.0320     -1.7120     26.3740    112.9708
   310.9000      8.1026      2.6253     -0.0096      1.4986     26.6815    113.5690
   311.0000      8.1025      2.5909     -0.0171      3.5834     26.7934    115.3512
   311.1000      8.1025      2.5727     -0.0144      4.6844     26.6266    118.5351
   311.2000      8.1025      2.5568     -0.0892      5.6489     25.9548    120.7920
   311.3000      8.1034      2.5382     -0.0334      6.7740     24.9544    122.2281
   311.4000      8.1034      2.5178     -0.0845      8.0141     23.6891    123.5582
   311.5000      8.1040      2.5011     -0.0971      9.0241     22.2479    123.7791
   311.6000      8.1040      2.4879     -0.0629      9.8260     21.0782    121.0069
   311.7000      8.1040      2.4761     -0.0788     10.5382     20.4049    114.9190
   311.8000      8.1016      2.4807     -0.0666     10.2596     20.0909    112.4131
   311.9000      8.1016      2.5046      0.0313      8.8119     19.9544    119.3449
   312.0000      8.0981      2.5194      0.0722      7.9129     19.7540    129.6068
   312.1000      8.0981      2.5106      0.0326      8.4504     19.1949    136.7121
   312.2000      8.0981      2.4927      0.0189      9.5356     18.5828    142.0881
   312.3000      8.0954      2.4789      0.0329     10.3713     18.4185    143.5150
   312.4000      8.0954      2.4751     -0.0036     10.6013     18.5513    138.2383
   312.5000      8.0933      2.4865      0.0143      9.9082     18.6594    131.1075
   312.6000      8.0933      2.5098      0.0128      8.4997     19.0195    126.4332
   312.7000      8.0933      2.5278      0.0571      7.4050     19.7328    124.4340
   312.8000      8.0902      2.5225      0.0634      7.7275     20.0986    124.2640
   312.9000      8.0902      2.4998      0.0300      9.1057     19.6882    124.1880
   313.0000      8.0876      2.4894     -0.0076      9.7339     18.9259    123.4767
   313.1000      8.0876      2.5069      0.0373      8.6733     18.2622    123.5298
   313.2000      8.0876      2.5334      0.0713      7.0642     17.9744    126.3231
   313.3000      8.0829      2.5471      0.0500      6.2363     18.2728    128.2743
   313.4000      8.0829      2.5508      0.0515      6.0142     19.0171    124.5962
   313.5000      8.0785      2.5608      0.0447      5.4052     19.6095    120.2304
   313.6000      8.0785      2.5880      0.0835      3.7569     19.7603    119.7188
   313.7000      8.0785      2.6354      0.0834      0.8866     19.9098    120.8534
   313.8000      8.0765      2.7016      0.0848     -3.1257     20.4579    122.2139
   313.9000      8.0765      2.7665      0.1584     -7.0628     21.2790    119.2636
   314.0000      8.0763      2.7996      0.1557     -9.0683     22.1833    109.5479
   314.1000      8.0763      2.7937      0.1583     -8.7106     23.1539    100.0304
   314.2000      8.0763      2.7654      0.0531     -6.9921     24.1009     95.9669
   314.3000      8.0783      2.7383      0.0280     -5.3524     24.8790     95.4927
   314.4000      8.0783      2.7263      0.0631     -4.6219     25.3534     96.9613
   314.5000      8.0790      2.7233      0.0353     -4.4404     25.5160     98.3180
   314.6000      8.0790      2.7119      0.0080     -3.7529     25.4797     99.3405
   314.7000      8.0790      2.6786     -0.0267     -1.7330     25.3274    101.3839
   314.8000      8.0782      2.6303     -0.0677      1.1937     24.9828    101.2670
   314.9000      8.0782      2.5893     -0.0531      3.6798     24.3981     98.5866
   315.0000      8.0774      2.5736     -0.0218      4.6323     23.6095    100.6257
   315.1000      8.0774      2.5889      0.0181      3.7041     22.4130    108.1130
   315.2000      8.0774      2.6252      0.0831      1.5026     20.7916    114.0456
   315.3000      8.0778      2.6627      0.1138     -0.7721     19.3776    116.1633
   315.4000      8.0778      2.6747      0.1551     -1.4940     18.6558    115.4840
   315.5000      8.0776      2.6434      0.0727      0.3991     18.4230    111.0432
   315.6000      8.0776      2.5912      0.0263      3.5639     18.3583    103.8463
   315.7000      8.0776      2.5576     -0.0136      5.5985     18.5625     98.3736
   315.8000      8.0749      2.5542     -0.0136      5.8091     19.1871     97.1426
   315.9000      8.0749      2.5576      0.0233      5.6030     19.8698     98.6372
   316.0000      8.0724      2.5534     -0.0400      5.8542     20.2484     99.4200
   316.1000      8.0724      2.5559     -0.0188      5.7020     20.4174     95.8863
   316.2000      8.0724      2.5615      0.0472      5.3628     20.5560     89.9936
   316.3000      8.0703      2.5525      0.0431      5.9066     20.8154     88.9090
   316.4000      8.0703      2.5408      0.0126      6.6176     21.2117     95.3116
   316.5000      8.0677      2.5458      0.0362      6.3174     21.4777    102.8012
   316.6000      8.0677      2.5596      0.0777      5.4782     21.3897    105.8695
   316.7000      8.0677      2.5679      0.0361      4.9766     21.2061    105.9682
