~Version Information
VERS.                      2.0: CWLS Log ASCII Standard - VERSION 2.0
WRAP.                       NO: One line per depth step
~Well Information Block
STRT.FT                -8.7500: 
STOP.FT              1860.5000: 
STEP.FT                 0.2500: 
NULL.                -999.2500: 
COMP.          Pioneer Natural Resources: COMPANY
WELL.          Cortina 23-25 Tr: WELL
FLD.           Purgatorie River: FIELD
LOC.           --2521' FSL & 2345' FWL------: LOCATION
STAT.                       CO: PROVINCE
CNTY.               Las Animas: COUNTY
CTRY. USA : country
SECT. 25 : Section
TOWN. 32S : Township
RANG. 67W : Range
SRVC.          Patterson Wireline: SERVICE COMPANY
DATE.          Thu Sep 29 11:30:45 2005: LOG DATE
API.           05 071 08534 00: UNIQUE WELL ID
~Curve Information Block
DEPT.FT            0 000 00 00: Depth
CCL.                          : Casing Collar Locator
TT3.usec                      : CBL 3' Travel Time
AMP3.mV                       : CBL 3' Amplitude
GR.GAPI                       : Gamma Ray
~Parameter Information Block
~A  Depth       CCL         TT3         AMP3         GR     
# ...
   862.2500      0.0000    324.3780     21.0768    121.8223
   862.5000      0.0000    324.1419     21.4791    133.0628
   862.7500      0.0000    323.9491     21.9738    140.0581
   863.0000      0.0000    323.8016     22.5399    141.7032
   863.2500      0.0000    323.6911     23.1309    139.4769
   863.5000      0.0000    323.6017     23.6962    135.8919
   863.7500      0.0000    323.5169     24.2013    132.9832
   864.0000      0.0000    323.4305     24.6314    131.4824
   864.2500      0.0000    323.3492     24.9860    130.8381
   864.5000      0.0000    323.2806     25.2735    130.1483
   864.7500      0.0000    323.2238     25.5034    129.2288
   865.0000      0.0000    323.1736     25.6817    128.6207
   865.2500      0.0000    323.1292     25.8166    128.7183
   865.5000      0.0000    323.0934     25.9302    129.4432
   865.7500      0.0000    323.0657     26.0576    130.7752
   866.0000      0.0000    323.0401     26.2291    132.8518
   866.2500      0.0000    323.0089     26.4480    135.2688
   866.5000      0.0000    322.9672     26.6859    137.0212
   866.7500      0.0000    322.9179     26.8988    137.6904
   867.0000      0.0000    322.8743     27.0506    138.1336
   867.2500      0.0000    322.8528     27.1258    139.3482
   867.5000      0.0000    322.8583     27.1289    141.0841
   867.7500      0.0000    322.8784     27.0735    142.2034
   868.0000      0.0000    322.8930     26.9725    142.2153
   868.2500      0.0000    322.8898     26.8359    142.0390
   868.5000      0.0000    322.8717     26.6757    143.2424
   868.7500      0.0000    322.8516     26.5118    146.4353
   869.0000      0.0000    322.8390     26.3678    150.2257
   869.2500      0.0000    322.8345     26.2497    151.9592
   869.5000      0.0000    322.8386     26.1298    149.8040
   869.7500      0.0000    322.8622     25.9571    144.1721
   870.0000      0.0000    322.9245     25.6914    137.2220
   870.2500      0.0000    323.0411     25.3350    131.2380
   870.5000      0.0000    323.2180     24.9306    127.3347
   870.7500      0.0000    323.4820     24.5208    125.1557
   871.0000      0.0000    323.9473     24.1085    123.5836
   871.2500      0.0000    325.1663     23.6616    121.8185
   871.5000      0.0000    329.0820     23.1529    119.9304
   871.7500      0.0000    340.5461     22.5790    118.7828
   872.0000      0.0000    367.7006     21.9437    119.6075
   872.2500      0.0000    418.1420     21.2436    123.1430
   872.5000      0.0000    491.1097     20.4840    128.8393
   872.7500      0.0000    573.2741     19.6943    135.0464
   873.0000      0.0000    645.5615     18.9165    139.8436
   873.2500      0.0000    695.8247     18.1882    141.6022
   873.5000      0.0000    724.2525     17.5452    139.4813
   873.7500      0.0000    738.2084     17.0209    134.0547
   874.0000      0.0000    745.0422     16.6242    127.3774
   874.2500      0.0000    749.4705     16.3350    122.3307
   874.5000      0.0000    754.0383     16.1459    121.5008
   874.7500      0.0000    758.8338     16.1107    125.5899
   875.0000      0.0000    759.4799     16.3280    132.4882
   875.2500      0.0000    746.3813     16.8673    138.6354
   875.5000      0.0000    710.2668     17.7075    141.7214
   875.7500      0.0000    652.4995     18.7350    141.8273
   876.0000      0.0000    587.9892     19.7868    140.2729
   876.2500      0.0000    533.6477     20.6890    138.1179
   876.5000      0.0000    497.0694     21.2487    135.5958
   876.7500      0.0000    481.6146     21.2407    132.3027
   877.0000      0.0000    496.1543     20.5117    127.9778
   877.2500      0.0000    548.8085     19.1865    123.2831
   877.5000      0.0000    631.9296     17.7278    119.4128
   877.7500      0.0000    720.9851     16.6617    116.8737
   878.0000      0.0000    789.8543     16.1978    115.1999
   878.2500      0.0000    825.8586     16.1490    113.8859
   878.5000      2.0000    833.0586     16.1895    113.1229
   878.7500      0.0000    825.0234     16.1169    113.5341
   879.0000      0.0000    813.8455     15.8977    115.1648
   879.2500      0.0000    802.2465     15.6192    116.6555
   879.5000      0.0000    784.3224     15.4812    115.9122
   879.7500      0.0000    755.3822     15.7416    112.2461
   880.0000      0.0000    722.3900     16.5048    107.4720
   880.2500      0.0000    701.9297     17.5473    104.2491
   880.5000      0.0000    705.4175     18.4608    103.6131
   880.7500      0.0000    728.6550     18.9820    104.6622
   881.0000      0.0000    757.6060     19.1287    106.3322
   881.2500      0.0000    780.7740     19.0698    108.6678
   881.5000      0.0000    794.2574     18.9625    112.0531
   881.7500      0.0000    799.3126     18.8909    115.7575
   882.0000      0.0000    798.5839     18.8758    118.2124
   882.2500      0.0000    792.9638     18.9036    118.8346
   882.5000      0.0000    778.8256     18.9553    118.7328
   882.7500      0.0000    747.4935     19.0275    119.3533
   883.0000      0.0000    690.1309     19.1334    120.9816
   883.2500      0.0000    607.0469     19.2906    122.5585
   883.5000      0.0000    512.9745     19.5041    122.4077
   883.7500      0.0000    429.9125     19.7651    119.3146
   884.0000      0.0000    372.7179     20.0653    113.4472
   884.2500      0.0000    341.9787     20.4035    106.2359
   884.5000      0.0000    329.1498     20.7704     99.2044
   884.7500      0.0000    325.6676     21.1273     93.1538
   885.0000      0.0000    328.1299     21.4079     88.5073
   885.2500      0.0000    339.3822     21.5418     85.9293
   885.5000      0.0000    367.2002     21.4758     86.1496
   885.7500      0.0000    419.3198     21.1832     88.9610
   886.0000      0.0000    494.9783     20.6677     92.5533
   886.2500      0.0000    580.2079     19.9677     94.4046
   886.5000      0.0000    654.4669     19.1536     93.1358
   886.7500      0.0000    704.1246     18.3086     89.3839
   887.0000      0.0000    729.7049     17.5000     84.9805
   887.2500      0.0000    741.8871     16.7634     81.6109
   887.5000      0.0000    752.5148     16.1151     80.1429
   887.7500      0.0000    767.3824     15.5718     80.5979
   888.0000      0.0000    783.6924     15.1469     82.3030
   888.2500      0.0000    793.3069     14.8210     84.2870
   888.5000      0.0000    789.8441     14.5260     85.8781
   888.7500      0.0000    774.0776     14.1801     86.8153
   889.0000      0.0000    753.4263     13.7541     86.7318
   889.2500      0.0000    736.6162     13.3029     85.0063
   889.5000      0.0000    728.1525     12.9263     81.5854
   889.7500      0.0000    726.7436     12.7024     77.5958
   890.0000      0.0000    728.4810     12.6508     74.5439
   890.2500      0.0000    731.4879     12.7434     73.0817
   890.5000      0.0000    737.3414     12.9321     72.9656
   890.7500      0.0000    748.2719     13.1659     73.8300
   891.0000      0.0000    764.2318     13.3907     75.3405
   891.2500      0.0000    782.9686     13.5483     76.8618
   891.5000      0.0000    801.5164     13.5908     77.7690
   891.7500      0.0000    817.0922     13.5115     78.1512
   892.0000      0.0000    827.8476     13.3657     78.5561
   892.2500      0.0000    833.5310     13.2570     78.7713
   892.5000      0.0000    834.9877     13.2934     77.5429
   892.7500      0.0000    832.8706     13.5403     73.9821
   893.0000      0.0000    827.1503     13.9927     68.8118
   893.2500      0.0000    817.9181     14.5779     63.8355
   893.5000      0.0000    806.4178     15.1864     60.4087
   893.7500      0.0000    794.8022     15.7157     58.6080
   894.0000      0.0000    784.4622     16.1034     57.7298
   894.2500      0.0000    774.4005     16.3396     57.4261
   894.5000      0.0000    761.3019     16.4686     58.2331
   894.7500      0.0000    740.3804     16.5846     60.9478
   895.0000      0.0000    705.4773     16.8030     65.5893
   895.2500      0.0000    650.6520     17.2005     71.1249
   895.5000      0.0000    576.1792     17.7544     76.3226
