~Version Information
VERS.                      2.0: CWLS Log ASCII Standard - VERSION 2.0
WRAP.                       NO: One line per depth step
~Well Information Block
STRT.FT                 0.0000: 
STOP.FT              3428.7500: 
STEP.FT                 0.2500: 
NULL.                -999.2500: 
COMP.          Pioneer Natural Resources: COMPANY
WELL.          Cordillera 34-7: WELL
FLD.           Purgatorie River: FIELD
LOC.           598' FSL & 1770' FEL: LOCATION
PROV.                 Colorado: PROVINCE
CNTY.               Las Animas: COUNTRY
SRVC.                Patterson: SERVICE COMPANY
DATE.          Fri Nov 18 07:55:32 2005: LOG DATE
UWI.                          : UNIQUE WELL ID
~Curve Information Block
DEPT.FT            0 000 00 00: Depth
AMP3.mV                       : CBL 3' Amplitude
CCL.                          : Casing Collar Locator
GR.GAPI                       : Gamma Ray
TT3.usec                      : CBL 3' Travel Time
~Parameter Information Block
~A  Depth       AMP3        CCL          GR         TT3     
# ...
  1809.0000      5.2646      0.0000     99.8338    479.6031
  1809.2500      5.2603      0.0000     99.5017    487.3315
  1809.5000      5.2682      0.0000     98.5698    497.4832
  1809.7500      5.2777      0.0000     96.8879    505.5947
  1810.0000      5.2817      0.0000     94.6228    508.9235
  1810.2500      5.2813      0.0000     91.8680    507.6294
  1810.5000      5.2903      0.0000     88.7352    503.7493
  1810.7500      5.3207      0.0000     85.7036    500.4074
  1811.0000      5.3617      0.0000     83.4884    498.2874
  1811.2500      5.3829      0.0000     82.5202    494.2128
  1811.5000      5.3558      0.0000     82.8514    487.2415
  1811.7500      5.2801      0.0000     84.4994    481.6338
  1812.0000      5.1991      0.0000     87.3717    481.6786
  1812.2500      5.1641      0.0000     90.7355    488.1292
  1812.5000      5.1727      0.0000     93.4008    500.9482
  1812.7500      5.1784      0.0000     94.7992    524.1997
  1813.0000      5.1701      0.0000     95.4646    561.9042
  1813.2500      5.1771      0.0000     96.1763    605.9639
  1813.5000      5.1984      0.0000     97.0223    639.9468
  1813.7500      5.2062      0.0000     97.6611    656.8685
  1814.0000      5.1863      0.0000     98.1390    662.1702
  1814.2500      5.1278      0.0000     98.9921    663.0254
  1814.5000      5.0159      0.0000    100.5106    662.8866
  1814.7500      4.8660      0.0000    102.0739    662.6910
  1815.0000      4.7279      0.0000    102.4666    662.5415
  1815.2500      4.6360      0.0000    100.9868    662.3473
  1815.5000      4.5907      0.0000     98.0799    662.0938
  1815.7500      4.5818      0.0000     94.6851    662.1330
  1816.0000      4.5851      0.0000     91.1421    663.6362
  1816.2500      4.5750      0.0000     86.9938    668.7358
  1816.5000      4.5641      0.0000     81.9605    678.7361
  1816.7500      4.5799      0.0000     77.0005    691.0313
  1817.0000      4.6106      0.0000     74.0132    699.9216
  1817.2500      4.6237      0.0000     74.0912    701.7180
  1817.5000      4.6149      0.0000     76.3278    697.4803
  1817.7500      4.5963      0.0000     78.8907    689.6208
  1818.0000      4.5739      0.0000     80.9868    674.4200
  1818.2500      4.5570      0.0000     83.0464    643.9527
  1818.5000      4.5476      0.0000     85.2656    602.0294
  1818.7500      4.5289      0.0000     87.0667    565.6799
  1819.0000      4.4953      0.0000     88.1033    544.6675
  1819.2500      4.4746      0.0000     88.7050    535.1936
  1819.5000      4.5008      0.0000     88.9415    534.3176
  1819.7500      4.5656      0.0000     88.2069    546.2711
  1820.0000      4.6098      0.0000     86.2936    572.8856
  1820.2500      4.5922      0.0000     84.1575    603.7479
  1820.5000      4.5445      0.0000     83.0972    624.7113
  1820.7500      4.5295      0.0000     83.6782    635.5591
  1821.0000      4.5602      0.0000     85.8642    644.7944
  1821.2500      4.6017      0.0000     89.8405    652.5148
  1821.5000      4.6334      0.0000     96.2740    653.3342
  1821.7500      4.6573      0.0000    105.6218    649.4153
  1822.0000      4.6742      0.0000    117.0587    651.3512
  1822.2500      4.6844      0.0000    128.0829    663.8854
  1822.5000      4.6962      0.0000    135.5900    676.5333
  1822.7500      4.7230      0.0000    137.8267    678.4819
  1823.0000      4.7588      0.0000    135.5664    673.8598
  1823.2500      4.7735      0.0000    131.3583    672.1114
  1823.5000      4.7518      0.0000    127.5094    673.7092
  1823.7500      4.7039      0.0000    124.6967    673.4525
  1824.0000      4.6450      0.0000    122.3781    670.5059
  1824.2500      4.6000      0.0000    120.2309    667.8448
  1824.5000      4.5988      0.0000    118.8342    666.7231
  1824.7500      4.6377      0.0000    119.0270    666.3756
  1825.0000      4.6714      0.0000    121.0293    666.1381
  1825.2500      4.6757      0.0000    124.3367    665.9525
  1825.5000      4.6829      0.0000    128.0723    665.9392
  1825.7500      4.7155      0.0000    131.1968    666.1111
  1826.0000      4.7543      0.0000    132.7236    666.3030
  1826.2500      4.7952      0.0000    132.1895    666.3497
  1826.5000      4.8662      0.0000    130.1272    666.3318
  1826.7500      4.9883      0.0000    127.9247    666.4670
  1827.0000      5.1472      0.0000    126.9111    666.7860
  1827.2500      5.2938      0.0000    127.3954    667.1176
  1827.5000      5.3726      0.0000    128.4897    667.3484
  1827.7500      5.3636      0.0000    128.7945    667.4968
  1828.0000      5.2881      0.0000    127.3977    667.5331
  1828.2500      5.1857      0.0000    124.4541    667.3171
  1828.5000      5.1063      0.0000    120.9317    666.7742
  1828.7500      5.0914      0.0000    117.8293    666.0471
  1829.0000      5.1451      0.0000    115.5628    665.4549
  1829.2500      5.2381      0.0000    114.0073    665.3326
  1829.5000      5.3257      0.0000    113.0625    666.0431
  1829.7500      5.3564      0.0000    113.0907    668.4083
  1830.0000      5.3073      0.0000    114.6205    673.4150
  1830.2500      5.2173      0.0000    117.5777    679.2813
  1830.5000      5.1529      0.0000    121.0098    680.5141
  1830.7500      5.1493      0.0000    123.5921    675.1964
  1831.0000      5.1829      0.0000    124.4886    668.8367
  1831.2500      5.1870      0.0000    124.0788    665.9629
  1831.5000      5.1108      0.0000    123.9667    665.4182
  1831.7500      4.9758      0.0000    125.9799    664.3996
  1832.0000      4.8402      0.0000    130.8841    660.1268
  1832.2500      4.7373      0.0000    137.7874    649.4482
  1832.5000      4.6869      0.0000    144.3488    634.3918
  1832.7500      4.6990      0.0000    147.5717    626.4872
  1833.0000      4.7477      0.0000    145.1971    633.8262
  1833.2500      4.7906      0.0000    137.0252    648.2922
  1833.5000      4.8209      0.0000    125.0866    656.8707
  1833.7500      4.8644      0.0000    112.6268    655.3142
  1834.0000      4.9213      0.0000    102.6143    647.9400
  1834.2500      4.9804      0.0000     96.4477    643.5511
  1834.5000      5.0531      0.0000     93.7805    647.3657
  1834.7500      5.1232      0.0000     93.5643    655.1784
  1835.0000      5.1339      0.0000     94.8857    660.5866
  1835.2500      5.0729      0.0000     96.7761    662.3683
  1835.5000      4.9915      0.0000     98.0613    661.7279
  1835.7500      4.9199      0.0000     98.1218    656.9685
  1836.0000      4.8456      0.0000     97.5654    642.0521
  1836.2500      4.7677      0.0000     97.5660    613.0302
  1836.5000      4.7104      0.0000     98.5798    578.5659
  1836.7500      4.6908      0.0000    100.1608    556.5936
  1837.0000      4.6946      0.0000    101.9070    557.1723
  1837.2500      4.7050      0.0000    104.0077    576.5671
  1837.5000      4.7390      0.0000    106.8745    605.4393
  1837.7500      4.8026      0.0000    110.7478    634.1139
  1838.0000      4.8522      0.0000    115.5584    654.9077
  1838.2500      4.8369      0.0000    120.6168    666.9423
  1838.5000      4.7374      0.0000    124.4197    675.5728
  1838.7500      4.5748      0.0000    125.2890    683.8333
  1839.0000      4.4160      0.0000    122.6621    687.5761
  1839.2500      4.3289      0.0000    117.8552    683.0670
  1839.5000      4.3157      0.0000    113.2559    674.6466
  1839.7500      4.3354      0.0000    110.5712    668.7130
  1840.0000      4.3732      0.0000    110.0304    666.4200
  1840.2500      4.4426      0.0000    111.0564    665.7460
  1840.5000      4.5438      0.0000    112.9970    665.3430
  1840.7500      4.6529      0.0000    115.2172    665.0682
  1841.0000      4.7576      0.0000    117.2780    665.1238
  1841.2500      4.8735      0.0000    119.3032    665.5228
  1841.5000      5.0027      0.0000    121.7725    666.0880
  1841.7500      5.1082      0.0000    124.7725    666.6084
  1842.0000      5.1462      0.0000    127.5489    666.9499
  1842.2500      5.1180      0.0000    128.8365    667.0863
