~Version Information
VERS.                      2.0: CWLS Log ASCII Standard - VERSION 2.0
WRAP.                       NO: One line per depth step
~Well Information Block
STRT.FT                -6.0000: 
STOP.FT               783.7500: 
STEP.FT                 0.2500: 
NULL.                -999.2500: 
COMP.          Pioneer Natural Resources: COMPANY
WELL.           Weissach 32-32: WELL
FLD.           Purgatorie River: FIELD
LOC.           --2193' FNL & 2256' FEL--: LOCATION
STAT.                       CO: State
CNTY.               Las Animas: COUNTY
CTRY. USA : Country
SECT. 32 : Section
TOWN. 33S : Township
RANG. 65W : Range
SRVC.          Patterson Wireline: SERVICE COMPANY
DATE.          Thu Sep 29 12:52:09 2005: LOG DATE
API.           05 071 08523 00: UNIQUE WELL ID
~Curve Information Block
DEPT.FT            0 000 00 00: Depth
CCL.                          : Casing Collar Locator
TT3.usec                      : CBL 3' Travel Time
AMP3.mV                       : CBL 3' Amplitude
GR.GAPI                       : Gamma Ray
~Parameter Information Block
~A  Depth       CCL         TT3         AMP3         GR     
# ...
   563.5000      0.0000    693.7698     10.1871     86.6137
   563.7500      0.0000    696.2755     10.1744     86.7834
   564.0000      0.0000    700.7021     10.0900     87.0885
   564.2500      0.0000    706.0878      9.9613     86.0521
   564.5000      0.0000    710.0896      9.8157     82.5529
   564.7500      0.0000    710.6666      9.6724     76.8718
   565.0000      0.0000    708.1040      9.5480     70.9030
   565.2500      0.0000    704.8880      9.4602     67.0274
   565.5000      0.0000    703.2924      9.4238     66.7044
   565.7500      0.0000    703.3601      9.4449     70.1088
   566.0000      0.0000    703.3826      9.5148     76.5769
   566.2500      0.0000    701.9950      9.6096     84.7472
   566.5000      0.0000    699.4082      9.7026     92.5265
   566.7500      0.0000    696.7512      9.7762     97.8823
   567.0000      0.0000    694.8204      9.8212    100.0916
   567.2500      0.0000    693.7014      9.8329     99.7649
   567.5000      0.0000    693.1841      9.8124     97.4933
   567.7500      0.0000    693.1176      9.7659     93.1308
   568.0000      0.0000    693.3789      9.7023     86.7336
   568.2500      0.0000    693.7434      9.6384     79.4610
   568.5000      0.0000    693.9279      9.6048     72.9535
   568.7500      0.0000    693.7665      9.6350     68.1336
   569.0000      0.0000    693.3168      9.7409     64.8701
   569.2500      0.0000    692.7813      9.9026     62.5351
   569.5000      0.0000    692.3458     10.0842     60.6534
   569.7500      0.0000    692.0809     10.2564     59.1487
   570.0000      0.0000    691.9562     10.4003     58.1702
   570.2500      0.0000    691.9003     10.4939     57.7455
   570.5000      0.0000    691.8264     10.5097     57.6164
   570.7500      0.0000    691.4560     10.4375     57.4532
   571.0000      0.0000    689.9697     10.3074     57.2504
   571.2500      0.0000    685.7271     10.1790     57.4195
   571.5000      0.0000    676.9130     10.1025     58.4070
   571.7500      0.0000    663.7926     10.0883     60.2759
   572.0000      0.0000    650.7112     10.1100     62.6113
   572.2500      0.0000    643.9105     10.1270     64.5578
   572.5000      0.0000    645.2186     10.1041     65.0191
   572.7500      0.0000    648.9521     10.0266     63.3700
   573.0000      0.0000    647.2397      9.9045     60.1630
   573.2500      0.0000    637.4091      9.7524     56.8397
   573.5000      0.0000    621.9151      9.5607     54.7407
   573.7500      0.0000    602.5095      9.2970     54.4164
   574.0000      0.0000    579.0419      8.9460     55.4994
   574.2500      0.0000    554.4767      8.5421     57.0826
   574.5000      0.0000    536.0115      8.1548     58.4628
   574.7500      0.0000    529.0565      7.8414     59.6576
   575.0000      0.0000    534.0315      7.6131     61.2685
   575.2500      0.0000    550.2515      7.4440     64.0011
   575.5000      0.0000    577.8819      7.3142     68.1868
   575.7500      0.0000    613.6661      7.2463     73.5065
   576.0000      0.0000    649.2143      7.2933     79.2752
   576.2500      0.0000    676.5887      7.4840     85.1349
   576.5000      0.0000    693.5079      7.7839     91.1367
   576.7500      0.0000    702.2257      8.1121     96.7964
   577.0000      0.0000    705.8759      8.3903    100.3774
   577.2500      0.0000    707.1901      8.5722     99.8228
   577.5000      0.0000    708.8795      8.6426     94.6821
   577.7500      0.0000    713.0486      8.6097     86.8032
   578.0000      0.0000    720.1625      8.5066     78.7685
   578.2500      0.0000    729.3082      8.3930     71.7918
   578.5000      0.0000    739.3076      8.3535     65.5047
   578.7500      0.0000    748.8565      8.4923     59.6545
   579.0000      0.0000    755.7784      8.9140     55.2520
   579.2500      0.0000    757.4500      9.6750     53.7198
   579.5000      0.0000    752.9742     10.7275     55.3238
   579.7500      0.0000    744.7432     11.9175     58.8068
   580.0000      0.0000    737.0082     13.0499     62.4046
   580.2500      0.0000    732.4119     13.9572     65.0519
   580.5000      0.0000    730.0565     14.5142     66.7848
   580.7500      0.0000    727.0095     14.6292     68.2647
   581.0000      0.0000    721.3158     14.2666     69.9617
   581.2500      0.0000    713.2364     13.4826     71.5990
   581.5000      0.0000    703.4656     12.4218     72.2092
   581.7500      0.0000    690.1459     11.2654     70.8652
   582.0000      0.0000    668.5422     10.1649     67.6515
   582.2500      0.0000    635.7855      9.1856     63.9319
   582.5000      0.0000    597.1490      8.2885     61.3524
   582.7500      0.0000    565.1290      7.3894     60.4092
   583.0000      0.0000    548.5405      6.4772     60.0976
   583.2500      0.0000    543.3755      5.6783     59.0671
   583.5000      0.0000    537.8583      5.1752     56.9926
   583.7500      0.0000    524.8672      5.0549     54.6858
   584.0000      0.0000    504.9843      5.2445     53.0877
   584.2500      0.0000    480.5302      5.5721     52.4405
   584.5000      0.0000    454.3765      5.8616     52.2722
   584.7500      0.0000    434.6457      5.9854     51.9022
   585.0000      0.0000    434.2253      5.8795     51.0380
   585.2500      0.0000    462.2617      5.5639     50.1695
   585.5000      0.0000    514.9873      5.1704     50.3483
   585.7500      0.0000    574.3504      4.9108     52.2870
   586.0000      0.0000    618.8606      4.9454     55.6330
   586.2500      0.0000    639.7947      5.2670     59.2520
   586.5000      0.0000    646.1511      5.7433     62.1353
   586.7500      0.0000    652.4671      6.2603     63.8679
   587.0000      0.0000    664.6473      6.7846     64.3703
   587.2500      0.0000    678.9935      7.3052     63.5616
   587.5000      0.0000    690.4770      7.7782     61.6043
   587.7500      0.0000    697.9967      8.1450     59.5540
   588.0000      0.0000    703.1636      8.3763     59.4929
   588.2500      0.0000    707.3985      8.4867     63.3624
   588.5000      0.0000    711.0829      8.5150     71.2838
   588.7500      0.0000    714.2559      8.4956     81.3958
   589.0000      0.0000    716.7689      8.4403     91.6543
   589.2500      0.0000    717.7638      8.3430    101.3584
   589.5000      0.0000    716.1347      8.2011    110.5704
   589.7500      0.0000    712.1093      8.0314    118.5910
   590.0000      0.0000    707.7756      7.8634    123.5398
   590.2500      0.0000    705.5922      7.7200    123.3643
   590.5000      0.0000    706.4045      7.6028    117.5095
   590.7500      0.0000    708.5527      7.4972    108.0315
   591.0000      0.0000    708.7480      7.3905     98.5734
   591.2500      0.0000    704.7188      7.2840     91.5279
   591.5000      0.0000    697.7929      7.1885     86.5274
   591.7500      0.0000    692.3176      7.1126     82.0411
   592.0000      0.0000    691.8014      7.0588     77.6831
   592.2500      0.0000    695.8631      7.0297     74.4062
   592.5000      0.0000    701.0530      7.0314     73.1769
   592.7500      0.0000    704.0006      7.0693     74.1675
   593.0000      0.0000    703.6534      7.1391     76.8885
   593.2500      0.0000    701.2219      7.2234     80.6614
   593.5000      0.0000    698.5900      7.3002     84.9927
   593.7500      0.0000    696.8654      7.3545     89.5290
   594.0000      0.0000    696.1224      7.3819     93.8543
   594.2500      0.0000    695.9626      7.3826     97.5680
   594.5000      0.0000    696.0173      7.3535    100.3331
   594.7500      0.0000    696.0814      7.2880    101.6416
   595.0000      0.0000    696.1007      7.1881    101.0173
   595.2500      0.0000    696.1434      7.0765     98.6983
   595.5000      0.0000    696.3219      6.9948     95.6744
   595.7500      0.0000    696.6387      6.9818     92.9053
   596.0000      0.0000    696.7721      7.0472     90.7914
   596.2500      0.0000    695.8954      7.1625     89.2180
   596.5000      0.0000    692.7188      7.2745     87.7037
   596.7500      0.0000    686.1204      7.3332     85.7843
